{
   "results" : [
      {
         "address_components" : [
            {
               "long_name" : "Bahadur Shah Zafar Road",
               "short_name" : "Bahadur Shah Zafar Rd",
               "types" : [ "route" ]
            },
            {
               "long_name" : "New Delhi",
               "short_name" : "New Delhi",
               "types" : [ "locality", "political" ]
            },
            {
               "long_name" : "Delhi",
               "short_name" : "DL",
               "types" : [ "administrative_area_level_1", "political" ]
            },
            {
               "long_name" : "India",
               "short_name" : "IN",
               "types" : [ "country", "political" ]
            }
         ],
         "formatted_address" : "Bahadur Shah Zafar Road, New Delhi, Delhi, India",
         "geometry" : {
            "bounds" : {
               "northeast" : {
                  "lat" : 28.6403914,
                  "lng" : 77.24156189999999
               },
               "southwest" : {
                  "lat" : 28.6250636,
                  "lng" : 77.24012019999999
               }
            },
            "location" : {
               "lat" : 28.6325965,
               "lng" : 77.2410627
            },
            "location_type" : "GEOMETRIC_CENTER",
            "viewport" : {
               "northeast" : {
                  "lat" : 28.6403914,
                  "lng" : 77.2421900302915
               },
               "southwest" : {
                  "lat" : 28.6250636,
                  "lng" : 77.23949206970849
               }
            }
         },
         "partial_match" : true,
         "types" : [ "route" ]
      },
      {
         "address_components" : [
            {
               "long_name" : "Bahadur Shah Zafar Road",
               "short_name" : "Bahadur Shah Zafar Road",
               "types" : [ "route" ]
            },
            {
               "long_name" : "Karachi",
               "short_name" : "Karachi",
               "types" : [ "locality", "political" ]
            },
            {
               "long_name" : "Karachi District",
               "short_name" : "Karachi District",
               "types" : [ "administrative_area_level_2", "political" ]
            },
            {
               "long_name" : "Sindh",
               "short_name" : "Sindh",
               "types" : [ "administrative_area_level_1", "political" ]
            },
            {
               "long_name" : "Pakistan",
               "short_name" : "PK",
               "types" : [ "country", "political" ]
            }
         ],
         "formatted_address" : "Bahadur Shah Zafar Road, Karachi, Pakistan",
         "geometry" : {
            "bounds" : {
               "northeast" : {
                  "lat" : 24.8857673,
                  "lng" : 67.0697657
               },
               "southwest" : {
                  "lat" : 24.8795773,
                  "lng" : 67.064538
               }
            },
            "location" : {
               "lat" : 24.8824485,
               "lng" : 67.0673087
            },
            "location_type" : "GEOMETRIC_CENTER",
            "viewport" : {
               "northeast" : {
                  "lat" : 24.8857673,
                  "lng" : 67.0697657
               },
               "southwest" : {
                  "lat" : 24.8795773,
                  "lng" : 67.064538
               }
            }
         },
         "partial_match" : true,
         "types" : [ "route" ]
      },
      {
         "address_components" : [
            {
               "long_name" : "Bahadur Shah Zafar Road",
               "short_name" : "Bahadur Shah Zafar Road",
               "types" : [ "route" ]
            },
            {
               "long_name" : "Gulshan-e-Iqbal Town",
               "short_name" : "Gulshan-e-Iqbal Town",
               "types" : [ "sublocality_level_1", "sublocality", "political" ]
            },
            {
               "long_name" : "Karachi",
               "short_name" : "Karachi",
               "types" : [ "locality", "political" ]
            },
            {
               "long_name" : "Karachi District",
               "short_name" : "Karachi District",
               "types" : [ "administrative_area_level_2", "political" ]
            },
            {
               "long_name" : "Sindh",
               "short_name" : "Sindh",
               "types" : [ "administrative_area_level_1", "political" ]
            },
            {
               "long_name" : "Pakistan",
               "short_name" : "PK",
               "types" : [ "country", "political" ]
            }
         ],
         "formatted_address" : "Bahadur Shah Zafar Road, Karachi, Pakistan",
         "geometry" : {
            "bounds" : {
               "northeast" : {
                  "lat" : 24.8877942,
                  "lng" : 67.07266509999999
               },
               "southwest" : {
                  "lat" : 24.8823877,
                  "lng" : 67.0674348
               }
            },
            "location" : {
               "lat" : 24.8854201,
               "lng" : 67.0696993
            },
            "location_type" : "GEOMETRIC_CENTER",
            "viewport" : {
               "northeast" : {
                  "lat" : 24.8877942,
                  "lng" : 67.07266509999999
               },
               "southwest" : {
                  "lat" : 24.8823877,
                  "lng" : 67.0674348
               }
            }
         },
         "partial_match" : true,
         "types" : [ "route" ]
      },
      {
         "address_components" : [
            {
               "long_name" : "Bahadurshah Zafar Market",
               "short_name" : "Bahadurshah Zafar Market",
               "types" : [ "premise" ]
            },
            {
               "long_name" : "Bahadurshah Zafar Market",
               "short_name" : "Bahadurshah Zafar Market",
               "types" : [ "establishment" ]
            },
            {
               "long_name" : "Saddar Town",
               "short_name" : "Saddar Town",
               "types" : [ "sublocality_level_1", "sublocality", "political" ]
            },
            {
               "long_name" : "Karachi",
               "short_name" : "Karachi",
               "types" : [ "locality", "political" ]
            },
            {
               "long_name" : "Karachi District",
               "short_name" : "Karachi District",
               "types" : [ "administrative_area_level_2", "political" ]
            },
            {
               "long_name" : "Sindh",
               "short_name" : "Sindh",
               "types" : [ "administrative_area_level_1", "political" ]
            },
            {
               "long_name" : "Pakistan",
               "short_name" : "PK",
               "types" : [ "country", "political" ]
            }
         ],
         "formatted_address" : "Bahadurshah Zafar Market, Bahadurshah Zafar Market, Karachi, Pakistan",
         "geometry" : {
            "bounds" : {
               "northeast" : {
                  "lat" : 24.8604722,
                  "lng" : 67.0174974
               },
               "southwest" : {
                  "lat" : 24.8596495,
                  "lng" : 67.0172345
               }
            },
            "location" : {
               "lat" : 24.8600772,
               "lng" : 67.01737059999999
            },
            "location_type" : "ROOFTOP",
            "viewport" : {
               "northeast" : {
                  "lat" : 24.8614098302915,
                  "lng" : 67.01871493029151
               },
               "southwest" : {
                  "lat" : 24.8587118697085,
                  "lng" : 67.01601696970849
               }
            }
         },
         "partial_match" : true,
         "types" : [ "premise" ]
      },
      {
         "address_components" : [
            {
               "long_name" : "Bahadur Shah Zafar Marg",
               "short_name" : "Bahadur Shah Zafar Marg",
               "types" : [ "route" ]
            },
            {
               "long_name" : "Railway Colony",
               "short_name" : "Railway Colony",
               "types" : [ "sublocality_level_2", "sublocality", "political" ]
            },
            {
               "long_name" : "Pragati Maidan",
               "short_name" : "Pragati Maidan",
               "types" : [ "sublocality_level_1", "sublocality", "political" ]
            },
            {
               "long_name" : "New Delhi",
               "short_name" : "New Delhi",
               "types" : [ "locality", "political" ]
            },
            {
               "long_name" : "New Delhi",
               "short_name" : "New Delhi",
               "types" : [ "administrative_area_level_2", "political" ]
            },
            {
               "long_name" : "Delhi",
               "short_name" : "DL",
               "types" : [ "administrative_area_level_1", "political" ]
            },
            {
               "long_name" : "India",
               "short_name" : "IN",
               "types" : [ "country", "political" ]
            },
            {
               "long_name" : "110001",
               "short_name" : "110001",
               "types" : [ "postal_code" ]
            }
         ],
         "formatted_address" : "Bahadur Shah Zafar Marg, Railway Colony, Pragati Maidan, New Delhi, Delhi 110001",
         "geometry" : {
            "location" : {
               "lat" : 28.6257263,
               "lng" : 77.24106429999999
            },
            "location_type" : "GEOMETRIC_CENTER",
            "viewport" : {
               "northeast" : {
                  "lat" : 28.62707528029151,
                  "lng" : 77.2424132802915
               },
               "southwest" : {
                  "lat" : 28.6243773197085,
                  "lng" : 77.23971531970849
               }
            }
         },
         "partial_match" : true,
         "types" : [ "route" ]
      },
      {
         "address_components" : [
            {
               "long_name" : "Bahadur Shah Zafar Grave",
               "short_name" : "Bahadur Shah Zafar Grave",
               "types" : [ "point_of_interest", "establishment" ]
            },
            {
               "long_name" : "Zi Wa Ka Street",
               "short_name" : "Zi Wa Ka St",
               "types" : [ "route" ]
            },
            {
               "long_name" : "Dagon",
               "short_name" : "Dagon",
               "types" : [ "sublocality_level_1", "sublocality", "political" ]
            },
            {
               "long_name" : "Yangon",
               "short_name" : "Yangon",
               "types" : [ "locality", "political" ]
            },
            {
               "long_name" : "Yangon Region",
               "short_name" : "Yangon Region",
               "types" : [ "administrative_area_level_1", "political" ]
            },
            {
               "long_name" : "Republic of the Union of Myanmar",
               "short_name" : "MM",
               "types" : [ "country", "political" ]
            }
         ],
         "formatted_address" : "Bahadur Shah Zafar Grave, Zi Wa Ka Street, Yangon, Republic of the Union of Myanmar",
         "geometry" : {
            "location" : {
               "lat" : 16.7899689,
               "lng" : 96.15022049999999
            },
            "location_type" : "APPROXIMATE",
            "viewport" : {
               "northeast" : {
                  "lat" : 16.7913178802915,
                  "lng" : 96.1515694802915
               },
               "southwest" : {
                  "lat" : 16.7886199197085,
                  "lng" : 96.14887151970849
               }
            }
         },
         "partial_match" : true,
         "types" : [ "museum", "point_of_interest", "establishment" ]
      }
   ],
   "status" : "OK"
}
