{
   "results" : [
      {
         "address_components" : [
            {
               "long_name" : "Bihari Colony",
               "short_name" : "Bihari Colony",
               "types" : [ "sublocality_level_2", "sublocality", "political" ]
            },
            {
               "long_name" : "Shahdara",
               "short_name" : "Shahdara",
               "types" : [ "sublocality_level_1", "sublocality", "political" ]
            },
            {
               "long_name" : "New Delhi",
               "short_name" : "New Delhi",
               "types" : [ "locality", "political" ]
            },
            {
               "long_name" : "East Delhi",
               "short_name" : "East Delhi",
               "types" : [ "administrative_area_level_2", "political" ]
            },
            {
               "long_name" : "Delhi",
               "short_name" : "DL",
               "types" : [ "administrative_area_level_1", "political" ]
            },
            {
               "long_name" : "India",
               "short_name" : "IN",
               "types" : [ "country", "political" ]
            }
         ],
         "formatted_address" : "Bihari Colony, Shahdara, New Delhi, Delhi, India",
         "geometry" : {
            "bounds" : {
               "northeast" : {
                  "lat" : 28.672933,
                  "lng" : 77.29155279999999
               },
               "southwest" : {
                  "lat" : 28.6669524,
                  "lng" : 77.2803591
               }
            },
            "location" : {
               "lat" : 28.670459,
               "lng" : 77.2828969
            },
            "location_type" : "APPROXIMATE",
            "viewport" : {
               "northeast" : {
                  "lat" : 28.672933,
                  "lng" : 77.29155279999999
               },
               "southwest" : {
                  "lat" : 28.6669524,
                  "lng" : 77.2803591
               }
            }
         },
         "types" : [ "sublocality_level_2", "sublocality", "political" ]
      },
      {
         "address_components" : [
            {
               "long_name" : "Behari Colony",
               "short_name" : "Behari Colony",
               "types" : [ "locality", "political" ]
            },
            {
               "long_name" : "Sialkot District",
               "short_name" : "Sialkot District",
               "types" : [ "administrative_area_level_2", "political" ]
            },
            {
               "long_name" : "Punjab",
               "short_name" : "Punjab",
               "types" : [ "administrative_area_level_1", "political" ]
            },
            {
               "long_name" : "Pakistan",
               "short_name" : "PK",
               "types" : [ "country", "political" ]
            }
         ],
         "formatted_address" : "Behari Colony, Pakistan",
         "geometry" : {
            "bounds" : {
               "northeast" : {
                  "lat" : 32.3227887,
                  "lng" : 74.3905199
               },
               "southwest" : {
                  "lat" : 32.3213471,
                  "lng" : 74.3885537
               }
            },
            "location" : {
               "lat" : 32.3221965,
               "lng" : 74.3897192
            },
            "location_type" : "APPROXIMATE",
            "viewport" : {
               "northeast" : {
                  "lat" : 32.3234168802915,
                  "lng" : 74.39088578029151
               },
               "southwest" : {
                  "lat" : 32.3207189197085,
                  "lng" : 74.38818781970851
               }
            }
         },
         "types" : [ "locality", "political" ]
      },
      {
         "address_components" : [
            {
               "long_name" : "Bihari Colony",
               "short_name" : "Bihari Colony",
               "types" : [ "sublocality_level_1", "sublocality", "political" ]
            },
            {
               "long_name" : "Gujrat",
               "short_name" : "Gujrat",
               "types" : [ "locality", "political" ]
            },
            {
               "long_name" : "Punjab",
               "short_name" : "Punjab",
               "types" : [ "administrative_area_level_1", "political" ]
            },
            {
               "long_name" : "Pakistan",
               "short_name" : "PK",
               "types" : [ "country", "political" ]
            }
         ],
         "formatted_address" : "Bihari Colony, Gujrat, Pakistan",
         "geometry" : {
            "bounds" : {
               "northeast" : {
                  "lat" : 32.5261934,
                  "lng" : 74.09296909999999
               },
               "southwest" : {
                  "lat" : 32.5246235,
                  "lng" : 74.0912105
               }
            },
            "location" : {
               "lat" : 32.5254873,
               "lng" : 74.0920615
            },
            "location_type" : "APPROXIMATE",
            "viewport" : {
               "northeast" : {
                  "lat" : 32.5267574302915,
                  "lng" : 74.09343878029151
               },
               "southwest" : {
                  "lat" : 32.5240594697085,
                  "lng" : 74.09074081970849
               }
            }
         },
         "types" : [ "sublocality_level_1", "sublocality", "political" ]
      },
      {
         "address_components" : [
            {
               "long_name" : "Bihari Colony",
               "short_name" : "Bihari Colony",
               "types" : [ "neighborhood", "political" ]
            },
            {
               "long_name" : "Dera Ghāzi Khān",
               "short_name" : "D G Khan",
               "types" : [ "locality", "political" ]
            },
            {
               "long_name" : "Dera Ghazi Khan District",
               "short_name" : "Dera Ghazi Khan District",
               "types" : [ "administrative_area_level_2", "political" ]
            },
            {
               "long_name" : "Punjab",
               "short_name" : "Punjab",
               "types" : [ "administrative_area_level_1", "political" ]
            },
            {
               "long_name" : "Pakistan",
               "short_name" : "PK",
               "types" : [ "country", "political" ]
            }
         ],
         "formatted_address" : "Bihari Colony, Dera Ghāzi Khān, Pakistan",
         "geometry" : {
            "bounds" : {
               "northeast" : {
                  "lat" : 30.0686854,
                  "lng" : 70.6261897
               },
               "southwest" : {
                  "lat" : 30.0607465,
                  "lng" : 70.62201619999999
               }
            },
            "location" : {
               "lat" : 30.0657887,
               "lng" : 70.6239101
            },
            "location_type" : "APPROXIMATE",
            "viewport" : {
               "northeast" : {
                  "lat" : 30.0686854,
                  "lng" : 70.6261897
               },
               "southwest" : {
                  "lat" : 30.0607465,
                  "lng" : 70.62201619999999
               }
            }
         },
         "types" : [ "neighborhood", "political" ]
      },
      {
         "address_components" : [
            {
               "long_name" : "Bihari Colony",
               "short_name" : "Bihari Colony",
               "types" : [ "neighborhood", "political" ]
            },
            {
               "long_name" : "Bahawalpur",
               "short_name" : "BWP",
               "types" : [ "locality", "political" ]
            },
            {
               "long_name" : "Bahawalpur",
               "short_name" : "Bahawalpur",
               "types" : [ "administrative_area_level_2", "political" ]
            },
            {
               "long_name" : "Punjab",
               "short_name" : "Punjab",
               "types" : [ "administrative_area_level_1", "political" ]
            },
            {
               "long_name" : "Pakistan",
               "short_name" : "PK",
               "types" : [ "country", "political" ]
            }
         ],
         "formatted_address" : "Bihari Colony, Bahawalpur, Pakistan",
         "geometry" : {
            "bounds" : {
               "northeast" : {
                  "lat" : 29.3956552,
                  "lng" : 71.716143
               },
               "southwest" : {
                  "lat" : 29.3914674,
                  "lng" : 71.71172249999999
               }
            },
            "location" : {
               "lat" : 29.3933239,
               "lng" : 71.7140536
            },
            "location_type" : "APPROXIMATE",
            "viewport" : {
               "northeast" : {
                  "lat" : 29.3956552,
                  "lng" : 71.716143
               },
               "southwest" : {
                  "lat" : 29.3914674,
                  "lng" : 71.71172249999999
               }
            }
         },
         "types" : [ "neighborhood", "political" ]
      },
      {
         "address_components" : [
            {
               "long_name" : "Bihari Colony",
               "short_name" : "Bihari Colony",
               "types" : [ "neighborhood", "political" ]
            },
            {
               "long_name" : "Hasilpur",
               "short_name" : "Hasilpur",
               "types" : [ "locality", "political" ]
            },
            {
               "long_name" : "Bahawalpur",
               "short_name" : "Bahawalpur",
               "types" : [ "administrative_area_level_2", "political" ]
            },
            {
               "long_name" : "Punjab",
               "short_name" : "Punjab",
               "types" : [ "administrative_area_level_1", "political" ]
            },
            {
               "long_name" : "Pakistan",
               "short_name" : "PK",
               "types" : [ "country", "political" ]
            }
         ],
         "formatted_address" : "Bihari Colony, Hasilpur, Pakistan",
         "geometry" : {
            "bounds" : {
               "northeast" : {
                  "lat" : 29.6915665,
                  "lng" : 72.5551432
               },
               "southwest" : {
                  "lat" : 29.6904107,
                  "lng" : 72.5504655
               }
            },
            "location" : {
               "lat" : 29.6910035,
               "lng" : 72.55283229999999
            },
            "location_type" : "APPROXIMATE",
            "viewport" : {
               "northeast" : {
                  "lat" : 29.6923375802915,
                  "lng" : 72.5551432
               },
               "southwest" : {
                  "lat" : 29.6896396197085,
                  "lng" : 72.5504655
               }
            }
         },
         "types" : [ "neighborhood", "political" ]
      },
      {
         "address_components" : [
            {
               "long_name" : "Bihari Colony",
               "short_name" : "Bihari Colony",
               "types" : [ "neighborhood", "political" ]
            },
            {
               "long_name" : "Model Town",
               "short_name" : "Model Town",
               "types" : [ "sublocality_level_1", "sublocality", "political" ]
            },
            {
               "long_name" : "Bahāwalnagar",
               "short_name" : "Bahāwalnagar",
               "types" : [ "locality", "political" ]
            },
            {
               "long_name" : "District Bahawalnagar",
               "short_name" : "District Bahawalnagar",
               "types" : [ "administrative_area_level_2", "political" ]
            },
            {
               "long_name" : "Punjab",
               "short_name" : "Punjab",
               "types" : [ "administrative_area_level_1", "political" ]
            },
            {
               "long_name" : "Pakistan",
               "short_name" : "PK",
               "types" : [ "country", "political" ]
            }
         ],
         "formatted_address" : "Bihari Colony, Bahāwalnagar, Pakistan",
         "geometry" : {
            "bounds" : {
               "northeast" : {
                  "lat" : 29.9827618,
                  "lng" : 73.2607627
               },
               "southwest" : {
                  "lat" : 29.9798437,
                  "lng" : 73.2560204
               }
            },
            "location" : {
               "lat" : 29.9815466,
               "lng" : 73.2581069
            },
            "location_type" : "APPROXIMATE",
            "viewport" : {
               "northeast" : {
                  "lat" : 29.9827618,
                  "lng" : 73.2607627
               },
               "southwest" : {
                  "lat" : 29.9798437,
                  "lng" : 73.2560204
               }
            }
         },
         "types" : [ "neighborhood", "political" ]
      },
      {
         "address_components" : [
            {
               "long_name" : "Bihari Colony",
               "short_name" : "Bihari Colony",
               "types" : [ "neighborhood", "political" ]
            },
            {
               "long_name" : "Mymensingh",
               "short_name" : "Mymensingh",
               "types" : [ "locality", "political" ]
            },
            {
               "long_name" : "Mymensingh",
               "short_name" : "Mymensingh",
               "types" : [ "administrative_area_level_2", "political" ]
            },
            {
               "long_name" : "Dhaka Division",
               "short_name" : "Dhaka Division",
               "types" : [ "administrative_area_level_1", "political" ]
            },
            {
               "long_name" : "Bangladesh",
               "short_name" : "BD",
               "types" : [ "country", "political" ]
            }
         ],
         "formatted_address" : "Bihari Colony, Mymensingh, Bangladesh",
         "geometry" : {
            "bounds" : {
               "northeast" : {
                  "lat" : 24.7482977,
                  "lng" : 90.4200661
               },
               "southwest" : {
                  "lat" : 24.7468264,
                  "lng" : 90.41797389999999
               }
            },
            "location" : {
               "lat" : 24.7474729,
               "lng" : 90.419293
            },
            "location_type" : "APPROXIMATE",
            "viewport" : {
               "northeast" : {
                  "lat" : 24.74891103029151,
                  "lng" : 90.4203689802915
               },
               "southwest" : {
                  "lat" : 24.7462130697085,
                  "lng" : 90.41767101970849
               }
            }
         },
         "types" : [ "neighborhood", "political" ]
      },
      {
         "address_components" : [
            {
               "long_name" : "Behari Colony",
               "short_name" : "Behari Colony",
               "types" : [ "neighborhood", "political" ]
            },
            {
               "long_name" : "Civil Lines",
               "short_name" : "Civil Lines",
               "types" : [ "sublocality_level_1", "sublocality", "political" ]
            },
            {
               "long_name" : "Sheikhupura",
               "short_name" : "Sheikhupura",
               "types" : [ "locality", "political" ]
            },
            {
               "long_name" : "Sheikhupura",
               "short_name" : "Sheikhupura",
               "types" : [ "administrative_area_level_2", "political" ]
            },
            {
               "long_name" : "Punjab",
               "short_name" : "Punjab",
               "types" : [ "administrative_area_level_1", "political" ]
            },
            {
               "long_name" : "Pakistan",
               "short_name" : "PK",
               "types" : [ "country", "political" ]
            }
         ],
         "formatted_address" : "Behari Colony, Sheikhupura, Pakistan",
         "geometry" : {
            "bounds" : {
               "northeast" : {
                  "lat" : 31.7202663,
                  "lng" : 73.97040659999999
               },
               "southwest" : {
                  "lat" : 31.71856489999999,
                  "lng" : 73.96077099999999
               }
            },
            "location" : {
               "lat" : 31.7195679,
               "lng" : 73.9662898
            },
            "location_type" : "APPROXIMATE",
            "viewport" : {
               "northeast" : {
                  "lat" : 31.7207645802915,
                  "lng" : 73.97040659999999
               },
               "southwest" : {
                  "lat" : 31.7180666197085,
                  "lng" : 73.96077099999999
               }
            }
         },
         "types" : [ "neighborhood", "political" ]
      }
   ],
   "status" : "OK"
}
