{
   "results" : [
      {
         "address_components" : [
            {
               "long_name" : "Church Road",
               "short_name" : "Church Rd",
               "types" : [ "route" ]
            },
            {
               "long_name" : "Montgomery County",
               "short_name" : "Montgomery County",
               "types" : [ "administrative_area_level_2", "political" ]
            },
            {
               "long_name" : "Pennsylvania",
               "short_name" : "PA",
               "types" : [ "administrative_area_level_1", "political" ]
            },
            {
               "long_name" : "United States",
               "short_name" : "US",
               "types" : [ "country", "political" ]
            }
         ],
         "formatted_address" : "Church Road, Pennsylvania, USA",
         "geometry" : {
            "bounds" : {
               "northeast" : {
                  "lat" : 40.1202023,
                  "lng" : -75.133375
               },
               "southwest" : {
                  "lat" : 40.080965,
                  "lng" : -75.2156064
               }
            },
            "location" : {
               "lat" : 40.0992653,
               "lng" : -75.1757058
            },
            "location_type" : "GEOMETRIC_CENTER",
            "viewport" : {
               "northeast" : {
                  "lat" : 40.1202023,
                  "lng" : -75.133375
               },
               "southwest" : {
                  "lat" : 40.080965,
                  "lng" : -75.2156064
               }
            }
         },
         "types" : [ "route" ]
      },
      {
         "address_components" : [
            {
               "long_name" : "Church Road",
               "short_name" : "Church Rd",
               "types" : [ "route" ]
            },
            {
               "long_name" : "Cass County",
               "short_name" : "Cass County",
               "types" : [ "administrative_area_level_2", "political" ]
            },
            {
               "long_name" : "Nebraska",
               "short_name" : "NE",
               "types" : [ "administrative_area_level_1", "political" ]
            },
            {
               "long_name" : "United States",
               "short_name" : "US",
               "types" : [ "country", "political" ]
            }
         ],
         "formatted_address" : "Church Road, Nebraska, USA",
         "geometry" : {
            "bounds" : {
               "northeast" : {
                  "lat" : 40.963061,
                  "lng" : -95.9109924
               },
               "southwest" : {
                  "lat" : 40.9524268,
                  "lng" : -96.44587399999999
               }
            },
            "location" : {
               "lat" : 40.9578757,
               "lng" : -96.1779942
            },
            "location_type" : "GEOMETRIC_CENTER",
            "viewport" : {
               "northeast" : {
                  "lat" : 40.963061,
                  "lng" : -95.9109924
               },
               "southwest" : {
                  "lat" : 40.9524268,
                  "lng" : -96.44587399999999
               }
            }
         },
         "types" : [ "route" ]
      },
      {
         "address_components" : [
            {
               "long_name" : "Church Road",
               "short_name" : "Church Rd",
               "types" : [ "route" ]
            },
            {
               "long_name" : "New Jersey",
               "short_name" : "NJ",
               "types" : [ "administrative_area_level_1", "political" ]
            },
            {
               "long_name" : "United States",
               "short_name" : "US",
               "types" : [ "country", "political" ]
            }
         ],
         "formatted_address" : "Church Road, New Jersey, USA",
         "geometry" : {
            "bounds" : {
               "northeast" : {
                  "lat" : 39.951209,
                  "lng" : -74.7504003
               },
               "southwest" : {
                  "lat" : 39.9129,
                  "lng" : -75.04134839999999
               }
            },
            "location" : {
               "lat" : 39.9214395,
               "lng" : -74.89235920000002
            },
            "location_type" : "GEOMETRIC_CENTER",
            "viewport" : {
               "northeast" : {
                  "lat" : 39.951209,
                  "lng" : -74.7504003
               },
               "southwest" : {
                  "lat" : 39.9129,
                  "lng" : -75.04134839999999
               }
            }
         },
         "types" : [ "route" ]
      },
      {
         "address_components" : [
            {
               "long_name" : "Church Road",
               "short_name" : "Church Rd",
               "types" : [ "route" ]
            },
            {
               "long_name" : "Petersburg",
               "short_name" : "Petersburg",
               "types" : [ "locality", "political" ]
            },
            {
               "long_name" : "Matoaca",
               "short_name" : "Matoaca",
               "types" : [ "administrative_area_level_3", "political" ]
            },
            {
               "long_name" : "Chesterfield County",
               "short_name" : "Chesterfield County",
               "types" : [ "administrative_area_level_2", "political" ]
            },
            {
               "long_name" : "Virginia",
               "short_name" : "VA",
               "types" : [ "administrative_area_level_1", "political" ]
            },
            {
               "long_name" : "United States",
               "short_name" : "US",
               "types" : [ "country", "political" ]
            },
            {
               "long_name" : "23803",
               "short_name" : "23803",
               "types" : [ "postal_code" ]
            }
         ],
         "formatted_address" : "Church Road, Petersburg, VA 23803, USA",
         "geometry" : {
            "bounds" : {
               "northeast" : {
                  "lat" : 37.2645829,
                  "lng" : -77.49628799999999
               },
               "southwest" : {
                  "lat" : 37.2315052,
                  "lng" : -77.520679
               }
            },
            "location" : {
               "lat" : 37.2480239,
               "lng" : -77.5086013
            },
            "location_type" : "GEOMETRIC_CENTER",
            "viewport" : {
               "northeast" : {
                  "lat" : 37.2645829,
                  "lng" : -77.49628799999999
               },
               "southwest" : {
                  "lat" : 37.2315052,
                  "lng" : -77.520679
               }
            }
         },
         "types" : [ "route" ]
      },
      {
         "address_components" : [
            {
               "long_name" : "Church Road",
               "short_name" : "Church Rd",
               "types" : [ "route" ]
            },
            {
               "long_name" : "Hardeeville",
               "short_name" : "Hardeeville",
               "types" : [ "locality", "political" ]
            },
            {
               "long_name" : "Jasper County",
               "short_name" : "Jasper County",
               "types" : [ "administrative_area_level_2", "political" ]
            },
            {
               "long_name" : "South Carolina",
               "short_name" : "SC",
               "types" : [ "administrative_area_level_1", "political" ]
            },
            {
               "long_name" : "United States",
               "short_name" : "US",
               "types" : [ "country", "political" ]
            },
            {
               "long_name" : "29927",
               "short_name" : "29927",
               "types" : [ "postal_code" ]
            }
         ],
         "formatted_address" : "Church Road, Hardeeville, SC 29927, USA",
         "geometry" : {
            "bounds" : {
               "northeast" : {
                  "lat" : 32.2969591,
                  "lng" : -81.0811028
               },
               "southwest" : {
                  "lat" : 32.2872444,
                  "lng" : -81.1191954
               }
            },
            "location" : {
               "lat" : 32.2967685,
               "lng" : -81.1006247
            },
            "location_type" : "GEOMETRIC_CENTER",
            "viewport" : {
               "northeast" : {
                  "lat" : 32.2969591,
                  "lng" : -81.0811028
               },
               "southwest" : {
                  "lat" : 32.2872444,
                  "lng" : -81.1191954
               }
            }
         },
         "types" : [ "route" ]
      },
      {
         "address_components" : [
            {
               "long_name" : "Church Road",
               "short_name" : "Church Rd",
               "types" : [ "route" ]
            },
            {
               "long_name" : "Richlandtown",
               "short_name" : "Richlandtown",
               "types" : [ "locality", "political" ]
            },
            {
               "long_name" : "Bucks County",
               "short_name" : "Bucks County",
               "types" : [ "administrative_area_level_2", "political" ]
            },
            {
               "long_name" : "Pennsylvania",
               "short_name" : "PA",
               "types" : [ "administrative_area_level_1", "political" ]
            },
            {
               "long_name" : "United States",
               "short_name" : "US",
               "types" : [ "country", "political" ]
            },
            {
               "long_name" : "18955",
               "short_name" : "18955",
               "types" : [ "postal_code" ]
            }
         ],
         "formatted_address" : "Church Road, Richlandtown, PA 18955, USA",
         "geometry" : {
            "bounds" : {
               "northeast" : {
                  "lat" : 40.49562419999999,
                  "lng" : -75.3055308
               },
               "southwest" : {
                  "lat" : 40.4708109,
                  "lng" : -75.32031669999999
               }
            },
            "location" : {
               "lat" : 40.4833735,
               "lng" : -75.31337669999999
            },
            "location_type" : "GEOMETRIC_CENTER",
            "viewport" : {
               "northeast" : {
                  "lat" : 40.49562419999999,
                  "lng" : -75.3055308
               },
               "southwest" : {
                  "lat" : 40.4708109,
                  "lng" : -75.32031669999999
               }
            }
         },
         "types" : [ "route" ]
      },
      {
         "address_components" : [
            {
               "long_name" : "Church Road",
               "short_name" : "Church Rd",
               "types" : [ "route" ]
            },
            {
               "long_name" : "DeSoto County",
               "short_name" : "Desoto County",
               "types" : [ "administrative_area_level_2", "political" ]
            },
            {
               "long_name" : "Mississippi",
               "short_name" : "MS",
               "types" : [ "administrative_area_level_1", "political" ]
            },
            {
               "long_name" : "United States",
               "short_name" : "US",
               "types" : [ "country", "political" ]
            }
         ],
         "formatted_address" : "Church Road, Mississippi, USA",
         "geometry" : {
            "bounds" : {
               "northeast" : {
                  "lat" : 34.937739,
                  "lng" : -90.013351
               },
               "southwest" : {
                  "lat" : 34.92691,
                  "lng" : -90.18288319999999
               }
            },
            "location" : {
               "lat" : 34.9332935,
               "lng" : -90.0978885
            },
            "location_type" : "GEOMETRIC_CENTER",
            "viewport" : {
               "northeast" : {
                  "lat" : 34.937739,
                  "lng" : -90.013351
               },
               "southwest" : {
                  "lat" : 34.92691,
                  "lng" : -90.18288319999999
               }
            }
         },
         "types" : [ "route" ]
      },
      {
         "address_components" : [
            {
               "long_name" : "Church Road",
               "short_name" : "Church Rd",
               "types" : [ "route" ]
            },
            {
               "long_name" : "Bowie",
               "short_name" : "Bowie",
               "types" : [ "locality", "political" ]
            },
            {
               "long_name" : "Prince George's County",
               "short_name" : "Prince George's County",
               "types" : [ "administrative_area_level_2", "political" ]
            },
            {
               "long_name" : "Maryland",
               "short_name" : "MD",
               "types" : [ "administrative_area_level_1", "political" ]
            },
            {
               "long_name" : "United States",
               "short_name" : "US",
               "types" : [ "country", "political" ]
            }
         ],
         "formatted_address" : "Church Road, Bowie, MD, USA",
         "geometry" : {
            "bounds" : {
               "northeast" : {
                  "lat" : 38.9722819,
                  "lng" : -76.74994099999999
               },
               "southwest" : {
                  "lat" : 38.8745755,
                  "lng" : -76.77637349999999
               }
            },
            "location" : {
               "lat" : 38.9243356,
               "lng" : -76.76058159999999
            },
            "location_type" : "GEOMETRIC_CENTER",
            "viewport" : {
               "northeast" : {
                  "lat" : 38.9722819,
                  "lng" : -76.74994099999999
               },
               "southwest" : {
                  "lat" : 38.8745755,
                  "lng" : -76.77637349999999
               }
            }
         },
         "types" : [ "route" ]
      },
      {
         "address_components" : [
            {
               "long_name" : "Church Road",
               "short_name" : "Church Rd",
               "types" : [ "route" ]
            },
            {
               "long_name" : "Santa Fe",
               "short_name" : "Santa Fe",
               "types" : [ "locality", "political" ]
            },
            {
               "long_name" : "Maury County",
               "short_name" : "Maury County",
               "types" : [ "administrative_area_level_2", "political" ]
            },
            {
               "long_name" : "Tennessee",
               "short_name" : "TN",
               "types" : [ "administrative_area_level_1", "political" ]
            },
            {
               "long_name" : "United States",
               "short_name" : "US",
               "types" : [ "country", "political" ]
            },
            {
               "long_name" : "38482",
               "short_name" : "38482",
               "types" : [ "postal_code" ]
            }
         ],
         "formatted_address" : "Church Road, Santa Fe, TN 38482, USA",
         "geometry" : {
            "bounds" : {
               "northeast" : {
                  "lat" : 35.7672955,
                  "lng" : -87.13303979999999
               },
               "southwest" : {
                  "lat" : 35.749142,
                  "lng" : -87.14263000000001
               }
            },
            "location" : {
               "lat" : 35.7584766,
               "lng" : -87.13553859999999
            },
            "location_type" : "GEOMETRIC_CENTER",
            "viewport" : {
               "northeast" : {
                  "lat" : 35.7672955,
                  "lng" : -87.13303979999999
               },
               "southwest" : {
                  "lat" : 35.749142,
                  "lng" : -87.14263000000001
               }
            }
         },
         "types" : [ "route" ]
      },
      {
         "address_components" : [
            {
               "long_name" : "Church Road",
               "short_name" : "Church Rd",
               "types" : [ "route" ]
            },
            {
               "long_name" : "Township of Taylorsville",
               "short_name" : "Taylorsville",
               "types" : [ "locality", "political" ]
            },
            {
               "long_name" : "Alexander County",
               "short_name" : "Alexander County",
               "types" : [ "administrative_area_level_2", "political" ]
            },
            {
               "long_name" : "North Carolina",
               "short_name" : "NC",
               "types" : [ "administrative_area_level_1", "political" ]
            },
            {
               "long_name" : "United States",
               "short_name" : "US",
               "types" : [ "country", "political" ]
            },
            {
               "long_name" : "28681",
               "short_name" : "28681",
               "types" : [ "postal_code" ]
            }
         ],
         "formatted_address" : "Church Road, Township of Taylorsville, NC 28681, USA",
         "geometry" : {
            "bounds" : {
               "northeast" : {
                  "lat" : 35.9187194,
                  "lng" : -81.21730300000002
               },
               "southwest" : {
                  "lat" : 35.81747,
                  "lng" : -81.2527181
               }
            },
            "location" : {
               "lat" : 35.8730634,
               "lng" : -81.22445809999999
            },
            "location_type" : "GEOMETRIC_CENTER",
            "viewport" : {
               "northeast" : {
                  "lat" : 35.9187194,
                  "lng" : -81.21730300000002
               },
               "southwest" : {
                  "lat" : 35.81747,
                  "lng" : -81.2527181
               }
            }
         },
         "types" : [ "route" ]
      },
      {
         "address_components" : [
            {
               "long_name" : "Church Road",
               "short_name" : "Church Rd",
               "types" : [ "route" ]
            },
            {
               "long_name" : "Fogelsville",
               "short_name" : "Fogelsville",
               "types" : [ "locality", "political" ]
            },
            {
               "long_name" : "Upper Macungie",
               "short_name" : "Upper Macungie",
               "types" : [ "administrative_area_level_3", "political" ]
            },
            {
               "long_name" : "Lehigh County",
               "short_name" : "Lehigh County",
               "types" : [ "administrative_area_level_2", "political" ]
            },
            {
               "long_name" : "Pennsylvania",
               "short_name" : "PA",
               "types" : [ "administrative_area_level_1", "political" ]
            },
            {
               "long_name" : "United States",
               "short_name" : "US",
               "types" : [ "country", "political" ]
            },
            {
               "long_name" : "18051",
               "short_name" : "18051",
               "types" : [ "postal_code" ]
            }
         ],
         "formatted_address" : "Church Road, Fogelsville, PA 18051, USA",
         "geometry" : {
            "bounds" : {
               "northeast" : {
                  "lat" : 40.5873499,
                  "lng" : -75.62835889999999
               },
               "southwest" : {
                  "lat" : 40.5811297,
                  "lng" : -75.656604
               }
            },
            "location" : {
               "lat" : 40.5861151,
               "lng" : -75.64224279999999
            },
            "location_type" : "GEOMETRIC_CENTER",
            "viewport" : {
               "northeast" : {
                  "lat" : 40.5873499,
                  "lng" : -75.62835889999999
               },
               "southwest" : {
                  "lat" : 40.5811297,
                  "lng" : -75.656604
               }
            }
         },
         "types" : [ "route" ]
      },
      {
         "address_components" : [
            {
               "long_name" : "Church Road",
               "short_name" : "Church Rd",
               "types" : [ "route" ]
            },
            {
               "long_name" : "Wayne County",
               "short_name" : "Wayne County",
               "types" : [ "administrative_area_level_2", "political" ]
            },
            {
               "long_name" : "Ohio",
               "short_name" : "OH",
               "types" : [ "administrative_area_level_1", "political" ]
            },
            {
               "long_name" : "United States",
               "short_name" : "US",
               "types" : [ "country", "political" ]
            }
         ],
         "formatted_address" : "Church Road, Ohio, USA",
         "geometry" : {
            "bounds" : {
               "northeast" : {
                  "lat" : 40.827385,
                  "lng" : -81.64800459999999
               },
               "southwest" : {
                  "lat" : 40.817945,
                  "lng" : -81.7843455
               }
            },
            "location" : {
               "lat" : 40.8239226,
               "lng" : -81.7155243
            },
            "location_type" : "GEOMETRIC_CENTER",
            "viewport" : {
               "northeast" : {
                  "lat" : 40.827385,
                  "lng" : -81.64800459999999
               },
               "southwest" : {
                  "lat" : 40.817945,
                  "lng" : -81.7843455
               }
            }
         },
         "types" : [ "route" ]
      },
      {
         "address_components" : [
            {
               "long_name" : "Church Road",
               "short_name" : "Church Rd",
               "types" : [ "route" ]
            },
            {
               "long_name" : "Mountain Top",
               "short_name" : "Mountain Top",
               "types" : [ "locality", "political" ]
            },
            {
               "long_name" : "Luzerne County",
               "short_name" : "Luzerne County",
               "types" : [ "administrative_area_level_2", "political" ]
            },
            {
               "long_name" : "Pennsylvania",
               "short_name" : "PA",
               "types" : [ "administrative_area_level_1", "political" ]
            },
            {
               "long_name" : "United States",
               "short_name" : "US",
               "types" : [ "country", "political" ]
            },
            {
               "long_name" : "18707",
               "short_name" : "18707",
               "types" : [ "postal_code" ]
            }
         ],
         "formatted_address" : "Church Road, Mountain Top, PA 18707, USA",
         "geometry" : {
            "bounds" : {
               "northeast" : {
                  "lat" : 41.1513867,
                  "lng" : -75.87379949999999
               },
               "southwest" : {
                  "lat" : 41.117024,
                  "lng" : -75.97483
               }
            },
            "location" : {
               "lat" : 41.1198977,
               "lng" : -75.9200111
            },
            "location_type" : "GEOMETRIC_CENTER",
            "viewport" : {
               "northeast" : {
                  "lat" : 41.1513867,
                  "lng" : -75.87379949999999
               },
               "southwest" : {
                  "lat" : 41.117024,
                  "lng" : -75.97483
               }
            }
         },
         "types" : [ "route" ]
      },
      {
         "address_components" : [
            {
               "long_name" : "Church Road",
               "short_name" : "Church Rd",
               "types" : [ "route" ]
            },
            {
               "long_name" : "Saint Stephen",
               "short_name" : "St Stephen",
               "types" : [ "locality", "political" ]
            },
            {
               "long_name" : "Berkeley County",
               "short_name" : "Berkeley County",
               "types" : [ "administrative_area_level_2", "political" ]
            },
            {
               "long_name" : "South Carolina",
               "short_name" : "SC",
               "types" : [ "administrative_area_level_1", "political" ]
            },
            {
               "long_name" : "United States",
               "short_name" : "US",
               "types" : [ "country", "political" ]
            },
            {
               "long_name" : "29479",
               "short_name" : "29479",
               "types" : [ "postal_code" ]
            }
         ],
         "formatted_address" : "Church Road, Saint Stephen, SC 29479, USA",
         "geometry" : {
            "bounds" : {
               "northeast" : {
                  "lat" : 33.406725,
                  "lng" : -79.9077489
               },
               "southwest" : {
                  "lat" : 33.40404,
                  "lng" : -79.92499529999999
               }
            },
            "location" : {
               "lat" : 33.4056321,
               "lng" : -79.9162061
            },
            "location_type" : "GEOMETRIC_CENTER",
            "viewport" : {
               "northeast" : {
                  "lat" : 33.4067314802915,
                  "lng" : -79.9077489
               },
               "southwest" : {
                  "lat" : 33.40403351970851,
                  "lng" : -79.92499529999999
               }
            }
         },
         "types" : [ "route" ]
      },
      {
         "address_components" : [
            {
               "long_name" : "Church Road",
               "short_name" : "Church Rd",
               "types" : [ "route" ]
            },
            {
               "long_name" : "Toms River",
               "short_name" : "Toms River",
               "types" : [ "locality", "political" ]
            },
            {
               "long_name" : "Ocean County",
               "short_name" : "Ocean County",
               "types" : [ "administrative_area_level_2", "political" ]
            },
            {
               "long_name" : "New Jersey",
               "short_name" : "NJ",
               "types" : [ "administrative_area_level_1", "political" ]
            },
            {
               "long_name" : "United States",
               "short_name" : "US",
               "types" : [ "country", "political" ]
            }
         ],
         "formatted_address" : "Church Road, Toms River, NJ, USA",
         "geometry" : {
            "bounds" : {
               "northeast" : {
                  "lat" : 40.022112,
                  "lng" : -74.14499259999999
               },
               "southwest" : {
                  "lat" : 40.007857,
                  "lng" : -74.2159221
               }
            },
            "location" : {
               "lat" : 40.0157525,
               "lng" : -74.1809327
            },
            "location_type" : "GEOMETRIC_CENTER",
            "viewport" : {
               "northeast" : {
                  "lat" : 40.022112,
                  "lng" : -74.14499259999999
               },
               "southwest" : {
                  "lat" : 40.007857,
                  "lng" : -74.2159221
               }
            }
         },
         "types" : [ "route" ]
      },
      {
         "address_components" : [
            {
               "long_name" : "Church Road",
               "short_name" : "Church Rd",
               "types" : [ "route" ]
            },
            {
               "long_name" : "Hamlin",
               "short_name" : "Hamlin",
               "types" : [ "locality", "political" ]
            },
            {
               "long_name" : "Monroe County",
               "short_name" : "Monroe County",
               "types" : [ "administrative_area_level_2", "political" ]
            },
            {
               "long_name" : "New York",
               "short_name" : "NY",
               "types" : [ "administrative_area_level_1", "political" ]
            },
            {
               "long_name" : "United States",
               "short_name" : "US",
               "types" : [ "country", "political" ]
            },
            {
               "long_name" : "14464",
               "short_name" : "14464",
               "types" : [ "postal_code" ]
            }
         ],
         "formatted_address" : "Church Road, Hamlin, NY 14464, USA",
         "geometry" : {
            "bounds" : {
               "northeast" : {
                  "lat" : 43.325162,
                  "lng" : -77.8188352
               },
               "southwest" : {
                  "lat" : 43.316046,
                  "lng" : -77.9652517
               }
            },
            "location" : {
               "lat" : 43.3203351,
               "lng" : -77.8915992
            },
            "location_type" : "GEOMETRIC_CENTER",
            "viewport" : {
               "northeast" : {
                  "lat" : 43.325162,
                  "lng" : -77.8188352
               },
               "southwest" : {
                  "lat" : 43.316046,
                  "lng" : -77.9652517
               }
            }
         },
         "types" : [ "route" ]
      },
      {
         "address_components" : [
            {
               "long_name" : "Church Road",
               "short_name" : "BIA Rd 10",
               "types" : [ "route" ]
            },
            {
               "long_name" : "Campo",
               "short_name" : "Campo",
               "types" : [ "locality", "political" ]
            },
            {
               "long_name" : "San Diego County",
               "short_name" : "San Diego County",
               "types" : [ "administrative_area_level_2", "political" ]
            },
            {
               "long_name" : "California",
               "short_name" : "CA",
               "types" : [ "administrative_area_level_1", "political" ]
            },
            {
               "long_name" : "United States",
               "short_name" : "US",
               "types" : [ "country", "political" ]
            },
            {
               "long_name" : "91906",
               "short_name" : "91906",
               "types" : [ "postal_code" ]
            }
         ],
         "formatted_address" : "Bureau of Indian Affairs Road 10, Campo, CA 91906, USA",
         "geometry" : {
            "bounds" : {
               "northeast" : {
                  "lat" : 32.7008891,
                  "lng" : -116.3539443
               },
               "southwest" : {
                  "lat" : 32.6263987,
                  "lng" : -116.3714772
               }
            },
            "location" : {
               "lat" : 32.6611423,
               "lng" : -116.3700637
            },
            "location_type" : "GEOMETRIC_CENTER",
            "viewport" : {
               "northeast" : {
                  "lat" : 32.7008891,
                  "lng" : -116.3539443
               },
               "southwest" : {
                  "lat" : 32.6263987,
                  "lng" : -116.3714772
               }
            }
         },
         "types" : [ "route" ]
      },
      {
         "address_components" : [
            {
               "long_name" : "Church Road",
               "short_name" : "Church Rd",
               "types" : [ "route" ]
            },
            {
               "long_name" : "Sampson County",
               "short_name" : "Sampson County",
               "types" : [ "administrative_area_level_2", "political" ]
            },
            {
               "long_name" : "North Carolina",
               "short_name" : "NC",
               "types" : [ "administrative_area_level_1", "political" ]
            },
            {
               "long_name" : "United States",
               "short_name" : "US",
               "types" : [ "country", "political" ]
            }
         ],
         "formatted_address" : "Church Road, North Carolina, USA",
         "geometry" : {
            "bounds" : {
               "northeast" : {
                  "lat" : 35.2000017,
                  "lng" : -78.38731559999999
               },
               "southwest" : {
                  "lat" : 35.111853,
                  "lng" : -78.407714
               }
            },
            "location" : {
               "lat" : 35.1562349,
               "lng" : -78.39655809999999
            },
            "location_type" : "GEOMETRIC_CENTER",
            "viewport" : {
               "northeast" : {
                  "lat" : 35.2000017,
                  "lng" : -78.38731559999999
               },
               "southwest" : {
                  "lat" : 35.111853,
                  "lng" : -78.407714
               }
            }
         },
         "types" : [ "route" ]
      },
      {
         "address_components" : [
            {
               "long_name" : "Church Road",
               "short_name" : "Church Rd",
               "types" : [ "route" ]
            },
            {
               "long_name" : "Albion",
               "short_name" : "Albion",
               "types" : [ "locality", "political" ]
            },
            {
               "long_name" : "Erie County",
               "short_name" : "Erie County",
               "types" : [ "administrative_area_level_2", "political" ]
            },
            {
               "long_name" : "Pennsylvania",
               "short_name" : "PA",
               "types" : [ "administrative_area_level_1", "political" ]
            },
            {
               "long_name" : "United States",
               "short_name" : "US",
               "types" : [ "country", "political" ]
            },
            {
               "long_name" : "16401",
               "short_name" : "16401",
               "types" : [ "postal_code" ]
            }
         ],
         "formatted_address" : "Church Road, Albion, PA 16401, USA",
         "geometry" : {
            "bounds" : {
               "northeast" : {
                  "lat" : 41.9376566,
                  "lng" : -80.3672624
               },
               "southwest" : {
                  "lat" : 41.8977693,
                  "lng" : -80.4606567
               }
            },
            "location" : {
               "lat" : 41.924584,
               "lng" : -80.41524459999999
            },
            "location_type" : "GEOMETRIC_CENTER",
            "viewport" : {
               "northeast" : {
                  "lat" : 41.9376566,
                  "lng" : -80.3672624
               },
               "southwest" : {
                  "lat" : 41.8977693,
                  "lng" : -80.4606567
               }
            }
         },
         "types" : [ "route" ]
      },
      {
         "address_components" : [
            {
               "long_name" : "Church Road",
               "short_name" : "Church Rd",
               "types" : [ "route" ]
            },
            {
               "long_name" : "Sulligent",
               "short_name" : "Sulligent",
               "types" : [ "locality", "political" ]
            },
            {
               "long_name" : "Lamar County",
               "short_name" : "Lamar County",
               "types" : [ "administrative_area_level_2", "political" ]
            },
            {
               "long_name" : "Alabama",
               "short_name" : "AL",
               "types" : [ "administrative_area_level_1", "political" ]
            },
            {
               "long_name" : "United States",
               "short_name" : "US",
               "types" : [ "country", "political" ]
            },
            {
               "long_name" : "35586",
               "short_name" : "35586",
               "types" : [ "postal_code" ]
            }
         ],
         "formatted_address" : "Church Road, Sulligent, AL 35586, USA",
         "geometry" : {
            "bounds" : {
               "northeast" : {
                  "lat" : 33.890432,
                  "lng" : -88.03385809999999
               },
               "southwest" : {
                  "lat" : 33.861648,
                  "lng" : -88.0704444
               }
            },
            "location" : {
               "lat" : 33.8797224,
               "lng" : -88.0436436
            },
            "location_type" : "GEOMETRIC_CENTER",
            "viewport" : {
               "northeast" : {
                  "lat" : 33.890432,
                  "lng" : -88.03385809999999
               },
               "southwest" : {
                  "lat" : 33.861648,
                  "lng" : -88.0704444
               }
            }
         },
         "types" : [ "route" ]
      },
      {
         "address_components" : [
            {
               "long_name" : "Church Road",
               "short_name" : "Church Rd",
               "types" : [ "route" ]
            },
            {
               "long_name" : "Linesville",
               "short_name" : "Linesville",
               "types" : [ "locality", "political" ]
            },
            {
               "long_name" : "Crawford County",
               "short_name" : "Crawford County",
               "types" : [ "administrative_area_level_2", "political" ]
            },
            {
               "long_name" : "Pennsylvania",
               "short_name" : "PA",
               "types" : [ "administrative_area_level_1", "political" ]
            },
            {
               "long_name" : "United States",
               "short_name" : "US",
               "types" : [ "country", "political" ]
            },
            {
               "long_name" : "16424",
               "short_name" : "16424",
               "types" : [ "postal_code" ]
            }
         ],
         "formatted_address" : "Church Road, Linesville, PA 16424, USA",
         "geometry" : {
            "bounds" : {
               "northeast" : {
                  "lat" : 41.6141913,
                  "lng" : -80.43991470000002
               },
               "southwest" : {
                  "lat" : 41.5572558,
                  "lng" : -80.4684975
               }
            },
            "location" : {
               "lat" : 41.5870912,
               "lng" : -80.4604574
            },
            "location_type" : "GEOMETRIC_CENTER",
            "viewport" : {
               "northeast" : {
                  "lat" : 41.6141913,
                  "lng" : -80.43991470000002
               },
               "southwest" : {
                  "lat" : 41.5572558,
                  "lng" : -80.4684975
               }
            }
         },
         "types" : [ "route" ]
      },
      {
         "address_components" : [
            {
               "long_name" : "Church Road",
               "short_name" : "Church Rd",
               "types" : [ "route" ]
            },
            {
               "long_name" : "Henrico",
               "short_name" : "Henrico",
               "types" : [ "locality", "political" ]
            },
            {
               "long_name" : "Henrico County",
               "short_name" : "Henrico County",
               "types" : [ "administrative_area_level_2", "political" ]
            },
            {
               "long_name" : "Virginia",
               "short_name" : "VA",
               "types" : [ "administrative_area_level_1", "political" ]
            },
            {
               "long_name" : "United States",
               "short_name" : "US",
               "types" : [ "country", "political" ]
            },
            {
               "long_name" : "23233",
               "short_name" : "23233",
               "types" : [ "postal_code" ]
            }
         ],
         "formatted_address" : "Church Road, Henrico, VA 23233, USA",
         "geometry" : {
            "bounds" : {
               "northeast" : {
                  "lat" : 37.641544,
                  "lng" : -77.58795909999999
               },
               "southwest" : {
                  "lat" : 37.629771,
                  "lng" : -77.651118
               }
            },
            "location" : {
               "lat" : 37.6317864,
               "lng" : -77.6192034
            },
            "location_type" : "GEOMETRIC_CENTER",
            "viewport" : {
               "northeast" : {
                  "lat" : 37.641544,
                  "lng" : -77.58795909999999
               },
               "southwest" : {
                  "lat" : 37.629771,
                  "lng" : -77.651118
               }
            }
         },
         "types" : [ "route" ]
      },
      {
         "address_components" : [
            {
               "long_name" : "Church Road",
               "short_name" : "State Rd 1711",
               "types" : [ "route" ]
            },
            {
               "long_name" : "Pink Hill",
               "short_name" : "Pink Hill",
               "types" : [ "locality", "political" ]
            },
            {
               "long_name" : "Duplin County",
               "short_name" : "Duplin County",
               "types" : [ "administrative_area_level_2", "political" ]
            },
            {
               "long_name" : "North Carolina",
               "short_name" : "NC",
               "types" : [ "administrative_area_level_1", "political" ]
            },
            {
               "long_name" : "United States",
               "short_name" : "US",
               "types" : [ "country", "political" ]
            },
            {
               "long_name" : "28572",
               "short_name" : "28572",
               "types" : [ "postal_code" ]
            }
         ],
         "formatted_address" : "Church Road, Pink Hill, NC 28572, USA",
         "geometry" : {
            "bounds" : {
               "northeast" : {
                  "lat" : 35.0022485,
                  "lng" : -77.7105815
               },
               "southwest" : {
                  "lat" : 34.9699212,
                  "lng" : -77.7547216
               }
            },
            "location" : {
               "lat" : 34.9849406,
               "lng" : -77.7342096
            },
            "location_type" : "GEOMETRIC_CENTER",
            "viewport" : {
               "northeast" : {
                  "lat" : 35.0022485,
                  "lng" : -77.7105815
               },
               "southwest" : {
                  "lat" : 34.9699212,
                  "lng" : -77.7547216
               }
            }
         },
         "types" : [ "route" ]
      },
      {
         "address_components" : [
            {
               "long_name" : "Church Road",
               "short_name" : "Church Rd",
               "types" : [ "route" ]
            },
            {
               "long_name" : "Milford",
               "short_name" : "Milford",
               "types" : [ "locality", "political" ]
            },
            {
               "long_name" : "Hunterdon County",
               "short_name" : "Hunterdon County",
               "types" : [ "administrative_area_level_2", "political" ]
            },
            {
               "long_name" : "New Jersey",
               "short_name" : "NJ",
               "types" : [ "administrative_area_level_1", "political" ]
            },
            {
               "long_name" : "United States",
               "short_name" : "US",
               "types" : [ "country", "political" ]
            },
            {
               "long_name" : "08848",
               "short_name" : "08848",
               "types" : [ "postal_code" ]
            }
         ],
         "formatted_address" : "Church Road, Milford, NJ 08848, USA",
         "geometry" : {
            "bounds" : {
               "northeast" : {
                  "lat" : 40.598509,
                  "lng" : -75.11693390000001
               },
               "southwest" : {
                  "lat" : 40.5744504,
                  "lng" : -75.187218
               }
            },
            "location" : {
               "lat" : 40.5901752,
               "lng" : -75.15371159999999
            },
            "location_type" : "GEOMETRIC_CENTER",
            "viewport" : {
               "northeast" : {
                  "lat" : 40.598509,
                  "lng" : -75.11693390000001
               },
               "southwest" : {
                  "lat" : 40.5744504,
                  "lng" : -75.187218
               }
            }
         },
         "types" : [ "route" ]
      },
      {
         "address_components" : [
            {
               "long_name" : "Church Road",
               "short_name" : "Church Rd",
               "types" : [ "route" ]
            },
            {
               "long_name" : "Florence",
               "short_name" : "Florence",
               "types" : [ "locality", "political" ]
            },
            {
               "long_name" : "Lauderdale County",
               "short_name" : "Lauderdale County",
               "types" : [ "administrative_area_level_2", "political" ]
            },
            {
               "long_name" : "Alabama",
               "short_name" : "AL",
               "types" : [ "administrative_area_level_1", "political" ]
            },
            {
               "long_name" : "United States",
               "short_name" : "US",
               "types" : [ "country", "political" ]
            }
         ],
         "formatted_address" : "Church Road, Florence, AL, USA",
         "geometry" : {
            "bounds" : {
               "northeast" : {
                  "lat" : 34.88389900000001,
                  "lng" : -87.60408409999999
               },
               "southwest" : {
                  "lat" : 34.873221,
                  "lng" : -87.6727573
               }
            },
            "location" : {
               "lat" : 34.8764119,
               "lng" : -87.63904389999999
            },
            "location_type" : "GEOMETRIC_CENTER",
            "viewport" : {
               "northeast" : {
                  "lat" : 34.88389900000001,
                  "lng" : -87.60408409999999
               },
               "southwest" : {
                  "lat" : 34.873221,
                  "lng" : -87.6727573
               }
            }
         },
         "types" : [ "route" ]
      },
      {
         "address_components" : [
            {
               "long_name" : "Church Road",
               "short_name" : "Church Rd",
               "types" : [ "route" ]
            },
            {
               "long_name" : "Wasilla",
               "short_name" : "Wasilla",
               "types" : [ "locality", "political" ]
            },
            {
               "long_name" : "Matanuska-Susitna",
               "short_name" : "Matanuska-Susitna",
               "types" : [ "administrative_area_level_2", "political" ]
            },
            {
               "long_name" : "Alaska",
               "short_name" : "AK",
               "types" : [ "administrative_area_level_1", "political" ]
            },
            {
               "long_name" : "United States",
               "short_name" : "US",
               "types" : [ "country", "political" ]
            },
            {
               "long_name" : "99654",
               "short_name" : "99654",
               "types" : [ "postal_code" ]
            }
         ],
         "formatted_address" : "Church Road, Wasilla, AK 99654, USA",
         "geometry" : {
            "bounds" : {
               "northeast" : {
                  "lat" : 61.63849519999999,
                  "lng" : -149.502726
               },
               "southwest" : {
                  "lat" : 61.57907599999999,
                  "lng" : -149.52259
               }
            },
            "location" : {
               "lat" : 61.6087347,
               "lng" : -149.5115607
            },
            "location_type" : "GEOMETRIC_CENTER",
            "viewport" : {
               "northeast" : {
                  "lat" : 61.63849519999999,
                  "lng" : -149.502726
               },
               "southwest" : {
                  "lat" : 61.57907599999999,
                  "lng" : -149.52259
               }
            }
         },
         "types" : [ "route" ]
      },
      {
         "address_components" : [
            {
               "long_name" : "Church Road",
               "short_name" : "Church Rd",
               "types" : [ "route" ]
            },
            {
               "long_name" : "Lima",
               "short_name" : "Lima",
               "types" : [ "administrative_area_level_3", "political" ]
            },
            {
               "long_name" : "Sheboygan County",
               "short_name" : "Sheboygan County",
               "types" : [ "administrative_area_level_2", "political" ]
            },
            {
               "long_name" : "Wisconsin",
               "short_name" : "WI",
               "types" : [ "administrative_area_level_1", "political" ]
            },
            {
               "long_name" : "United States",
               "short_name" : "US",
               "types" : [ "country", "political" ]
            }
         ],
         "formatted_address" : "Church Road, Lima, WI, USA",
         "geometry" : {
            "bounds" : {
               "northeast" : {
                  "lat" : 43.638909,
                  "lng" : -87.83092329999999
               },
               "southwest" : {
                  "lat" : 43.637381,
                  "lng" : -87.9169469
               }
            },
            "location" : {
               "lat" : 43.6381304,
               "lng" : -87.8738589
            },
            "location_type" : "GEOMETRIC_CENTER",
            "viewport" : {
               "northeast" : {
                  "lat" : 43.6394939802915,
                  "lng" : -87.83092329999999
               },
               "southwest" : {
                  "lat" : 43.63679601970851,
                  "lng" : -87.9169469
               }
            }
         },
         "types" : [ "route" ]
      },
      {
         "address_components" : [
            {
               "long_name" : "Church Road",
               "short_name" : "Church Rd",
               "types" : [ "route" ]
            },
            {
               "long_name" : "Conover",
               "short_name" : "Conover",
               "types" : [ "locality", "political" ]
            },
            {
               "long_name" : "Conover",
               "short_name" : "Conover",
               "types" : [ "administrative_area_level_3", "political" ]
            },
            {
               "long_name" : "Vilas County",
               "short_name" : "Vilas County",
               "types" : [ "administrative_area_level_2", "political" ]
            },
            {
               "long_name" : "Wisconsin",
               "short_name" : "WI",
               "types" : [ "administrative_area_level_1", "political" ]
            },
            {
               "long_name" : "United States",
               "short_name" : "US",
               "types" : [ "country", "political" ]
            },
            {
               "long_name" : "54519",
               "short_name" : "54519",
               "types" : [ "postal_code" ]
            }
         ],
         "formatted_address" : "Church Road, Conover, WI 54519, USA",
         "geometry" : {
            "bounds" : {
               "northeast" : {
                  "lat" : 46.03189099999999,
                  "lng" : -89.19172929999999
               },
               "southwest" : {
                  "lat" : 46.02023699999999,
                  "lng" : -89.2591333
               }
            },
            "location" : {
               "lat" : 46.0224013,
               "lng" : -89.2248522
            },
            "location_type" : "GEOMETRIC_CENTER",
            "viewport" : {
               "northeast" : {
                  "lat" : 46.03189099999999,
                  "lng" : -89.19172929999999
               },
               "southwest" : {
                  "lat" : 46.02023699999999,
                  "lng" : -89.2591333
               }
            }
         },
         "types" : [ "route" ]
      },
      {
         "address_components" : [
            {
               "long_name" : "Church Road",
               "short_name" : "Church Rd",
               "types" : [ "route" ]
            },
            {
               "long_name" : "Deoli",
               "short_name" : "Deoli",
               "types" : [ "locality", "political" ]
            },
            {
               "long_name" : "Rajasthan",
               "short_name" : "RJ",
               "types" : [ "administrative_area_level_1", "political" ]
            },
            {
               "long_name" : "India",
               "short_name" : "IN",
               "types" : [ "country", "political" ]
            },
            {
               "long_name" : "304804",
               "short_name" : "304804",
               "types" : [ "postal_code" ]
            }
         ],
         "formatted_address" : "Church Road, Deoli, Rajasthan 304804, India",
         "geometry" : {
            "bounds" : {
               "northeast" : {
                  "lat" : 25.7614177,
                  "lng" : 75.3854604
               },
               "southwest" : {
                  "lat" : 25.7599159,
                  "lng" : 75.37487279999999
               }
            },
            "location" : {
               "lat" : 25.7612466,
               "lng" : 75.37951249999999
            },
            "location_type" : "GEOMETRIC_CENTER",
            "viewport" : {
               "northeast" : {
                  "lat" : 25.7620157802915,
                  "lng" : 75.3854604
               },
               "southwest" : {
                  "lat" : 25.7593178197085,
                  "lng" : 75.37487279999999
               }
            }
         },
         "types" : [ "route" ]
      },
      {
         "address_components" : [
            {
               "long_name" : "Church Road",
               "short_name" : "Church Rd",
               "types" : [ "route" ]
            },
            {
               "long_name" : "Bethel Springs",
               "short_name" : "Bethel Springs",
               "types" : [ "locality", "political" ]
            },
            {
               "long_name" : "McNairy County",
               "short_name" : "McNairy County",
               "types" : [ "administrative_area_level_2", "political" ]
            },
            {
               "long_name" : "Tennessee",
               "short_name" : "TN",
               "types" : [ "administrative_area_level_1", "political" ]
            },
            {
               "long_name" : "United States",
               "short_name" : "US",
               "types" : [ "country", "political" ]
            },
            {
               "long_name" : "38315",
               "short_name" : "38315",
               "types" : [ "postal_code" ]
            }
         ],
         "formatted_address" : "Church Road, Bethel Springs, TN 38315, USA",
         "geometry" : {
            "bounds" : {
               "northeast" : {
                  "lat" : 35.314303,
                  "lng" : -88.6230465
               },
               "southwest" : {
                  "lat" : 35.3122728,
                  "lng" : -88.6247588
               }
            },
            "location" : {
               "lat" : 35.31330630000001,
               "lng" : -88.62427079999999
            },
            "location_type" : "GEOMETRIC_CENTER",
            "viewport" : {
               "northeast" : {
                  "lat" : 35.31463688029149,
                  "lng" : -88.62255366970849
               },
               "southwest" : {
                  "lat" : 35.3119389197085,
                  "lng" : -88.62525163029152
               }
            }
         },
         "types" : [ "route" ]
      }
   ],
   "status" : "OK"
}
