{
   "results" : [
      {
         "address_components" : [
            {
               "long_name" : "100 Feet Road",
               "short_name" : "100 Feet Road",
               "types" : [ "route" ]
            },
            {
               "long_name" : "Coimbatore",
               "short_name" : "Coimbatore",
               "types" : [ "locality", "political" ]
            },
            {
               "long_name" : "Coimbatore",
               "short_name" : "Coimbatore",
               "types" : [ "administrative_area_level_2", "political" ]
            },
            {
               "long_name" : "Tamil Nadu",
               "short_name" : "TN",
               "types" : [ "administrative_area_level_1", "political" ]
            },
            {
               "long_name" : "India",
               "short_name" : "IN",
               "types" : [ "country", "political" ]
            }
         ],
         "formatted_address" : "100 Feet Road, Coimbatore, Tamil Nadu, India",
         "geometry" : {
            "bounds" : {
               "northeast" : {
                  "lat" : 11.021695,
                  "lng" : 76.99220559999999
               },
               "southwest" : {
                  "lat" : 11.0186382,
                  "lng" : 76.9602053
               }
            },
            "location" : {
               "lat" : 11.0211194,
               "lng" : 76.9761975
            },
            "location_type" : "GEOMETRIC_CENTER",
            "viewport" : {
               "northeast" : {
                  "lat" : 11.021695,
                  "lng" : 76.99220559999999
               },
               "southwest" : {
                  "lat" : 11.0186382,
                  "lng" : 76.9602053
               }
            }
         },
         "partial_match" : true,
         "types" : [ "route" ]
      },
      {
         "address_components" : [
            {
               "long_name" : "Dr. Rajendra Prasad",
               "short_name" : "Dr. Rajendra Prasad",
               "types" : [ "point_of_interest", "establishment" ]
            },
            {
               "long_name" : "Jasola",
               "short_name" : "Jasola",
               "types" : [ "sublocality_level_1", "sublocality", "political" ]
            },
            {
               "long_name" : "New Delhi",
               "short_name" : "New Delhi",
               "types" : [ "locality", "political" ]
            },
            {
               "long_name" : "South Delhi",
               "short_name" : "South Delhi",
               "types" : [ "administrative_area_level_2", "political" ]
            },
            {
               "long_name" : "Delhi",
               "short_name" : "DL",
               "types" : [ "administrative_area_level_1", "political" ]
            },
            {
               "long_name" : "India",
               "short_name" : "IN",
               "types" : [ "country", "political" ]
            },
            {
               "long_name" : "110020",
               "short_name" : "110020",
               "types" : [ "postal_code" ]
            }
         ],
         "formatted_address" : "Dr. Rajendra Prasad, Jasola, New Delhi, Delhi 110020, India",
         "geometry" : {
            "location" : {
               "lat" : 28.5408552,
               "lng" : 77.2828317
            },
            "location_type" : "APPROXIMATE",
            "viewport" : {
               "northeast" : {
                  "lat" : 28.54220418029151,
                  "lng" : 77.2841806802915
               },
               "southwest" : {
                  "lat" : 28.5395062197085,
                  "lng" : 77.28148271970849
               }
            }
         },
         "types" : [ "doctor", "point_of_interest", "health", "establishment" ]
      },
      {
         "address_components" : [
            {
               "long_name" : "Rajendra Prasad Road",
               "short_name" : "Rajendra Prasad Rd",
               "types" : [ "route" ]
            },
            {
               "long_name" : "Katihar",
               "short_name" : "Katihar",
               "types" : [ "locality", "political" ]
            },
            {
               "long_name" : "Katihar",
               "short_name" : "Katihar",
               "types" : [ "administrative_area_level_2", "political" ]
            },
            {
               "long_name" : "Bihar",
               "short_name" : "BR",
               "types" : [ "administrative_area_level_1", "political" ]
            },
            {
               "long_name" : "India",
               "short_name" : "IN",
               "types" : [ "country", "political" ]
            },
            {
               "long_name" : "854105",
               "short_name" : "854105",
               "types" : [ "postal_code" ]
            }
         ],
         "formatted_address" : "Rajendra Prasad Road, Katihar, Bihar 854105, India",
         "geometry" : {
            "bounds" : {
               "northeast" : {
                  "lat" : 25.5449849,
                  "lng" : 87.5803409
               },
               "southwest" : {
                  "lat" : 25.5360688,
                  "lng" : 87.56688090000002
               }
            },
            "location" : {
               "lat" : 25.543615,
               "lng" : 87.57367169999999
            },
            "location_type" : "GEOMETRIC_CENTER",
            "viewport" : {
               "northeast" : {
                  "lat" : 25.5449849,
                  "lng" : 87.5803409
               },
               "southwest" : {
                  "lat" : 25.5360688,
                  "lng" : 87.56688090000002
               }
            }
         },
         "partial_match" : true,
         "types" : [ "route" ]
      },
      {
         "address_components" : [
            {
               "long_name" : "Doctor Rajendra Prasad Marg",
               "short_name" : "Dr Rajendra Prasad Marg",
               "types" : [ "route" ]
            },
            {
               "long_name" : "Ghaziabad",
               "short_name" : "Ghaziabad",
               "types" : [ "locality", "political" ]
            },
            {
               "long_name" : "Ghaziabad",
               "short_name" : "Ghaziabad",
               "types" : [ "administrative_area_level_2", "political" ]
            },
            {
               "long_name" : "Uttar Pradesh",
               "short_name" : "UP",
               "types" : [ "administrative_area_level_1", "political" ]
            },
            {
               "long_name" : "India",
               "short_name" : "IN",
               "types" : [ "country", "political" ]
            },
            {
               "long_name" : "201005",
               "short_name" : "201005",
               "types" : [ "postal_code" ]
            }
         ],
         "formatted_address" : "Doctor Rajendra Prasad Marg, Ghaziabad, Uttar Pradesh 201005, India",
         "geometry" : {
            "bounds" : {
               "northeast" : {
                  "lat" : 28.68903239999999,
                  "lng" : 77.3608079
               },
               "southwest" : {
                  "lat" : 28.6775873,
                  "lng" : 77.35800979999999
               }
            },
            "location" : {
               "lat" : 28.6833559,
               "lng" : 77.3585439
            },
            "location_type" : "GEOMETRIC_CENTER",
            "viewport" : {
               "northeast" : {
                  "lat" : 28.68903239999999,
                  "lng" : 77.3608079
               },
               "southwest" : {
                  "lat" : 28.6775873,
                  "lng" : 77.35800979999999
               }
            }
         },
         "partial_match" : true,
         "types" : [ "route" ]
      },
      {
         "address_components" : [
            {
               "long_name" : "Doctor Rajendra Prasad Road",
               "short_name" : "Dr Rajendra Prasad Rd",
               "types" : [ "route" ]
            },
            {
               "long_name" : "Chromepet",
               "short_name" : "Chromepet",
               "types" : [ "sublocality_level_2", "sublocality", "political" ]
            },
            {
               "long_name" : "Chennai",
               "short_name" : "Chennai",
               "types" : [ "locality", "political" ]
            },
            {
               "long_name" : "Kanchipuram",
               "short_name" : "Kanchipuram",
               "types" : [ "administrative_area_level_2", "political" ]
            },
            {
               "long_name" : "Tamil Nadu",
               "short_name" : "TN",
               "types" : [ "administrative_area_level_1", "political" ]
            },
            {
               "long_name" : "India",
               "short_name" : "IN",
               "types" : [ "country", "political" ]
            }
         ],
         "formatted_address" : "Doctor Rajendra Prasad Road, Chromepet, Chennai, Tamil Nadu, India",
         "geometry" : {
            "bounds" : {
               "northeast" : {
                  "lat" : 12.9434639,
                  "lng" : 80.1507872
               },
               "southwest" : {
                  "lat" : 12.9402581,
                  "lng" : 80.13794759999999
               }
            },
            "location" : {
               "lat" : 12.9416913,
               "lng" : 80.14416039999999
            },
            "location_type" : "GEOMETRIC_CENTER",
            "viewport" : {
               "northeast" : {
                  "lat" : 12.9434639,
                  "lng" : 80.1507872
               },
               "southwest" : {
                  "lat" : 12.9402581,
                  "lng" : 80.13794759999999
               }
            }
         },
         "partial_match" : true,
         "types" : [ "route" ]
      },
      {
         "address_components" : [
            {
               "long_name" : "Doctor Rajendra Prasad Road",
               "short_name" : "Dr Rajendra Prasad Road",
               "types" : [ "route" ]
            },
            {
               "long_name" : "Dombivli East",
               "short_name" : "Dombivli East",
               "types" : [ "sublocality_level_1", "sublocality", "political" ]
            },
            {
               "long_name" : "Dombivli",
               "short_name" : "Dombivli",
               "types" : [ "locality", "political" ]
            },
            {
               "long_name" : "Thane",
               "short_name" : "Thane",
               "types" : [ "administrative_area_level_2", "political" ]
            },
            {
               "long_name" : "Maharashtra",
               "short_name" : "MH",
               "types" : [ "administrative_area_level_1", "political" ]
            },
            {
               "long_name" : "India",
               "short_name" : "IN",
               "types" : [ "country", "political" ]
            },
            {
               "long_name" : "421201",
               "short_name" : "421201",
               "types" : [ "postal_code" ]
            }
         ],
         "formatted_address" : "Doctor Rajendra Prasad Road, Dombivli East, Dombivli, Maharashtra 421201, India",
         "geometry" : {
            "bounds" : {
               "northeast" : {
                  "lat" : 19.2154187,
                  "lng" : 73.0944264
               },
               "southwest" : {
                  "lat" : 19.2132694,
                  "lng" : 73.08697789999999
               }
            },
            "location" : {
               "lat" : 19.2141997,
               "lng" : 73.0908185
            },
            "location_type" : "GEOMETRIC_CENTER",
            "viewport" : {
               "northeast" : {
                  "lat" : 19.2156930302915,
                  "lng" : 73.0944264
               },
               "southwest" : {
                  "lat" : 19.2129950697085,
                  "lng" : 73.08697789999999
               }
            }
         },
         "partial_match" : true,
         "types" : [ "route" ]
      },
      {
         "address_components" : [
            {
               "long_name" : "Dr Rajendra Prasad",
               "short_name" : "Dr Rajendra Prasad",
               "types" : [ "point_of_interest", "establishment" ]
            },
            {
               "long_name" : "Machchhi Bhavan",
               "short_name" : "Machchhi Bhavan",
               "types" : [ "sublocality_level_1", "sublocality", "political" ]
            },
            {
               "long_name" : "Lucknow",
               "short_name" : "Lucknow",
               "types" : [ "locality", "political" ]
            },
            {
               "long_name" : "Lucknow",
               "short_name" : "Lucknow",
               "types" : [ "administrative_area_level_2", "political" ]
            },
            {
               "long_name" : "Uttar Pradesh",
               "short_name" : "UP",
               "types" : [ "administrative_area_level_1", "political" ]
            },
            {
               "long_name" : "India",
               "short_name" : "IN",
               "types" : [ "country", "political" ]
            },
            {
               "long_name" : "226003",
               "short_name" : "226003",
               "types" : [ "postal_code" ]
            }
         ],
         "formatted_address" : "Dr Rajendra Prasad, Machchhi Bhavan, Lucknow, Uttar Pradesh 226003, India",
         "geometry" : {
            "location" : {
               "lat" : 26.86626,
               "lng" : 80.9097
            },
            "location_type" : "APPROXIMATE",
            "viewport" : {
               "northeast" : {
                  "lat" : 26.8676089802915,
                  "lng" : 80.91104898029151
               },
               "southwest" : {
                  "lat" : 26.8649110197085,
                  "lng" : 80.90835101970849
               }
            }
         },
         "types" : [ "pharmacy", "store", "point_of_interest", "health", "establishment" ]
      },
      {
         "address_components" : [
            {
               "long_name" : "Dr Rajendra Prasad",
               "short_name" : "Dr Rajendra Prasad",
               "types" : [ "point_of_interest", "establishment" ]
            },
            {
               "long_name" : "Nalasopra",
               "short_name" : "Nalasopra",
               "types" : [ "neighborhood", "political" ]
            },
            {
               "long_name" : "Railway Quarters",
               "short_name" : "Railway Quarters",
               "types" : [ "sublocality_level_1", "sublocality", "political" ]
            },
            {
               "long_name" : "Ajmer",
               "short_name" : "Ajmer",
               "types" : [ "locality", "political" ]
            },
            {
               "long_name" : "Ajmer",
               "short_name" : "Ajmer",
               "types" : [ "administrative_area_level_2", "political" ]
            },
            {
               "long_name" : "Rajasthan",
               "short_name" : "RJ",
               "types" : [ "administrative_area_level_1", "political" ]
            },
            {
               "long_name" : "India",
               "short_name" : "IN",
               "types" : [ "country", "political" ]
            },
            {
               "long_name" : "305001",
               "short_name" : "305001",
               "types" : [ "postal_code" ]
            }
         ],
         "formatted_address" : "Dr Rajendra Prasad, Nalasopra, Railway Quarters, Ajmer, Rajasthan 305001, India",
         "geometry" : {
            "location" : {
               "lat" : 26.45,
               "lng" : 74.64
            },
            "location_type" : "APPROXIMATE",
            "viewport" : {
               "northeast" : {
                  "lat" : 26.4513489802915,
                  "lng" : 74.64134898029151
               },
               "southwest" : {
                  "lat" : 26.4486510197085,
                  "lng" : 74.63865101970849
               }
            }
         },
         "types" : [ "doctor", "point_of_interest", "health", "establishment" ]
      },
      {
         "address_components" : [
            {
               "long_name" : "Doctor Rajendra Prasad Road",
               "short_name" : "Dr Rajendra Prasad Rd",
               "types" : [ "route" ]
            },
            {
               "long_name" : "New Delhi",
               "short_name" : "New Delhi",
               "types" : [ "locality", "political" ]
            },
            {
               "long_name" : "New Delhi",
               "short_name" : "New Delhi",
               "types" : [ "administrative_area_level_2", "political" ]
            },
            {
               "long_name" : "Delhi",
               "short_name" : "DL",
               "types" : [ "administrative_area_level_1", "political" ]
            },
            {
               "long_name" : "India",
               "short_name" : "IN",
               "types" : [ "country", "political" ]
            },
            {
               "long_name" : "110001",
               "short_name" : "110001",
               "types" : [ "postal_code" ]
            }
         ],
         "formatted_address" : "Doctor Rajendra Prasad Road, New Delhi, Delhi 110001, India",
         "geometry" : {
            "bounds" : {
               "northeast" : {
                  "lat" : 28.6169436,
                  "lng" : 77.2247541
               },
               "southwest" : {
                  "lat" : 28.6163601,
                  "lng" : 77.2127337
               }
            },
            "location" : {
               "lat" : 28.6166378,
               "lng" : 77.21865199999999
            },
            "location_type" : "GEOMETRIC_CENTER",
            "viewport" : {
               "northeast" : {
                  "lat" : 28.6180008302915,
                  "lng" : 77.2247541
               },
               "southwest" : {
                  "lat" : 28.61530286970849,
                  "lng" : 77.2127337
               }
            }
         },
         "partial_match" : true,
         "types" : [ "route" ]
      },
      {
         "address_components" : [
            {
               "long_name" : "Doctor RP Road",
               "short_name" : "Dr RP Rd",
               "types" : [ "route" ]
            },
            {
               "long_name" : "Mulund West",
               "short_name" : "Mulund West",
               "types" : [ "sublocality_level_1", "sublocality", "political" ]
            },
            {
               "long_name" : "Mumbai",
               "short_name" : "Mumbai",
               "types" : [ "locality", "political" ]
            },
            {
               "long_name" : "Mumbai Suburban",
               "short_name" : "Mumbai Suburban",
               "types" : [ "administrative_area_level_2", "political" ]
            },
            {
               "long_name" : "Maharashtra",
               "short_name" : "MH",
               "types" : [ "administrative_area_level_1", "political" ]
            },
            {
               "long_name" : "India",
               "short_name" : "IN",
               "types" : [ "country", "political" ]
            }
         ],
         "formatted_address" : "Doctor RP Road, Mulund West, Mumbai, Maharashtra, India",
         "geometry" : {
            "bounds" : {
               "northeast" : {
                  "lat" : 19.1796763,
                  "lng" : 72.9576642
               },
               "southwest" : {
                  "lat" : 19.1735909,
                  "lng" : 72.9450475
               }
            },
            "location" : {
               "lat" : 19.1778359,
               "lng" : 72.95263179999999
            },
            "location_type" : "GEOMETRIC_CENTER",
            "viewport" : {
               "northeast" : {
                  "lat" : 19.1796763,
                  "lng" : 72.9576642
               },
               "southwest" : {
                  "lat" : 19.1735909,
                  "lng" : 72.9450475
               }
            }
         },
         "partial_match" : true,
         "types" : [ "route" ]
      },
      {
         "address_components" : [
            {
               "long_name" : "Doctor Rajendra Prasad Road",
               "short_name" : "Dr Rajendra Prasad Rd",
               "types" : [ "route" ]
            },
            {
               "long_name" : "Jalna",
               "short_name" : "Jalna",
               "types" : [ "locality", "political" ]
            },
            {
               "long_name" : "Jalna",
               "short_name" : "Jalna",
               "types" : [ "administrative_area_level_2", "political" ]
            },
            {
               "long_name" : "Maharashtra",
               "short_name" : "MH",
               "types" : [ "administrative_area_level_1", "political" ]
            },
            {
               "long_name" : "India",
               "short_name" : "IN",
               "types" : [ "country", "political" ]
            },
            {
               "long_name" : "431203",
               "short_name" : "431203",
               "types" : [ "postal_code" ]
            }
         ],
         "formatted_address" : "Doctor Rajendra Prasad Road, Jalna, Maharashtra 431203, India",
         "geometry" : {
            "bounds" : {
               "northeast" : {
                  "lat" : 19.8540109,
                  "lng" : 75.9060688
               },
               "southwest" : {
                  "lat" : 19.8446147,
                  "lng" : 75.8999189
               }
            },
            "location" : {
               "lat" : 19.8495537,
               "lng" : 75.90302579999999
            },
            "location_type" : "GEOMETRIC_CENTER",
            "viewport" : {
               "northeast" : {
                  "lat" : 19.8540109,
                  "lng" : 75.9060688
               },
               "southwest" : {
                  "lat" : 19.8446147,
                  "lng" : 75.8999189
               }
            }
         },
         "partial_match" : true,
         "types" : [ "route" ]
      },
      {
         "address_components" : [
            {
               "long_name" : "Doctor Rajendra Prasad Marg",
               "short_name" : "Dr Rajendra Prasad Marg",
               "types" : [ "route" ]
            },
            {
               "long_name" : "Rajkot",
               "short_name" : "Rajkot",
               "types" : [ "locality", "political" ]
            },
            {
               "long_name" : "Rajkot",
               "short_name" : "Rajkot",
               "types" : [ "administrative_area_level_2", "political" ]
            },
            {
               "long_name" : "Gujarat",
               "short_name" : "GJ",
               "types" : [ "administrative_area_level_1", "political" ]
            },
            {
               "long_name" : "India",
               "short_name" : "IN",
               "types" : [ "country", "political" ]
            },
            {
               "long_name" : "360001",
               "short_name" : "360001",
               "types" : [ "postal_code" ]
            }
         ],
         "formatted_address" : "Doctor Rajendra Prasad Marg, Rajkot, Gujarat 360001, India",
         "geometry" : {
            "bounds" : {
               "northeast" : {
                  "lat" : 22.3016174,
                  "lng" : 70.79935309999999
               },
               "southwest" : {
                  "lat" : 22.2922917,
                  "lng" : 70.7980657
               }
            },
            "location" : {
               "lat" : 22.2969212,
               "lng" : 70.7987356
            },
            "location_type" : "GEOMETRIC_CENTER",
            "viewport" : {
               "northeast" : {
                  "lat" : 22.3016174,
                  "lng" : 70.8000583802915
               },
               "southwest" : {
                  "lat" : 22.2922917,
                  "lng" : 70.7973604197085
               }
            }
         },
         "partial_match" : true,
         "types" : [ "route" ]
      },
      {
         "address_components" : [
            {
               "long_name" : "Doctor Rajendra Prasad Road",
               "short_name" : "Dr Rajendra Prasad Rd",
               "types" : [ "route" ]
            },
            {
               "long_name" : "Sahibganj",
               "short_name" : "Sahibganj",
               "types" : [ "locality", "political" ]
            },
            {
               "long_name" : "Sahibganj",
               "short_name" : "Sahibganj",
               "types" : [ "administrative_area_level_2", "political" ]
            },
            {
               "long_name" : "Jharkhand",
               "short_name" : "JH",
               "types" : [ "administrative_area_level_1", "political" ]
            },
            {
               "long_name" : "India",
               "short_name" : "IN",
               "types" : [ "country", "political" ]
            },
            {
               "long_name" : "816109",
               "short_name" : "816109",
               "types" : [ "postal_code" ]
            }
         ],
         "formatted_address" : "Doctor Rajendra Prasad Road, Sahibganj, Jharkhand 816109, India",
         "geometry" : {
            "bounds" : {
               "northeast" : {
                  "lat" : 25.241668,
                  "lng" : 87.64977399999999
               },
               "southwest" : {
                  "lat" : 25.2391553,
                  "lng" : 87.6388668
               }
            },
            "location" : {
               "lat" : 25.2405934,
               "lng" : 87.64362659999999
            },
            "location_type" : "GEOMETRIC_CENTER",
            "viewport" : {
               "northeast" : {
                  "lat" : 25.2417606302915,
                  "lng" : 87.64977399999999
               },
               "southwest" : {
                  "lat" : 25.2390626697085,
                  "lng" : 87.6388668
               }
            }
         },
         "partial_match" : true,
         "types" : [ "route" ]
      },
      {
         "address_components" : [
            {
               "long_name" : "Rajendra Prasad Road",
               "short_name" : "Rajendra Prasad Rd",
               "types" : [ "route" ]
            },
            {
               "long_name" : "Durgapur",
               "short_name" : "Durgapur",
               "types" : [ "locality", "political" ]
            },
            {
               "long_name" : "Bardhaman",
               "short_name" : "Bardhaman",
               "types" : [ "administrative_area_level_2", "political" ]
            },
            {
               "long_name" : "West Bengal",
               "short_name" : "WB",
               "types" : [ "administrative_area_level_1", "political" ]
            },
            {
               "long_name" : "India",
               "short_name" : "IN",
               "types" : [ "country", "political" ]
            }
         ],
         "formatted_address" : "Rajendra Prasad Road, Durgapur, West Bengal, India",
         "geometry" : {
            "bounds" : {
               "northeast" : {
                  "lat" : 23.5567272,
                  "lng" : 87.32513779999999
               },
               "southwest" : {
                  "lat" : 23.5555995,
                  "lng" : 87.30354609999999
               }
            },
            "location" : {
               "lat" : 23.5561104,
               "lng" : 87.3142651
            },
            "location_type" : "GEOMETRIC_CENTER",
            "viewport" : {
               "northeast" : {
                  "lat" : 23.5575123302915,
                  "lng" : 87.32513779999999
               },
               "southwest" : {
                  "lat" : 23.5548143697085,
                  "lng" : 87.30354609999999
               }
            }
         },
         "partial_match" : true,
         "types" : [ "route" ]
      },
      {
         "address_components" : [
            {
               "long_name" : "Dr. Rajendra Prasad",
               "short_name" : "Dr. Rajendra Prasad",
               "types" : [ "establishment" ]
            },
            {
               "long_name" : "National Highway 66",
               "short_name" : "NH66",
               "types" : [ "route" ]
            },
            {
               "long_name" : "Talap",
               "short_name" : "Talap",
               "types" : [ "sublocality_level_1", "sublocality", "political" ]
            },
            {
               "long_name" : "Kannur",
               "short_name" : "Kannur",
               "types" : [ "locality", "political" ]
            },
            {
               "long_name" : "Kannur",
               "short_name" : "Kannur",
               "types" : [ "administrative_area_level_2", "political" ]
            },
            {
               "long_name" : "Kerala",
               "short_name" : "KL",
               "types" : [ "administrative_area_level_1", "political" ]
            },
            {
               "long_name" : "India",
               "short_name" : "IN",
               "types" : [ "country", "political" ]
            },
            {
               "long_name" : "670002",
               "short_name" : "670002",
               "types" : [ "postal_code" ]
            }
         ],
         "formatted_address" : "Dr. Rajendra Prasad, National Highway 66, Talap, Kannur, Kerala 670002, India",
         "geometry" : {
            "location" : {
               "lat" : 11.884464,
               "lng" : 75.37274599999999
            },
            "location_type" : "APPROXIMATE",
            "viewport" : {
               "northeast" : {
                  "lat" : 11.8858129802915,
                  "lng" : 75.3740949802915
               },
               "southwest" : {
                  "lat" : 11.8831150197085,
                  "lng" : 75.3713970197085
               }
            }
         },
         "types" : [ "park", "establishment" ]
      },
      {
         "address_components" : [
            {
               "long_name" : "Rajendra Prasad Marg",
               "short_name" : "Rajendra Prasad Marg",
               "types" : [ "route" ]
            },
            {
               "long_name" : "Rajstate",
               "short_name" : "Rajstate",
               "types" : [ "neighborhood", "political" ]
            },
            {
               "long_name" : "Ghatshila",
               "short_name" : "Ghatshila",
               "types" : [ "locality", "political" ]
            },
            {
               "long_name" : "East Singhbhum",
               "short_name" : "East Singhbhum",
               "types" : [ "administrative_area_level_2", "political" ]
            },
            {
               "long_name" : "Jharkhand",
               "short_name" : "JH",
               "types" : [ "administrative_area_level_1", "political" ]
            },
            {
               "long_name" : "India",
               "short_name" : "IN",
               "types" : [ "country", "political" ]
            },
            {
               "long_name" : "832103",
               "short_name" : "832103",
               "types" : [ "postal_code" ]
            }
         ],
         "formatted_address" : "Rajendra Prasad Marg, Rajstate, Ghatshila, Jharkhand 832103, India",
         "geometry" : {
            "bounds" : {
               "northeast" : {
                  "lat" : 22.5788932,
                  "lng" : 86.4851963
               },
               "southwest" : {
                  "lat" : 22.5709389,
                  "lng" : 86.48157310000001
               }
            },
            "location" : {
               "lat" : 22.575344,
               "lng" : 86.4821238
            },
            "location_type" : "GEOMETRIC_CENTER",
            "viewport" : {
               "northeast" : {
                  "lat" : 22.5788932,
                  "lng" : 86.4851963
               },
               "southwest" : {
                  "lat" : 22.5709389,
                  "lng" : 86.48157310000001
               }
            }
         },
         "partial_match" : true,
         "types" : [ "route" ]
      },
      {
         "address_components" : [
            {
               "long_name" : "1st E Main Road",
               "short_name" : "1st E Main Rd",
               "types" : [ "route" ]
            },
            {
               "long_name" : "Banashankari 3rd Stage",
               "short_name" : "BSK 3rd Stage",
               "types" : [ "sublocality_level_2", "sublocality", "political" ]
            },
            {
               "long_name" : "Banashankari",
               "short_name" : "Banashankari",
               "types" : [ "sublocality_level_1", "sublocality", "political" ]
            },
            {
               "long_name" : "Bengaluru",
               "short_name" : "Bengaluru",
               "types" : [ "locality", "political" ]
            },
            {
               "long_name" : "Bangalore Urban",
               "short_name" : "Bangalore Urban",
               "types" : [ "administrative_area_level_2", "political" ]
            },
            {
               "long_name" : "Karnataka",
               "short_name" : "KA",
               "types" : [ "administrative_area_level_1", "political" ]
            },
            {
               "long_name" : "India",
               "short_name" : "IN",
               "types" : [ "country", "political" ]
            },
            {
               "long_name" : "560085",
               "short_name" : "560085",
               "types" : [ "postal_code" ]
            }
         ],
         "formatted_address" : "1st E Main Road, Banashankari 3rd Stage, Banashankari, Bengaluru, Karnataka 560085, India",
         "geometry" : {
            "bounds" : {
               "northeast" : {
                  "lat" : 12.9398007,
                  "lng" : 77.54518849999999
               },
               "southwest" : {
                  "lat" : 12.9388747,
                  "lng" : 77.5389107
               }
            },
            "location" : {
               "lat" : 12.9396668,
               "lng" : 77.5417916
            },
            "location_type" : "GEOMETRIC_CENTER",
            "viewport" : {
               "northeast" : {
                  "lat" : 12.9406866802915,
                  "lng" : 77.54518849999999
               },
               "southwest" : {
                  "lat" : 12.9379887197085,
                  "lng" : 77.5389107
               }
            }
         },
         "partial_match" : true,
         "types" : [ "route" ]
      },
      {
         "address_components" : [
            {
               "long_name" : "Rajendra Prasad Street",
               "short_name" : "Rajendra Prasad St",
               "types" : [ "route" ]
            },
            {
               "long_name" : "Pallavaram",
               "short_name" : "Pallavaram",
               "types" : [ "sublocality_level_1", "sublocality", "political" ]
            },
            {
               "long_name" : "Chennai",
               "short_name" : "Chennai",
               "types" : [ "locality", "political" ]
            },
            {
               "long_name" : "Kanchipuram",
               "short_name" : "Kanchipuram",
               "types" : [ "administrative_area_level_2", "political" ]
            },
            {
               "long_name" : "Tamil Nadu",
               "short_name" : "TN",
               "types" : [ "administrative_area_level_1", "political" ]
            },
            {
               "long_name" : "India",
               "short_name" : "IN",
               "types" : [ "country", "political" ]
            },
            {
               "long_name" : "600044",
               "short_name" : "600044",
               "types" : [ "postal_code" ]
            }
         ],
         "formatted_address" : "Rajendra Prasad Street, Pallavaram, Chennai, Tamil Nadu 600044, India",
         "geometry" : {
            "bounds" : {
               "northeast" : {
                  "lat" : 12.9726297,
                  "lng" : 80.1477945
               },
               "southwest" : {
                  "lat" : 12.9706323,
                  "lng" : 80.1450462
               }
            },
            "location" : {
               "lat" : 12.9716101,
               "lng" : 80.146681
            },
            "location_type" : "GEOMETRIC_CENTER",
            "viewport" : {
               "northeast" : {
                  "lat" : 12.9729799802915,
                  "lng" : 80.1477945
               },
               "southwest" : {
                  "lat" : 12.9702820197085,
                  "lng" : 80.1450462
               }
            }
         },
         "partial_match" : true,
         "types" : [ "route" ]
      },
      {
         "address_components" : [
            {
               "long_name" : "Rajendra Prasad Street",
               "short_name" : "Rajendra Prasad St",
               "types" : [ "route" ]
            },
            {
               "long_name" : "Nagamalai Puthukottai",
               "short_name" : "Nagamalai Puthukottai",
               "types" : [ "locality", "political" ]
            },
            {
               "long_name" : "Madurai",
               "short_name" : "Madurai",
               "types" : [ "administrative_area_level_2", "political" ]
            },
            {
               "long_name" : "Tamil Nadu",
               "short_name" : "TN",
               "types" : [ "administrative_area_level_1", "political" ]
            },
            {
               "long_name" : "India",
               "short_name" : "IN",
               "types" : [ "country", "political" ]
            },
            {
               "long_name" : "625019",
               "short_name" : "625019",
               "types" : [ "postal_code" ]
            }
         ],
         "formatted_address" : "Rajendra Prasad Street, Nagamalai Puthukottai, Tamil Nadu 625019, India",
         "geometry" : {
            "bounds" : {
               "northeast" : {
                  "lat" : 9.930836200000002,
                  "lng" : 78.0515654
               },
               "southwest" : {
                  "lat" : 9.9307026,
                  "lng" : 78.0480508
               }
            },
            "location" : {
               "lat" : 9.930717899999999,
               "lng" : 78.0500507
            },
            "location_type" : "GEOMETRIC_CENTER",
            "viewport" : {
               "northeast" : {
                  "lat" : 9.932118380291502,
                  "lng" : 78.0515654
               },
               "southwest" : {
                  "lat" : 9.929420419708498,
                  "lng" : 78.0480508
               }
            }
         },
         "partial_match" : true,
         "types" : [ "route" ]
      },
      {
         "address_components" : [
            {
               "long_name" : "Rajendra Prasad Road",
               "short_name" : "Rajendra Prasad Rd",
               "types" : [ "route" ]
            },
            {
               "long_name" : "Madurai",
               "short_name" : "Madurai",
               "types" : [ "locality", "political" ]
            },
            {
               "long_name" : "Madurai",
               "short_name" : "Madurai",
               "types" : [ "administrative_area_level_2", "political" ]
            },
            {
               "long_name" : "Tamil Nadu",
               "short_name" : "TN",
               "types" : [ "administrative_area_level_1", "political" ]
            },
            {
               "long_name" : "India",
               "short_name" : "IN",
               "types" : [ "country", "political" ]
            },
            {
               "long_name" : "625002",
               "short_name" : "625002",
               "types" : [ "postal_code" ]
            }
         ],
         "formatted_address" : "Rajendra Prasad Road, Madurai, Tamil Nadu 625002, India",
         "geometry" : {
            "bounds" : {
               "northeast" : {
                  "lat" : 9.935373799999999,
                  "lng" : 78.13000509999999
               },
               "southwest" : {
                  "lat" : 9.934367400000001,
                  "lng" : 78.12593919999999
               }
            },
            "location" : {
               "lat" : 9.9347013,
               "lng" : 78.12802909999999
            },
            "location_type" : "GEOMETRIC_CENTER",
            "viewport" : {
               "northeast" : {
                  "lat" : 9.936219580291503,
                  "lng" : 78.13000509999999
               },
               "southwest" : {
                  "lat" : 9.933521619708499,
                  "lng" : 78.12593919999999
               }
            }
         },
         "partial_match" : true,
         "types" : [ "route" ]
      },
      {
         "address_components" : [
            {
               "long_name" : "Rajendra Prasad Street",
               "short_name" : "Rajendra Prasad St",
               "types" : [ "route" ]
            },
            {
               "long_name" : "Sai Nagar",
               "short_name" : "Sai Nagar",
               "types" : [ "sublocality_level_1", "sublocality", "political" ]
            },
            {
               "long_name" : "Kadiri",
               "short_name" : "Kadiri",
               "types" : [ "locality", "political" ]
            },
            {
               "long_name" : "Anantapuram",
               "short_name" : "Anantapuram",
               "types" : [ "administrative_area_level_2", "political" ]
            },
            {
               "long_name" : "Andhra Pradesh",
               "short_name" : "AP",
               "types" : [ "administrative_area_level_1", "political" ]
            },
            {
               "long_name" : "India",
               "short_name" : "IN",
               "types" : [ "country", "political" ]
            },
            {
               "long_name" : "515591",
               "short_name" : "515591",
               "types" : [ "postal_code" ]
            }
         ],
         "formatted_address" : "Rajendra Prasad Street, Sai Nagar, Kadiri, Andhra Pradesh 515591, India",
         "geometry" : {
            "bounds" : {
               "northeast" : {
                  "lat" : 14.1165892,
                  "lng" : 78.1563062
               },
               "southwest" : {
                  "lat" : 14.116071,
                  "lng" : 78.15247219999999
               }
            },
            "location" : {
               "lat" : 14.1161934,
               "lng" : 78.1544986
            },
            "location_type" : "GEOMETRIC_CENTER",
            "viewport" : {
               "northeast" : {
                  "lat" : 14.1176790802915,
                  "lng" : 78.1563062
               },
               "southwest" : {
                  "lat" : 14.1149811197085,
                  "lng" : 78.15247219999999
               }
            }
         },
         "partial_match" : true,
         "types" : [ "route" ]
      },
      {
         "address_components" : [
            {
               "long_name" : "Doctor Rajendra Prasad Road",
               "short_name" : "Dr Rajendra Prasad Rd",
               "types" : [ "route" ]
            },
            {
               "long_name" : "Anand Vihar",
               "short_name" : "Anand Vihar",
               "types" : [ "neighborhood", "political" ]
            },
            {
               "long_name" : "Gadhinglaj",
               "short_name" : "Gadhinglaj",
               "types" : [ "locality", "political" ]
            },
            {
               "long_name" : "Kolhapur",
               "short_name" : "Kolhapur",
               "types" : [ "administrative_area_level_2", "political" ]
            },
            {
               "long_name" : "Maharashtra",
               "short_name" : "MH",
               "types" : [ "administrative_area_level_1", "political" ]
            },
            {
               "long_name" : "India",
               "short_name" : "IN",
               "types" : [ "country", "political" ]
            },
            {
               "long_name" : "416502",
               "short_name" : "416502",
               "types" : [ "postal_code" ]
            }
         ],
         "formatted_address" : "Doctor Rajendra Prasad Road, Anand Vihar, Gadhinglaj, Maharashtra 416502, India",
         "geometry" : {
            "bounds" : {
               "northeast" : {
                  "lat" : 16.2253901,
                  "lng" : 74.34957659999999
               },
               "southwest" : {
                  "lat" : 16.2250243,
                  "lng" : 74.3479025
               }
            },
            "location" : {
               "lat" : 16.2251928,
               "lng" : 74.3488794
            },
            "location_type" : "GEOMETRIC_CENTER",
            "viewport" : {
               "northeast" : {
                  "lat" : 16.2265561802915,
                  "lng" : 74.3500885302915
               },
               "southwest" : {
                  "lat" : 16.2238582197085,
                  "lng" : 74.34739056970849
               }
            }
         },
         "partial_match" : true,
         "types" : [ "route" ]
      },
      {
         "address_components" : [
            {
               "long_name" : "Thulasiram Ram Lane",
               "short_name" : "Thulasiram Ram Ln",
               "types" : [ "route" ]
            },
            {
               "long_name" : "Mandamarri",
               "short_name" : "Mandamarri",
               "types" : [ "locality", "political" ]
            },
            {
               "long_name" : "Adilabad",
               "short_name" : "Adilabad",
               "types" : [ "administrative_area_level_2", "political" ]
            },
            {
               "long_name" : "Telangana",
               "short_name" : "Telangana",
               "types" : [ "administrative_area_level_1", "political" ]
            },
            {
               "long_name" : "India",
               "short_name" : "IN",
               "types" : [ "country", "political" ]
            },
            {
               "long_name" : "504251",
               "short_name" : "504251",
               "types" : [ "postal_code" ]
            }
         ],
         "formatted_address" : "Thulasiram Ram Lane, Mandamarri, Telangana 504251, India",
         "geometry" : {
            "bounds" : {
               "northeast" : {
                  "lat" : 18.9760959,
                  "lng" : 79.4844512
               },
               "southwest" : {
                  "lat" : 18.9721205,
                  "lng" : 79.48181819999999
               }
            },
            "location" : {
               "lat" : 18.9743009,
               "lng" : 79.48298799999999
            },
            "location_type" : "GEOMETRIC_CENTER",
            "viewport" : {
               "northeast" : {
                  "lat" : 18.9760959,
                  "lng" : 79.48448368029149
               },
               "southwest" : {
                  "lat" : 18.9721205,
                  "lng" : 79.48178571970848
               }
            }
         },
         "partial_match" : true,
         "types" : [ "route" ]
      },
      {
         "address_components" : [
            {
               "long_name" : "Rajendra Prasad Street",
               "short_name" : "Rajendra Prasad St",
               "types" : [ "route" ]
            },
            {
               "long_name" : "M.A.Nagar",
               "short_name" : "M.A.Nagar",
               "types" : [ "neighborhood", "political" ]
            },
            {
               "long_name" : "Padianallur",
               "short_name" : "Padianallur",
               "types" : [ "locality", "political" ]
            },
            {
               "long_name" : "Tiruvallur",
               "short_name" : "Tiruvallur",
               "types" : [ "administrative_area_level_2", "political" ]
            },
            {
               "long_name" : "Tamil Nadu",
               "short_name" : "TN",
               "types" : [ "administrative_area_level_1", "political" ]
            },
            {
               "long_name" : "India",
               "short_name" : "IN",
               "types" : [ "country", "political" ]
            },
            {
               "long_name" : "600052",
               "short_name" : "600052",
               "types" : [ "postal_code" ]
            }
         ],
         "formatted_address" : "Rajendra Prasad Street, M.A.Nagar, Padianallur, Tamil Nadu 600052, India",
         "geometry" : {
            "bounds" : {
               "northeast" : {
                  "lat" : 13.2013499,
                  "lng" : 80.17703419999999
               },
               "southwest" : {
                  "lat" : 13.2010129,
                  "lng" : 80.1758093
               }
            },
            "location" : {
               "lat" : 13.2011397,
               "lng" : 80.1764307
            },
            "location_type" : "GEOMETRIC_CENTER",
            "viewport" : {
               "northeast" : {
                  "lat" : 13.2025303802915,
                  "lng" : 80.17777073029151
               },
               "southwest" : {
                  "lat" : 13.1998324197085,
                  "lng" : 80.17507276970849
               }
            }
         },
         "partial_match" : true,
         "types" : [ "route" ]
      },
      {
         "address_components" : [
            {
               "long_name" : "Doctor Rajendra Prasad Marg",
               "short_name" : "Dr Rajendra Prasad Marg",
               "types" : [ "route" ]
            },
            {
               "long_name" : "Ananth Nagar",
               "short_name" : "Ananth Nagar",
               "types" : [ "sublocality_level_2", "sublocality", "political" ]
            },
            {
               "long_name" : "A S Rao Nagar",
               "short_name" : "A S Rao Nagar",
               "types" : [ "sublocality_level_1", "sublocality", "political" ]
            },
            {
               "long_name" : "Secunderabad",
               "short_name" : "SC",
               "types" : [ "locality", "political" ]
            },
            {
               "long_name" : "Ranga Reddy",
               "short_name" : "R.R. District",
               "types" : [ "administrative_area_level_2", "political" ]
            },
            {
               "long_name" : "Telangana",
               "short_name" : "Telangana",
               "types" : [ "administrative_area_level_1", "political" ]
            },
            {
               "long_name" : "India",
               "short_name" : "IN",
               "types" : [ "country", "political" ]
            },
            {
               "long_name" : "500062",
               "short_name" : "500062",
               "types" : [ "postal_code" ]
            }
         ],
         "formatted_address" : "Doctor Rajendra Prasad Marg, Ananth Nagar, A S Rao Nagar, Secunderabad, Telangana 500062, India",
         "geometry" : {
            "bounds" : {
               "northeast" : {
                  "lat" : 17.4752624,
                  "lng" : 78.54351149999999
               },
               "southwest" : {
                  "lat" : 17.4744621,
                  "lng" : 78.5414177
               }
            },
            "location" : {
               "lat" : 17.4748976,
               "lng" : 78.542384
            },
            "location_type" : "GEOMETRIC_CENTER",
            "viewport" : {
               "northeast" : {
                  "lat" : 17.4762112302915,
                  "lng" : 78.5438135802915
               },
               "southwest" : {
                  "lat" : 17.47351326970849,
                  "lng" : 78.54111561970849
               }
            }
         },
         "partial_match" : true,
         "types" : [ "route" ]
      },
      {
         "address_components" : [
            {
               "long_name" : "Dr Rajendra Prasad",
               "short_name" : "Dr Rajendra Prasad",
               "types" : [ "establishment" ]
            },
            {
               "long_name" : "Bokaro Steel City",
               "short_name" : "Bokaro Steel City",
               "types" : [ "locality", "political" ]
            },
            {
               "long_name" : "Bokaro",
               "short_name" : "Bokaro",
               "types" : [ "administrative_area_level_2", "political" ]
            },
            {
               "long_name" : "Jharkhand",
               "short_name" : "JH",
               "types" : [ "administrative_area_level_1", "political" ]
            },
            {
               "long_name" : "India",
               "short_name" : "IN",
               "types" : [ "country", "political" ]
            },
            {
               "long_name" : "827001",
               "short_name" : "827001",
               "types" : [ "postal_code" ]
            }
         ],
         "formatted_address" : "Dr Rajendra Prasad, Bokaro Steel City, Jharkhand 827001",
         "geometry" : {
            "location" : {
               "lat" : 23.6593148,
               "lng" : 86.1373079
            },
            "location_type" : "APPROXIMATE",
            "viewport" : {
               "northeast" : {
                  "lat" : 23.6606637802915,
                  "lng" : 86.13865688029149
               },
               "southwest" : {
                  "lat" : 23.6579658197085,
                  "lng" : 86.13595891970849
               }
            }
         },
         "types" : [ "establishment" ]
      },
      {
         "address_components" : [
            {
               "long_name" : "Doctor Rajendra Prasad Road",
               "short_name" : "Dr Rajendra Prasad Rd",
               "types" : [ "route" ]
            },
            {
               "long_name" : "Khadki",
               "short_name" : "Khadki",
               "types" : [ "sublocality_level_1", "sublocality", "political" ]
            },
            {
               "long_name" : "Pune",
               "short_name" : "Pune",
               "types" : [ "locality", "political" ]
            },
            {
               "long_name" : "Pune",
               "short_name" : "Pune",
               "types" : [ "administrative_area_level_2", "political" ]
            },
            {
               "long_name" : "Maharashtra",
               "short_name" : "MH",
               "types" : [ "administrative_area_level_1", "political" ]
            },
            {
               "long_name" : "India",
               "short_name" : "IN",
               "types" : [ "country", "political" ]
            },
            {
               "long_name" : "411003",
               "short_name" : "411003",
               "types" : [ "postal_code" ]
            }
         ],
         "formatted_address" : "Doctor Rajendra Prasad Road, Khadki, Pune, Maharashtra 411003, India",
         "geometry" : {
            "bounds" : {
               "northeast" : {
                  "lat" : 18.5679861,
                  "lng" : 73.8499078
               },
               "southwest" : {
                  "lat" : 18.5664308,
                  "lng" : 73.84831419999999
               }
            },
            "location" : {
               "lat" : 18.5670455,
               "lng" : 73.84898020000001
            },
            "location_type" : "GEOMETRIC_CENTER",
            "viewport" : {
               "northeast" : {
                  "lat" : 18.5685574302915,
                  "lng" : 73.8504599802915
               },
               "southwest" : {
                  "lat" : 18.5658594697085,
                  "lng" : 73.84776201970848
               }
            }
         },
         "partial_match" : true,
         "types" : [ "route" ]
      },
      {
         "address_components" : [
            {
               "long_name" : "Doctor Rajendra Prasad Street",
               "short_name" : "Dr Rajendra Prasad St",
               "types" : [ "route" ]
            },
            {
               "long_name" : "Sakthi Nagar",
               "short_name" : "Sakthi Nagar",
               "types" : [ "sublocality_level_2", "sublocality", "political" ]
            },
            {
               "long_name" : "Padi",
               "short_name" : "Padi",
               "types" : [ "sublocality_level_1", "sublocality", "political" ]
            },
            {
               "long_name" : "Chennai",
               "short_name" : "Chennai",
               "types" : [ "locality", "political" ]
            },
            {
               "long_name" : "Tiruvallur",
               "short_name" : "Tiruvallur",
               "types" : [ "administrative_area_level_2", "political" ]
            },
            {
               "long_name" : "Tamil Nadu",
               "short_name" : "TN",
               "types" : [ "administrative_area_level_1", "political" ]
            },
            {
               "long_name" : "India",
               "short_name" : "IN",
               "types" : [ "country", "political" ]
            },
            {
               "long_name" : "600050",
               "short_name" : "600050",
               "types" : [ "postal_code" ]
            }
         ],
         "formatted_address" : "Doctor Rajendra Prasad Street, Sakthi Nagar, Padi, Chennai, Tamil Nadu 600050, India",
         "geometry" : {
            "bounds" : {
               "northeast" : {
                  "lat" : 13.0937338,
                  "lng" : 80.1883287
               },
               "southwest" : {
                  "lat" : 13.093247,
                  "lng" : 80.187517
               }
            },
            "location" : {
               "lat" : 13.0936941,
               "lng" : 80.1879407
            },
            "location_type" : "GEOMETRIC_CENTER",
            "viewport" : {
               "northeast" : {
                  "lat" : 13.0948393802915,
                  "lng" : 80.18927183029152
               },
               "southwest" : {
                  "lat" : 13.0921414197085,
                  "lng" : 80.1865738697085
               }
            }
         },
         "partial_match" : true,
         "types" : [ "route" ]
      },
      {
         "address_components" : [
            {
               "long_name" : "Rajendra Prasad Street",
               "short_name" : "Rajendra Prasad St",
               "types" : [ "route" ]
            },
            {
               "long_name" : "Ganesh Nagar",
               "short_name" : "Ganesh Nagar",
               "types" : [ "neighborhood", "political" ]
            },
            {
               "long_name" : "Oragadam",
               "short_name" : "Oragadam",
               "types" : [ "sublocality_level_1", "sublocality", "political" ]
            },
            {
               "long_name" : "Chennai",
               "short_name" : "Chennai",
               "types" : [ "locality", "political" ]
            },
            {
               "long_name" : "Tiruvallur",
               "short_name" : "Tiruvallur",
               "types" : [ "administrative_area_level_2", "political" ]
            },
            {
               "long_name" : "Tamil Nadu",
               "short_name" : "TN",
               "types" : [ "administrative_area_level_1", "political" ]
            },
            {
               "long_name" : "India",
               "short_name" : "IN",
               "types" : [ "country", "political" ]
            },
            {
               "long_name" : "600053",
               "short_name" : "600053",
               "types" : [ "postal_code" ]
            }
         ],
         "formatted_address" : "Rajendra Prasad Street, Ganesh Nagar, Oragadam, Chennai, Tamil Nadu 600053, India",
         "geometry" : {
            "bounds" : {
               "northeast" : {
                  "lat" : 13.1296348,
                  "lng" : 80.1516436
               },
               "southwest" : {
                  "lat" : 13.1280523,
                  "lng" : 80.15130909999999
               }
            },
            "location" : {
               "lat" : 13.1290048,
               "lng" : 80.1515388
            },
            "location_type" : "GEOMETRIC_CENTER",
            "viewport" : {
               "northeast" : {
                  "lat" : 13.1301925302915,
                  "lng" : 80.15282533029151
               },
               "southwest" : {
                  "lat" : 13.1274945697085,
                  "lng" : 80.1501273697085
               }
            }
         },
         "partial_match" : true,
         "types" : [ "route" ]
      },
      {
         "address_components" : [
            {
               "long_name" : "Rajendra Prasad Road",
               "short_name" : "Rajendra Prasad Rd",
               "types" : [ "route" ]
            },
            {
               "long_name" : "Vimalapuram",
               "short_name" : "Vimalapuram",
               "types" : [ "sublocality_level_3", "sublocality", "political" ]
            },
            {
               "long_name" : "Chinnasekkadu",
               "short_name" : "Chinnasekkadu",
               "types" : [ "sublocality_level_2", "sublocality", "political" ]
            },
            {
               "long_name" : "Manali",
               "short_name" : "Manali",
               "types" : [ "sublocality_level_1", "sublocality", "political" ]
            },
            {
               "long_name" : "Chennai",
               "short_name" : "Chennai",
               "types" : [ "locality", "political" ]
            },
            {
               "long_name" : "Chennai",
               "short_name" : "Chennai",
               "types" : [ "administrative_area_level_2", "political" ]
            },
            {
               "long_name" : "Tamil Nadu",
               "short_name" : "TN",
               "types" : [ "administrative_area_level_1", "political" ]
            },
            {
               "long_name" : "India",
               "short_name" : "IN",
               "types" : [ "country", "political" ]
            },
            {
               "long_name" : "600051",
               "short_name" : "600051",
               "types" : [ "postal_code" ]
            }
         ],
         "formatted_address" : "Rajendra Prasad Road, Vimalapuram, Chinnasekkadu, Manali, Chennai, Tamil Nadu 600051, India",
         "geometry" : {
            "bounds" : {
               "northeast" : {
                  "lat" : 13.1679765,
                  "lng" : 80.26308929999999
               },
               "southwest" : {
                  "lat" : 13.1658358,
                  "lng" : 80.26303999999999
               }
            },
            "location" : {
               "lat" : 13.167149,
               "lng" : 80.26303999999999
            },
            "location_type" : "GEOMETRIC_CENTER",
            "viewport" : {
               "northeast" : {
                  "lat" : 13.1682551302915,
                  "lng" : 80.26441363029149
               },
               "southwest" : {
                  "lat" : 13.1655571697085,
                  "lng" : 80.26171566970848
               }
            }
         },
         "partial_match" : true,
         "types" : [ "route" ]
      }
   ],
   "status" : "OK"
}
