{
   "results" : [
      {
         "address_components" : [
            {
               "long_name" : "GT Road",
               "short_name" : "GT Rd",
               "types" : [ "route" ]
            },
            {
               "long_name" : "Pakistan",
               "short_name" : "PK",
               "types" : [ "country", "political" ]
            }
         ],
         "formatted_address" : "GT Road, Pakistan",
         "geometry" : {
            "bounds" : {
               "northeast" : {
                  "lat" : 34.0196923,
                  "lng" : 74.20095209999999
               },
               "southwest" : {
                  "lat" : 32.0940584,
                  "lng" : 71.3250384
               }
            },
            "location" : {
               "lat" : 33.3095783,
               "lng" : 73.2600958
            },
            "location_type" : "GEOMETRIC_CENTER",
            "viewport" : {
               "northeast" : {
                  "lat" : 34.0196923,
                  "lng" : 74.20095209999999
               },
               "southwest" : {
                  "lat" : 32.0940584,
                  "lng" : 71.3250384
               }
            }
         },
         "types" : [ "route" ]
      },
      {
         "address_components" : [
            {
               "long_name" : "GT Road",
               "short_name" : "NH91",
               "types" : [ "route" ]
            },
            {
               "long_name" : "Aligarh",
               "short_name" : "Aligarh",
               "types" : [ "locality", "political" ]
            },
            {
               "long_name" : "Aligarh",
               "short_name" : "Aligarh",
               "types" : [ "administrative_area_level_2", "political" ]
            },
            {
               "long_name" : "Uttar Pradesh",
               "short_name" : "UP",
               "types" : [ "administrative_area_level_1", "political" ]
            },
            {
               "long_name" : "India",
               "short_name" : "IN",
               "types" : [ "country", "political" ]
            }
         ],
         "formatted_address" : "GT Road, Aligarh, Uttar Pradesh, India",
         "geometry" : {
            "bounds" : {
               "northeast" : {
                  "lat" : 27.8788463,
                  "lng" : 78.2313783
               },
               "southwest" : {
                  "lat" : 27.8180694,
                  "lng" : 78.0842036
               }
            },
            "location" : {
               "lat" : 27.8530272,
               "lng" : 78.1595712
            },
            "location_type" : "GEOMETRIC_CENTER",
            "viewport" : {
               "northeast" : {
                  "lat" : 27.8788463,
                  "lng" : 78.2313783
               },
               "southwest" : {
                  "lat" : 27.8180694,
                  "lng" : 78.0842036
               }
            }
         },
         "types" : [ "route" ]
      },
      {
         "address_components" : [
            {
               "long_name" : "Multan Road",
               "short_name" : "N-5",
               "types" : [ "route" ]
            },
            {
               "long_name" : "Harappa",
               "short_name" : "Harappa",
               "types" : [ "locality", "political" ]
            },
            {
               "long_name" : "Sahiwal District",
               "short_name" : "Sahiwal District",
               "types" : [ "administrative_area_level_2", "political" ]
            },
            {
               "long_name" : "Punjab",
               "short_name" : "Punjab",
               "types" : [ "administrative_area_level_1", "political" ]
            },
            {
               "long_name" : "Pakistan",
               "short_name" : "PK",
               "types" : [ "country", "political" ]
            }
         ],
         "formatted_address" : "Multan Road, Harappa, Pakistan",
         "geometry" : {
            "bounds" : {
               "northeast" : {
                  "lat" : 30.6456801,
                  "lng" : 73.0738515
               },
               "southwest" : {
                  "lat" : 30.6019316,
                  "lng" : 72.92304039999999
               }
            },
            "location" : {
               "lat" : 30.6241596,
               "lng" : 72.9976082
            },
            "location_type" : "GEOMETRIC_CENTER",
            "viewport" : {
               "northeast" : {
                  "lat" : 30.6456801,
                  "lng" : 73.0738515
               },
               "southwest" : {
                  "lat" : 30.6019316,
                  "lng" : 72.92304039999999
               }
            }
         },
         "types" : [ "route" ]
      },
      {
         "address_components" : [
            {
               "long_name" : "Grand Trunk Road",
               "short_name" : "G.T. Road",
               "types" : [ "route" ]
            },
            {
               "long_name" : "Punjab",
               "short_name" : "Punjab",
               "types" : [ "administrative_area_level_1", "political" ]
            },
            {
               "long_name" : "Pakistan",
               "short_name" : "PK",
               "types" : [ "country", "political" ]
            }
         ],
         "formatted_address" : "Grand Trunk Road, Pakistan",
         "geometry" : {
            "bounds" : {
               "northeast" : {
                  "lat" : 32.1547455,
                  "lng" : 74.2906648
               },
               "southwest" : {
                  "lat" : 31.617609,
                  "lng" : 74.14671199999999
               }
            },
            "location" : {
               "lat" : 31.8879466,
               "lng" : 74.2385537
            },
            "location_type" : "GEOMETRIC_CENTER",
            "viewport" : {
               "northeast" : {
                  "lat" : 32.1547455,
                  "lng" : 74.2906648
               },
               "southwest" : {
                  "lat" : 31.617609,
                  "lng" : 74.14671199999999
               }
            }
         },
         "types" : [ "route" ]
      },
      {
         "address_components" : [
            {
               "long_name" : "GT Road",
               "short_name" : "GT Rd",
               "types" : [ "route" ]
            },
            {
               "long_name" : "Punjab",
               "short_name" : "PB",
               "types" : [ "administrative_area_level_1", "political" ]
            },
            {
               "long_name" : "India",
               "short_name" : "IN",
               "types" : [ "country", "political" ]
            }
         ],
         "formatted_address" : "GT Road, Punjab, India",
         "geometry" : {
            "bounds" : {
               "northeast" : {
                  "lat" : 30.9301356,
                  "lng" : 75.57824429999999
               },
               "southwest" : {
                  "lat" : 30.8103641,
                  "lng" : 74.6134653
               }
            },
            "location" : {
               "lat" : 30.8306845,
               "lng" : 75.08852139999999
            },
            "location_type" : "GEOMETRIC_CENTER",
            "viewport" : {
               "northeast" : {
                  "lat" : 30.9301356,
                  "lng" : 75.57824429999999
               },
               "southwest" : {
                  "lat" : 30.8103641,
                  "lng" : 74.6134653
               }
            }
         },
         "types" : [ "route" ]
      },
      {
         "address_components" : [
            {
               "long_name" : "GT Road",
               "short_name" : "GT Rd",
               "types" : [ "route" ]
            },
            {
               "long_name" : "Muzaffargarh District",
               "short_name" : "Muzaffargarh District",
               "types" : [ "administrative_area_level_2", "political" ]
            },
            {
               "long_name" : "Punjab",
               "short_name" : "Punjab",
               "types" : [ "administrative_area_level_1", "political" ]
            },
            {
               "long_name" : "Pakistan",
               "short_name" : "PK",
               "types" : [ "country", "political" ]
            }
         ],
         "formatted_address" : "GT Road, Pakistan",
         "geometry" : {
            "bounds" : {
               "northeast" : {
                  "lat" : 30.47808539999999,
                  "lng" : 70.9740266
               },
               "southwest" : {
                  "lat" : 30.0751642,
                  "lng" : 70.95448940000001
               }
            },
            "location" : {
               "lat" : 30.2760523,
               "lng" : 70.968048
            },
            "location_type" : "GEOMETRIC_CENTER",
            "viewport" : {
               "northeast" : {
                  "lat" : 30.47808539999999,
                  "lng" : 70.9740266
               },
               "southwest" : {
                  "lat" : 30.0751642,
                  "lng" : 70.95448940000001
               }
            }
         },
         "types" : [ "route" ]
      },
      {
         "address_components" : [
            {
               "long_name" : "GT Road",
               "short_name" : "GT Road",
               "types" : [ "route" ]
            },
            {
               "long_name" : "Aligarh",
               "short_name" : "Aligarh",
               "types" : [ "locality", "political" ]
            },
            {
               "long_name" : "Aligarh",
               "short_name" : "Aligarh",
               "types" : [ "administrative_area_level_2", "political" ]
            },
            {
               "long_name" : "Uttar Pradesh",
               "short_name" : "UP",
               "types" : [ "administrative_area_level_1", "political" ]
            },
            {
               "long_name" : "India",
               "short_name" : "IN",
               "types" : [ "country", "political" ]
            }
         ],
         "formatted_address" : "GT Road, Aligarh, Uttar Pradesh, India",
         "geometry" : {
            "bounds" : {
               "northeast" : {
                  "lat" : 28.012059,
                  "lng" : 78.0842036
               },
               "southwest" : {
                  "lat" : 27.8788463,
                  "lng" : 77.98084829999999
               }
            },
            "location" : {
               "lat" : 27.9383853,
               "lng" : 78.02028159999999
            },
            "location_type" : "GEOMETRIC_CENTER",
            "viewport" : {
               "northeast" : {
                  "lat" : 28.012059,
                  "lng" : 78.0842036
               },
               "southwest" : {
                  "lat" : 27.8788463,
                  "lng" : 77.98084829999999
               }
            }
         },
         "types" : [ "route" ]
      },
      {
         "address_components" : [
            {
               "long_name" : "G.T. Road",
               "short_name" : "N-5",
               "types" : [ "route" ]
            },
            {
               "long_name" : "Pakistan",
               "short_name" : "PK",
               "types" : [ "country", "political" ]
            }
         ],
         "formatted_address" : "G.T. Road, Pakistan",
         "geometry" : {
            "bounds" : {
               "northeast" : {
                  "lat" : 33.5369234,
                  "lng" : 73.26586429999999
               },
               "southwest" : {
                  "lat" : 33.3008341,
                  "lng" : 73.125979
               }
            },
            "location" : {
               "lat" : 33.5112448,
               "lng" : 73.1789795
            },
            "location_type" : "GEOMETRIC_CENTER",
            "viewport" : {
               "northeast" : {
                  "lat" : 33.5369234,
                  "lng" : 73.26586429999999
               },
               "southwest" : {
                  "lat" : 33.3008341,
                  "lng" : 73.125979
               }
            }
         },
         "types" : [ "route" ]
      },
      {
         "address_components" : [
            {
               "long_name" : "GT Road",
               "short_name" : "GT Rd",
               "types" : [ "route" ]
            },
            {
               "long_name" : "Kannauj",
               "short_name" : "Kannauj",
               "types" : [ "administrative_area_level_2", "political" ]
            },
            {
               "long_name" : "Uttar Pradesh",
               "short_name" : "UP",
               "types" : [ "administrative_area_level_1", "political" ]
            },
            {
               "long_name" : "India",
               "short_name" : "IN",
               "types" : [ "country", "political" ]
            }
         ],
         "formatted_address" : "GT Road, Uttar Pradesh, India",
         "geometry" : {
            "bounds" : {
               "northeast" : {
                  "lat" : 27.1259439,
                  "lng" : 79.78659259999999
               },
               "southwest" : {
                  "lat" : 27.0975016,
                  "lng" : 79.637897
               }
            },
            "location" : {
               "lat" : 27.1180404,
               "lng" : 79.71246889999999
            },
            "location_type" : "GEOMETRIC_CENTER",
            "viewport" : {
               "northeast" : {
                  "lat" : 27.1259439,
                  "lng" : 79.78659259999999
               },
               "southwest" : {
                  "lat" : 27.0975016,
                  "lng" : 79.637897
               }
            }
         },
         "types" : [ "route" ]
      },
      {
         "address_components" : [
            {
               "long_name" : "GT Road",
               "short_name" : "GT Rd",
               "types" : [ "route" ]
            },
            {
               "long_name" : "Asansol",
               "short_name" : "Asansol",
               "types" : [ "locality", "political" ]
            },
            {
               "long_name" : "Bardhaman",
               "short_name" : "Bardhaman",
               "types" : [ "administrative_area_level_2", "political" ]
            },
            {
               "long_name" : "West Bengal",
               "short_name" : "WB",
               "types" : [ "administrative_area_level_1", "political" ]
            },
            {
               "long_name" : "India",
               "short_name" : "IN",
               "types" : [ "country", "political" ]
            }
         ],
         "formatted_address" : "GT Road, Asansol, West Bengal, India",
         "geometry" : {
            "bounds" : {
               "northeast" : {
                  "lat" : 23.7349268,
                  "lng" : 87.0124476
               },
               "southwest" : {
                  "lat" : 23.6751496,
                  "lng" : 86.8143025
               }
            },
            "location" : {
               "lat" : 23.7065679,
               "lng" : 86.91364349999999
            },
            "location_type" : "GEOMETRIC_CENTER",
            "viewport" : {
               "northeast" : {
                  "lat" : 23.7349268,
                  "lng" : 87.0124476
               },
               "southwest" : {
                  "lat" : 23.6751496,
                  "lng" : 86.8143025
               }
            }
         },
         "types" : [ "route" ]
      },
      {
         "address_components" : [
            {
               "long_name" : "Grand Trunk Road",
               "short_name" : "G. T. Road",
               "types" : [ "route" ]
            },
            {
               "long_name" : "Lahore",
               "short_name" : "Lahore",
               "types" : [ "locality", "political" ]
            },
            {
               "long_name" : "Lahore District",
               "short_name" : "Lahore District",
               "types" : [ "administrative_area_level_2", "political" ]
            },
            {
               "long_name" : "Punjab",
               "short_name" : "Punjab",
               "types" : [ "administrative_area_level_1", "political" ]
            },
            {
               "long_name" : "Pakistan",
               "short_name" : "PK",
               "types" : [ "country", "political" ]
            }
         ],
         "formatted_address" : "Grand Trunk Road, Lahore, Pakistan",
         "geometry" : {
            "bounds" : {
               "northeast" : {
                  "lat" : 31.6041455,
                  "lng" : 74.5683121
               },
               "southwest" : {
                  "lat" : 31.5848556,
                  "lng" : 74.38594669999999
               }
            },
            "location" : {
               "lat" : 31.594527,
               "lng" : 74.4767609
            },
            "location_type" : "GEOMETRIC_CENTER",
            "viewport" : {
               "northeast" : {
                  "lat" : 31.6041455,
                  "lng" : 74.5683121
               },
               "southwest" : {
                  "lat" : 31.5848556,
                  "lng" : 74.38594669999999
               }
            }
         },
         "types" : [ "route" ]
      },
      {
         "address_components" : [
            {
               "long_name" : "Grand Trunk Road",
               "short_name" : "GT Road",
               "types" : [ "route" ]
            },
            {
               "long_name" : "India",
               "short_name" : "IN",
               "types" : [ "country", "political" ]
            }
         ],
         "formatted_address" : "Grand Trunk Road, India",
         "geometry" : {
            "bounds" : {
               "northeast" : {
                  "lat" : 28.67910849999999,
                  "lng" : 77.3820628
               },
               "southwest" : {
                  "lat" : 28.6700462,
                  "lng" : 77.2630238
               }
            },
            "location" : {
               "lat" : 28.676199,
               "lng" : 77.32234339999999
            },
            "location_type" : "GEOMETRIC_CENTER",
            "viewport" : {
               "northeast" : {
                  "lat" : 28.67910849999999,
                  "lng" : 77.3820628
               },
               "southwest" : {
                  "lat" : 28.6700462,
                  "lng" : 77.2630238
               }
            }
         },
         "types" : [ "route" ]
      },
      {
         "address_components" : [
            {
               "long_name" : "G. T. Road",
               "short_name" : "G. T. Road",
               "types" : [ "route" ]
            },
            {
               "long_name" : "Lahore",
               "short_name" : "Lahore",
               "types" : [ "locality", "political" ]
            },
            {
               "long_name" : "Lahore District",
               "short_name" : "Lahore District",
               "types" : [ "administrative_area_level_2", "political" ]
            },
            {
               "long_name" : "Punjab",
               "short_name" : "Punjab",
               "types" : [ "administrative_area_level_1", "political" ]
            },
            {
               "long_name" : "Pakistan",
               "short_name" : "PK",
               "types" : [ "country", "political" ]
            }
         ],
         "formatted_address" : "G. T. Road, Lahore, Pakistan",
         "geometry" : {
            "bounds" : {
               "northeast" : {
                  "lat" : 31.6040995,
                  "lng" : 74.5683121
               },
               "southwest" : {
                  "lat" : 31.5902706,
                  "lng" : 74.4366699
               }
            },
            "location" : {
               "lat" : 31.5971308,
               "lng" : 74.5030582
            },
            "location_type" : "GEOMETRIC_CENTER",
            "viewport" : {
               "northeast" : {
                  "lat" : 31.6040995,
                  "lng" : 74.5683121
               },
               "southwest" : {
                  "lat" : 31.5902706,
                  "lng" : 74.4366699
               }
            }
         },
         "types" : [ "route" ]
      },
      {
         "address_components" : [
            {
               "long_name" : "GT Road",
               "short_name" : "GT Rd",
               "types" : [ "route" ]
            },
            {
               "long_name" : "Muradnagar",
               "short_name" : "Muradnagar",
               "types" : [ "locality", "political" ]
            },
            {
               "long_name" : "Ghaziabad",
               "short_name" : "Ghaziabad",
               "types" : [ "administrative_area_level_2", "political" ]
            },
            {
               "long_name" : "Uttar Pradesh",
               "short_name" : "UP",
               "types" : [ "administrative_area_level_1", "political" ]
            },
            {
               "long_name" : "India",
               "short_name" : "IN",
               "types" : [ "country", "political" ]
            },
            {
               "long_name" : "201206",
               "short_name" : "201206",
               "types" : [ "postal_code" ]
            }
         ],
         "formatted_address" : "GT Road, Muradnagar, Uttar Pradesh 201206, India",
         "geometry" : {
            "bounds" : {
               "northeast" : {
                  "lat" : 28.7699666,
                  "lng" : 77.5103283
               },
               "southwest" : {
                  "lat" : 28.7563268,
                  "lng" : 77.4979147
               }
            },
            "location" : {
               "lat" : 28.7630145,
               "lng" : 77.5040257
            },
            "location_type" : "GEOMETRIC_CENTER",
            "viewport" : {
               "northeast" : {
                  "lat" : 28.7699666,
                  "lng" : 77.5103283
               },
               "southwest" : {
                  "lat" : 28.7563268,
                  "lng" : 77.4979147
               }
            }
         },
         "types" : [ "route" ]
      },
      {
         "address_components" : [
            {
               "long_name" : "G.T Road",
               "short_name" : "G.T Rd",
               "types" : [ "route" ]
            },
            {
               "long_name" : "Ghotki",
               "short_name" : "Ghotki",
               "types" : [ "locality", "political" ]
            },
            {
               "long_name" : "Ghotki District",
               "short_name" : "Ghotki District",
               "types" : [ "administrative_area_level_2", "political" ]
            },
            {
               "long_name" : "Sindh",
               "short_name" : "Sindh",
               "types" : [ "administrative_area_level_1", "political" ]
            },
            {
               "long_name" : "Pakistan",
               "short_name" : "PK",
               "types" : [ "country", "political" ]
            }
         ],
         "formatted_address" : "G.T Road, Ghotki, Pakistan",
         "geometry" : {
            "bounds" : {
               "northeast" : {
                  "lat" : 28.0080588,
                  "lng" : 69.33786599999999
               },
               "southwest" : {
                  "lat" : 27.9847238,
                  "lng" : 69.29149029999999
               }
            },
            "location" : {
               "lat" : 27.9984388,
               "lng" : 69.31370869999999
            },
            "location_type" : "GEOMETRIC_CENTER",
            "viewport" : {
               "northeast" : {
                  "lat" : 28.0080588,
                  "lng" : 69.33786599999999
               },
               "southwest" : {
                  "lat" : 27.9847238,
                  "lng" : 69.29149029999999
               }
            }
         },
         "types" : [ "route" ]
      },
      {
         "address_components" : [
            {
               "long_name" : "G.T.Road",
               "short_name" : "G.T.Road",
               "types" : [ "route" ]
            },
            {
               "long_name" : "Raniganj",
               "short_name" : "Raniganj",
               "types" : [ "locality", "political" ]
            },
            {
               "long_name" : "Bardhaman",
               "short_name" : "Bardhaman",
               "types" : [ "administrative_area_level_2", "political" ]
            },
            {
               "long_name" : "West Bengal",
               "short_name" : "WB",
               "types" : [ "administrative_area_level_1", "political" ]
            },
            {
               "long_name" : "India",
               "short_name" : "IN",
               "types" : [ "country", "political" ]
            },
            {
               "long_name" : "713358",
               "short_name" : "713358",
               "types" : [ "postal_code" ]
            }
         ],
         "formatted_address" : "G.T.Road, Raniganj, West Bengal 713358, India",
         "geometry" : {
            "bounds" : {
               "northeast" : {
                  "lat" : 23.6445829,
                  "lng" : 87.11569969999999
               },
               "southwest" : {
                  "lat" : 23.637619,
                  "lng" : 87.103869
               }
            },
            "location" : {
               "lat" : 23.6411983,
               "lng" : 87.10976549999999
            },
            "location_type" : "GEOMETRIC_CENTER",
            "viewport" : {
               "northeast" : {
                  "lat" : 23.6445829,
                  "lng" : 87.11569969999999
               },
               "southwest" : {
                  "lat" : 23.637619,
                  "lng" : 87.103869
               }
            }
         },
         "types" : [ "route" ]
      },
      {
         "address_components" : [
            {
               "long_name" : "G T मार्ग",
               "short_name" : "G T मार्ग",
               "types" : [ "route" ]
            },
            {
               "long_name" : "Jalandhar",
               "short_name" : "Jalandhar",
               "types" : [ "locality", "political" ]
            },
            {
               "long_name" : "Jalandhar",
               "short_name" : "Jalandhar",
               "types" : [ "administrative_area_level_2", "political" ]
            },
            {
               "long_name" : "Punjab",
               "short_name" : "PB",
               "types" : [ "administrative_area_level_1", "political" ]
            },
            {
               "long_name" : "India",
               "short_name" : "IN",
               "types" : [ "country", "political" ]
            }
         ],
         "formatted_address" : "G T मार्ग, Jalandhar, Punjab, India",
         "geometry" : {
            "bounds" : {
               "northeast" : {
                  "lat" : 31.3340243,
                  "lng" : 75.57832809999999
               },
               "southwest" : {
                  "lat" : 31.3261599,
                  "lng" : 75.56956009999999
               }
            },
            "location" : {
               "lat" : 31.3289009,
               "lng" : 75.57240929999999
            },
            "location_type" : "GEOMETRIC_CENTER",
            "viewport" : {
               "northeast" : {
                  "lat" : 31.3340243,
                  "lng" : 75.57832809999999
               },
               "southwest" : {
                  "lat" : 31.3261599,
                  "lng" : 75.56956009999999
               }
            }
         },
         "types" : [ "route" ]
      },
      {
         "address_components" : [
            {
               "long_name" : "Maulana Abul Kalam Azad Road",
               "short_name" : "Maulana Abul Kalam Azad Rd",
               "types" : [ "route" ]
            },
            {
               "long_name" : "Guntur",
               "short_name" : "GNT",
               "types" : [ "locality", "political" ]
            },
            {
               "long_name" : "Guntur",
               "short_name" : "Guntur",
               "types" : [ "administrative_area_level_2", "political" ]
            },
            {
               "long_name" : "Andhra Pradesh",
               "short_name" : "AP",
               "types" : [ "administrative_area_level_1", "political" ]
            },
            {
               "long_name" : "India",
               "short_name" : "IN",
               "types" : [ "country", "political" ]
            }
         ],
         "formatted_address" : "Maulana Abul Kalam Azad Road, Guntur, Andhra Pradesh, India",
         "geometry" : {
            "bounds" : {
               "northeast" : {
                  "lat" : 16.2935936,
                  "lng" : 80.4546216
               },
               "southwest" : {
                  "lat" : 16.2910512,
                  "lng" : 80.43959280000001
               }
            },
            "location" : {
               "lat" : 16.2924143,
               "lng" : 80.4469972
            },
            "location_type" : "GEOMETRIC_CENTER",
            "viewport" : {
               "northeast" : {
                  "lat" : 16.2936713802915,
                  "lng" : 80.4546216
               },
               "southwest" : {
                  "lat" : 16.2909734197085,
                  "lng" : 80.43959280000001
               }
            }
         },
         "types" : [ "route" ]
      },
      {
         "address_components" : [
            {
               "long_name" : "G.T. Road",
               "short_name" : "G.T. Rd",
               "types" : [ "route" ]
            },
            {
               "long_name" : "Vehāri",
               "short_name" : "Vehāri",
               "types" : [ "locality", "political" ]
            },
            {
               "long_name" : "Vehari District",
               "short_name" : "Vehari District",
               "types" : [ "administrative_area_level_2", "political" ]
            },
            {
               "long_name" : "Punjab",
               "short_name" : "Punjab",
               "types" : [ "administrative_area_level_1", "political" ]
            },
            {
               "long_name" : "Pakistan",
               "short_name" : "PK",
               "types" : [ "country", "political" ]
            }
         ],
         "formatted_address" : "G.T. Road, Vehāri, Pakistan",
         "geometry" : {
            "bounds" : {
               "northeast" : {
                  "lat" : 30.0497968,
                  "lng" : 72.3611906
               },
               "southwest" : {
                  "lat" : 30.0437962,
                  "lng" : 72.3437148
               }
            },
            "location" : {
               "lat" : 30.047083,
               "lng" : 72.3522529
            },
            "location_type" : "GEOMETRIC_CENTER",
            "viewport" : {
               "northeast" : {
                  "lat" : 30.0497968,
                  "lng" : 72.3611906
               },
               "southwest" : {
                  "lat" : 30.0437962,
                  "lng" : 72.3437148
               }
            }
         },
         "types" : [ "route" ]
      },
      {
         "address_components" : [
            {
               "long_name" : "GT Road",
               "short_name" : "GT Rd",
               "types" : [ "route" ]
            },
            {
               "long_name" : "Karnal",
               "short_name" : "Karnal",
               "types" : [ "locality", "political" ]
            },
            {
               "long_name" : "Karnal",
               "short_name" : "Karnal",
               "types" : [ "administrative_area_level_2", "political" ]
            },
            {
               "long_name" : "Haryana",
               "short_name" : "HR",
               "types" : [ "administrative_area_level_1", "political" ]
            },
            {
               "long_name" : "India",
               "short_name" : "IN",
               "types" : [ "country", "political" ]
            },
            {
               "long_name" : "132001",
               "short_name" : "132001",
               "types" : [ "postal_code" ]
            }
         ],
         "formatted_address" : "GT Road, Karnal, Haryana 132001, India",
         "geometry" : {
            "bounds" : {
               "northeast" : {
                  "lat" : 29.6995764,
                  "lng" : 76.9918174
               },
               "southwest" : {
                  "lat" : 29.6859722,
                  "lng" : 76.9865229
               }
            },
            "location" : {
               "lat" : 29.6921925,
               "lng" : 76.98742759999999
            },
            "location_type" : "GEOMETRIC_CENTER",
            "viewport" : {
               "northeast" : {
                  "lat" : 29.6995764,
                  "lng" : 76.9918174
               },
               "southwest" : {
                  "lat" : 29.6859722,
                  "lng" : 76.9865229
               }
            }
         },
         "types" : [ "route" ]
      },
      {
         "address_components" : [
            {
               "long_name" : "Grand Trunk Road",
               "short_name" : "G.T. Road",
               "types" : [ "route" ]
            },
            {
               "long_name" : "Gujranwala",
               "short_name" : "Gujranwala",
               "types" : [ "locality", "political" ]
            },
            {
               "long_name" : "Gujranwala",
               "short_name" : "Gujranwala",
               "types" : [ "administrative_area_level_2", "political" ]
            },
            {
               "long_name" : "Punjab",
               "short_name" : "Punjab",
               "types" : [ "administrative_area_level_1", "political" ]
            },
            {
               "long_name" : "Pakistan",
               "short_name" : "PK",
               "types" : [ "country", "political" ]
            }
         ],
         "formatted_address" : "Grand Trunk Road, Gujranwala, Pakistan",
         "geometry" : {
            "bounds" : {
               "northeast" : {
                  "lat" : 32.1682383,
                  "lng" : 74.19091790000002
               },
               "southwest" : {
                  "lat" : 32.1523074,
                  "lng" : 74.1869456
               }
            },
            "location" : {
               "lat" : 32.1600257,
               "lng" : 74.18894920000001
            },
            "location_type" : "GEOMETRIC_CENTER",
            "viewport" : {
               "northeast" : {
                  "lat" : 32.1682383,
                  "lng" : 74.19091790000002
               },
               "southwest" : {
                  "lat" : 32.1523074,
                  "lng" : 74.1869456
               }
            }
         },
         "types" : [ "route" ]
      },
      {
         "address_components" : [
            {
               "long_name" : "G. T. Road",
               "short_name" : "G. T. Road",
               "types" : [ "route" ]
            },
            {
               "long_name" : "Wahga",
               "short_name" : "Wahga",
               "types" : [ "locality", "political" ]
            },
            {
               "long_name" : "Lahore District",
               "short_name" : "Lahore District",
               "types" : [ "administrative_area_level_2", "political" ]
            },
            {
               "long_name" : "Punjab",
               "short_name" : "Punjab",
               "types" : [ "administrative_area_level_1", "political" ]
            },
            {
               "long_name" : "Pakistan",
               "short_name" : "PK",
               "types" : [ "country", "political" ]
            }
         ],
         "formatted_address" : "G. T. Road, Wahga, Pakistan",
         "geometry" : {
            "bounds" : {
               "northeast" : {
                  "lat" : 31.60499,
                  "lng" : 74.5730586
               },
               "southwest" : {
                  "lat" : 31.6040995,
                  "lng" : 74.5683121
               }
            },
            "location" : {
               "lat" : 31.6043904,
               "lng" : 74.5707321
            },
            "location_type" : "GEOMETRIC_CENTER",
            "viewport" : {
               "northeast" : {
                  "lat" : 31.6058937302915,
                  "lng" : 74.5730586
               },
               "southwest" : {
                  "lat" : 31.6031957697085,
                  "lng" : 74.5683121
               }
            }
         },
         "types" : [ "route" ]
      },
      {
         "address_components" : [
            {
               "long_name" : "Gt Road",
               "short_name" : "Gt Rd",
               "types" : [ "route" ]
            },
            {
               "long_name" : "Bowie",
               "short_name" : "Bowie",
               "types" : [ "locality", "political" ]
            },
            {
               "long_name" : "Clay County",
               "short_name" : "Clay County",
               "types" : [ "administrative_area_level_2", "political" ]
            },
            {
               "long_name" : "Texas",
               "short_name" : "TX",
               "types" : [ "administrative_area_level_1", "political" ]
            },
            {
               "long_name" : "United States",
               "short_name" : "US",
               "types" : [ "country", "political" ]
            },
            {
               "long_name" : "76230",
               "short_name" : "76230",
               "types" : [ "postal_code" ]
            }
         ],
         "formatted_address" : "Gt Road, Bowie, TX 76230, USA",
         "geometry" : {
            "bounds" : {
               "northeast" : {
                  "lat" : 33.484152,
                  "lng" : -97.99270199999999
               },
               "southwest" : {
                  "lat" : 33.4697988,
                  "lng" : -97.99523619999999
               }
            },
            "location" : {
               "lat" : 33.4772629,
               "lng" : -97.99281359999999
            },
            "location_type" : "GEOMETRIC_CENTER",
            "viewport" : {
               "northeast" : {
                  "lat" : 33.484152,
                  "lng" : -97.9926201197085
               },
               "southwest" : {
                  "lat" : 33.4697988,
                  "lng" : -97.99531808029151
               }
            }
         },
         "types" : [ "route" ]
      },
      {
         "address_components" : [
            {
               "long_name" : "G.T. Road",
               "short_name" : "G.T. Road",
               "types" : [ "route" ]
            },
            {
               "long_name" : "Sanawan",
               "short_name" : "Sanawan",
               "types" : [ "locality", "political" ]
            },
            {
               "long_name" : "Muzaffargarh District",
               "short_name" : "Muzaffargarh District",
               "types" : [ "administrative_area_level_2", "political" ]
            },
            {
               "long_name" : "Punjab",
               "short_name" : "Punjab",
               "types" : [ "administrative_area_level_1", "political" ]
            },
            {
               "long_name" : "Pakistan",
               "short_name" : "PK",
               "types" : [ "country", "political" ]
            }
         ],
         "formatted_address" : "G.T. Road, Sanawan, Pakistan",
         "geometry" : {
            "bounds" : {
               "northeast" : {
                  "lat" : 30.328569,
                  "lng" : 70.9739622
               },
               "southwest" : {
                  "lat" : 30.3163304,
                  "lng" : 70.97082139999999
               }
            },
            "location" : {
               "lat" : 30.3224688,
               "lng" : 70.97376760000002
            },
            "location_type" : "GEOMETRIC_CENTER",
            "viewport" : {
               "northeast" : {
                  "lat" : 30.328569,
                  "lng" : 70.9739622
               },
               "southwest" : {
                  "lat" : 30.3163304,
                  "lng" : 70.97082139999999
               }
            }
         },
         "types" : [ "route" ]
      },
      {
         "address_components" : [
            {
               "long_name" : "G.T. Road",
               "short_name" : "G.T. Road",
               "types" : [ "route" ]
            },
            {
               "long_name" : "Gujrat",
               "short_name" : "Gujrat",
               "types" : [ "locality", "political" ]
            },
            {
               "long_name" : "Muzaffargarh District",
               "short_name" : "Muzaffargarh District",
               "types" : [ "administrative_area_level_2", "political" ]
            },
            {
               "long_name" : "Punjab",
               "short_name" : "Punjab",
               "types" : [ "administrative_area_level_1", "political" ]
            },
            {
               "long_name" : "Pakistan",
               "short_name" : "PK",
               "types" : [ "country", "political" ]
            }
         ],
         "formatted_address" : "G.T. Road, Gujrat, Pakistan",
         "geometry" : {
            "bounds" : {
               "northeast" : {
                  "lat" : 30.1715028,
                  "lng" : 70.9548286
               },
               "southwest" : {
                  "lat" : 30.1607161,
                  "lng" : 70.95439549999999
               }
            },
            "location" : {
               "lat" : 30.1665961,
               "lng" : 70.95448940000001
            },
            "location_type" : "GEOMETRIC_CENTER",
            "viewport" : {
               "northeast" : {
                  "lat" : 30.1715028,
                  "lng" : 70.9559610302915
               },
               "southwest" : {
                  "lat" : 30.1607161,
                  "lng" : 70.95326306970848
               }
            }
         },
         "types" : [ "route" ]
      }
   ],
   "status" : "OK"
}
