{
   "results" : [
      {
         "address_components" : [
            {
               "long_name" : "Hari Nagar",
               "short_name" : "Hari Nagar",
               "types" : [ "sublocality_level_1", "sublocality", "political" ]
            },
            {
               "long_name" : "New Delhi",
               "short_name" : "New Delhi",
               "types" : [ "locality", "political" ]
            },
            {
               "long_name" : "West Delhi",
               "short_name" : "West Delhi",
               "types" : [ "administrative_area_level_2", "political" ]
            },
            {
               "long_name" : "Delhi",
               "short_name" : "DL",
               "types" : [ "administrative_area_level_1", "political" ]
            },
            {
               "long_name" : "India",
               "short_name" : "IN",
               "types" : [ "country", "political" ]
            }
         ],
         "formatted_address" : "Hari Nagar, New Delhi, Delhi, India",
         "geometry" : {
            "bounds" : {
               "northeast" : {
                  "lat" : 28.634368,
                  "lng" : 77.1236601
               },
               "southwest" : {
                  "lat" : 28.614782,
                  "lng" : 77.0942999
               }
            },
            "location" : {
               "lat" : 28.6248596,
               "lng" : 77.11086809999999
            },
            "location_type" : "APPROXIMATE",
            "viewport" : {
               "northeast" : {
                  "lat" : 28.634368,
                  "lng" : 77.1236601
               },
               "southwest" : {
                  "lat" : 28.614782,
                  "lng" : 77.0942999
               }
            }
         },
         "types" : [ "sublocality_level_1", "sublocality", "political" ]
      },
      {
         "address_components" : [
            {
               "long_name" : "Hari Nagar",
               "short_name" : "Hari Nagar",
               "types" : [ "sublocality_level_1", "sublocality", "political" ]
            },
            {
               "long_name" : "Vadodara",
               "short_name" : "Vadodara",
               "types" : [ "locality", "political" ]
            },
            {
               "long_name" : "Vadodara",
               "short_name" : "Vadodara",
               "types" : [ "administrative_area_level_2", "political" ]
            },
            {
               "long_name" : "Gujarat",
               "short_name" : "GJ",
               "types" : [ "administrative_area_level_1", "political" ]
            },
            {
               "long_name" : "India",
               "short_name" : "IN",
               "types" : [ "country", "political" ]
            }
         ],
         "formatted_address" : "Hari Nagar, Vadodara, Gujarat, India",
         "geometry" : {
            "bounds" : {
               "northeast" : {
                  "lat" : 22.3227169,
                  "lng" : 73.16142099999999
               },
               "southwest" : {
                  "lat" : 22.3099999,
                  "lng" : 73.14632209999999
               }
            },
            "location" : {
               "lat" : 22.3146688,
               "lng" : 73.1541374
            },
            "location_type" : "APPROXIMATE",
            "viewport" : {
               "northeast" : {
                  "lat" : 22.3227169,
                  "lng" : 73.16142099999999
               },
               "southwest" : {
                  "lat" : 22.3099999,
                  "lng" : 73.14632209999999
               }
            }
         },
         "types" : [ "sublocality_level_1", "sublocality", "political" ]
      },
      {
         "address_components" : [
            {
               "long_name" : "Harinagar",
               "short_name" : "Harinagar",
               "types" : [ "sublocality_level_2", "sublocality", "political" ]
            },
            {
               "long_name" : "Udhna",
               "short_name" : "Udhna",
               "types" : [ "sublocality_level_1", "sublocality", "political" ]
            },
            {
               "long_name" : "Surat",
               "short_name" : "Surat",
               "types" : [ "locality", "political" ]
            },
            {
               "long_name" : "Surat",
               "short_name" : "Surat",
               "types" : [ "administrative_area_level_2", "political" ]
            },
            {
               "long_name" : "Gujarat",
               "short_name" : "GJ",
               "types" : [ "administrative_area_level_1", "political" ]
            },
            {
               "long_name" : "India",
               "short_name" : "IN",
               "types" : [ "country", "political" ]
            }
         ],
         "formatted_address" : "Harinagar, Udhna, Surat, Gujarat, India",
         "geometry" : {
            "bounds" : {
               "northeast" : {
                  "lat" : 21.1677541,
                  "lng" : 72.84607199999999
               },
               "southwest" : {
                  "lat" : 21.151454,
                  "lng" : 72.83845509999999
               }
            },
            "location" : {
               "lat" : 21.1585113,
               "lng" : 72.8419473
            },
            "location_type" : "APPROXIMATE",
            "viewport" : {
               "northeast" : {
                  "lat" : 21.1677541,
                  "lng" : 72.84607199999999
               },
               "southwest" : {
                  "lat" : 21.151454,
                  "lng" : 72.83845509999999
               }
            }
         },
         "types" : [ "sublocality_level_2", "sublocality", "political" ]
      },
      {
         "address_components" : [
            {
               "long_name" : "Hari Nagar",
               "short_name" : "Hari Nagar",
               "types" : [ "sublocality_level_2", "sublocality", "political" ]
            },
            {
               "long_name" : "Molarband",
               "short_name" : "Molarband",
               "types" : [ "sublocality_level_1", "sublocality", "political" ]
            },
            {
               "long_name" : "New Delhi",
               "short_name" : "New Delhi",
               "types" : [ "locality", "political" ]
            },
            {
               "long_name" : "South Delhi",
               "short_name" : "South Delhi",
               "types" : [ "administrative_area_level_2", "political" ]
            },
            {
               "long_name" : "Delhi",
               "short_name" : "DL",
               "types" : [ "administrative_area_level_1", "political" ]
            },
            {
               "long_name" : "India",
               "short_name" : "IN",
               "types" : [ "country", "political" ]
            },
            {
               "long_name" : "110044",
               "short_name" : "110044",
               "types" : [ "postal_code" ]
            }
         ],
         "formatted_address" : "Hari Nagar, Molarband, New Delhi, Delhi 110044, India",
         "geometry" : {
            "bounds" : {
               "northeast" : {
                  "lat" : 28.511647,
                  "lng" : 77.322526
               },
               "southwest" : {
                  "lat" : 28.5003981,
                  "lng" : 77.313101
               }
            },
            "location" : {
               "lat" : 28.5051304,
               "lng" : 77.3166476
            },
            "location_type" : "APPROXIMATE",
            "viewport" : {
               "northeast" : {
                  "lat" : 28.511647,
                  "lng" : 77.322526
               },
               "southwest" : {
                  "lat" : 28.5003981,
                  "lng" : 77.313101
               }
            }
         },
         "types" : [ "sublocality_level_2", "sublocality", "political" ]
      },
      {
         "address_components" : [
            {
               "long_name" : "Mangaliya Wad",
               "short_name" : "Mangaliya Wad",
               "types" : [ "sublocality_level_1", "sublocality", "political" ]
            },
            {
               "long_name" : "Navsari",
               "short_name" : "Navsari",
               "types" : [ "locality", "political" ]
            },
            {
               "long_name" : "Navsari",
               "short_name" : "Navsari",
               "types" : [ "administrative_area_level_2", "political" ]
            },
            {
               "long_name" : "Gujarat",
               "short_name" : "GJ",
               "types" : [ "administrative_area_level_1", "political" ]
            },
            {
               "long_name" : "India",
               "short_name" : "IN",
               "types" : [ "country", "political" ]
            },
            {
               "long_name" : "396445",
               "short_name" : "396445",
               "types" : [ "postal_code" ]
            }
         ],
         "formatted_address" : "Mangaliya Wad, Navsari, Gujarat 396445, India",
         "geometry" : {
            "bounds" : {
               "northeast" : {
                  "lat" : 20.961019,
                  "lng" : 72.93015199999999
               },
               "southwest" : {
                  "lat" : 20.9531319,
                  "lng" : 72.92041589999999
               }
            },
            "location" : {
               "lat" : 20.9566875,
               "lng" : 72.9261243
            },
            "location_type" : "APPROXIMATE",
            "viewport" : {
               "northeast" : {
                  "lat" : 20.961019,
                  "lng" : 72.93015199999999
               },
               "southwest" : {
                  "lat" : 20.9531319,
                  "lng" : 72.92041589999999
               }
            }
         },
         "types" : [ "sublocality_level_1", "sublocality", "political" ]
      },
      {
         "address_components" : [
            {
               "long_name" : "Hari Nagar",
               "short_name" : "Hari Nagar",
               "types" : [ "sublocality_level_2", "sublocality", "political" ]
            },
            {
               "long_name" : "Sector 10A",
               "short_name" : "Sector 10A",
               "types" : [ "sublocality_level_1", "sublocality", "political" ]
            },
            {
               "long_name" : "Gurgaon",
               "short_name" : "Gurgaon",
               "types" : [ "locality", "political" ]
            },
            {
               "long_name" : "Gurgaon",
               "short_name" : "Gurgaon",
               "types" : [ "administrative_area_level_2", "political" ]
            },
            {
               "long_name" : "Haryana",
               "short_name" : "HR",
               "types" : [ "administrative_area_level_1", "political" ]
            },
            {
               "long_name" : "India",
               "short_name" : "IN",
               "types" : [ "country", "political" ]
            },
            {
               "long_name" : "122001",
               "short_name" : "122001",
               "types" : [ "postal_code" ]
            }
         ],
         "formatted_address" : "Hari Nagar, Sector 10A, Gurgaon, Haryana 122001, India",
         "geometry" : {
            "bounds" : {
               "northeast" : {
                  "lat" : 28.449125,
                  "lng" : 77.02141109999999
               },
               "southwest" : {
                  "lat" : 28.4432858,
                  "lng" : 77.0103197
               }
            },
            "location" : {
               "lat" : 28.4447958,
               "lng" : 77.0129019
            },
            "location_type" : "APPROXIMATE",
            "viewport" : {
               "northeast" : {
                  "lat" : 28.449125,
                  "lng" : 77.02141109999999
               },
               "southwest" : {
                  "lat" : 28.4432858,
                  "lng" : 77.0103197
               }
            }
         },
         "types" : [ "sublocality_level_2", "sublocality", "political" ]
      },
      {
         "address_components" : [
            {
               "long_name" : "Hari Nagar",
               "short_name" : "Hari Nagar",
               "types" : [ "sublocality_level_1", "sublocality", "political" ]
            },
            {
               "long_name" : "Hoshiarpur",
               "short_name" : "Hoshiarpur",
               "types" : [ "locality", "political" ]
            },
            {
               "long_name" : "Hoshiarpur",
               "short_name" : "Hoshiarpur",
               "types" : [ "administrative_area_level_2", "political" ]
            },
            {
               "long_name" : "Punjab",
               "short_name" : "PB",
               "types" : [ "administrative_area_level_1", "political" ]
            },
            {
               "long_name" : "India",
               "short_name" : "IN",
               "types" : [ "country", "political" ]
            },
            {
               "long_name" : "146001",
               "short_name" : "146001",
               "types" : [ "postal_code" ]
            }
         ],
         "formatted_address" : "Hari Nagar, Hoshiarpur, Punjab 146001, India",
         "geometry" : {
            "bounds" : {
               "northeast" : {
                  "lat" : 31.5359521,
                  "lng" : 75.92015409999999
               },
               "southwest" : {
                  "lat" : 31.529329,
                  "lng" : 75.9101249
               }
            },
            "location" : {
               "lat" : 31.5322033,
               "lng" : 75.91511260000001
            },
            "location_type" : "APPROXIMATE",
            "viewport" : {
               "northeast" : {
                  "lat" : 31.5359521,
                  "lng" : 75.92015409999999
               },
               "southwest" : {
                  "lat" : 31.529329,
                  "lng" : 75.9101249
               }
            }
         },
         "types" : [ "sublocality_level_1", "sublocality", "political" ]
      },
      {
         "address_components" : [
            {
               "long_name" : "Hari Nagar",
               "short_name" : "Hari Nagar",
               "types" : [ "locality", "political" ]
            },
            {
               "long_name" : "Barmer",
               "short_name" : "Barmer",
               "types" : [ "administrative_area_level_2", "political" ]
            },
            {
               "long_name" : "Rajasthan",
               "short_name" : "RJ",
               "types" : [ "administrative_area_level_1", "political" ]
            },
            {
               "long_name" : "India",
               "short_name" : "IN",
               "types" : [ "country", "political" ]
            }
         ],
         "formatted_address" : "Hari Nagar, Rajasthan, India",
         "geometry" : {
            "bounds" : {
               "northeast" : {
                  "lat" : 26.31156,
                  "lng" : 72.5699601
               },
               "southwest" : {
                  "lat" : 26.2846901,
                  "lng" : 72.54187999999999
               }
            },
            "location" : {
               "lat" : 26.3009913,
               "lng" : 72.55301709999999
            },
            "location_type" : "APPROXIMATE",
            "viewport" : {
               "northeast" : {
                  "lat" : 26.31156,
                  "lng" : 72.5699601
               },
               "southwest" : {
                  "lat" : 26.2846901,
                  "lng" : 72.54187999999999
               }
            }
         },
         "types" : [ "locality", "political" ]
      },
      {
         "address_components" : [
            {
               "long_name" : "Harinagar",
               "short_name" : "Harinagar",
               "types" : [ "sublocality_level_2", "sublocality", "political" ]
            },
            {
               "long_name" : "Punkunnam",
               "short_name" : "Punkunnam",
               "types" : [ "sublocality_level_1", "sublocality", "political" ]
            },
            {
               "long_name" : "Thrissur",
               "short_name" : "Thrissur",
               "types" : [ "locality", "political" ]
            },
            {
               "long_name" : "Thrissur",
               "short_name" : "TSR",
               "types" : [ "administrative_area_level_2", "political" ]
            },
            {
               "long_name" : "Kerala",
               "short_name" : "KL",
               "types" : [ "administrative_area_level_1", "political" ]
            },
            {
               "long_name" : "India",
               "short_name" : "IN",
               "types" : [ "country", "political" ]
            }
         ],
         "formatted_address" : "Harinagar, Punkunnam, Thrissur, Kerala, India",
         "geometry" : {
            "bounds" : {
               "northeast" : {
                  "lat" : 10.5444668,
                  "lng" : 76.20919689999999
               },
               "southwest" : {
                  "lat" : 10.5352381,
                  "lng" : 76.20010500000001
               }
            },
            "location" : {
               "lat" : 10.5408418,
               "lng" : 76.20590369999999
            },
            "location_type" : "APPROXIMATE",
            "viewport" : {
               "northeast" : {
                  "lat" : 10.5444668,
                  "lng" : 76.20919689999999
               },
               "southwest" : {
                  "lat" : 10.5352381,
                  "lng" : 76.20010500000001
               }
            }
         },
         "types" : [ "sublocality_level_2", "sublocality", "political" ]
      },
      {
         "address_components" : [
            {
               "long_name" : "Hari Nagar",
               "short_name" : "Hari Nagar",
               "types" : [ "sublocality_level_2", "sublocality", "political" ]
            },
            {
               "long_name" : "Jhotwara",
               "short_name" : "Jhotwara",
               "types" : [ "sublocality_level_1", "sublocality", "political" ]
            },
            {
               "long_name" : "Jaipur",
               "short_name" : "Jaipur",
               "types" : [ "locality", "political" ]
            },
            {
               "long_name" : "Jaipur",
               "short_name" : "Jaipur",
               "types" : [ "administrative_area_level_2", "political" ]
            },
            {
               "long_name" : "Rajasthan",
               "short_name" : "RJ",
               "types" : [ "administrative_area_level_1", "political" ]
            },
            {
               "long_name" : "India",
               "short_name" : "IN",
               "types" : [ "country", "political" ]
            },
            {
               "long_name" : "302012",
               "short_name" : "302012",
               "types" : [ "postal_code" ]
            }
         ],
         "formatted_address" : "Hari Nagar, Jhotwara, Jaipur, Rajasthan 302012, India",
         "geometry" : {
            "bounds" : {
               "northeast" : {
                  "lat" : 26.9357885,
                  "lng" : 75.7347585
               },
               "southwest" : {
                  "lat" : 26.932755,
                  "lng" : 75.73083799999999
               }
            },
            "location" : {
               "lat" : 26.9346139,
               "lng" : 75.73209869999999
            },
            "location_type" : "APPROXIMATE",
            "viewport" : {
               "northeast" : {
                  "lat" : 26.9357885,
                  "lng" : 75.7347585
               },
               "southwest" : {
                  "lat" : 26.932755,
                  "lng" : 75.73083799999999
               }
            }
         },
         "types" : [ "sublocality_level_2", "sublocality", "political" ]
      },
      {
         "address_components" : [
            {
               "long_name" : "Hari Nagar",
               "short_name" : "Hari Nagar",
               "types" : [ "sublocality_level_1", "sublocality", "political" ]
            },
            {
               "long_name" : "Rajkot",
               "short_name" : "Rajkot",
               "types" : [ "locality", "political" ]
            },
            {
               "long_name" : "Rajkot",
               "short_name" : "Rajkot",
               "types" : [ "administrative_area_level_2", "political" ]
            },
            {
               "long_name" : "Gujarat",
               "short_name" : "GJ",
               "types" : [ "administrative_area_level_1", "political" ]
            },
            {
               "long_name" : "India",
               "short_name" : "IN",
               "types" : [ "country", "political" ]
            },
            {
               "long_name" : "360005",
               "short_name" : "360005",
               "types" : [ "postal_code" ]
            }
         ],
         "formatted_address" : "Hari Nagar, Rajkot, Gujarat 360005, India",
         "geometry" : {
            "bounds" : {
               "northeast" : {
                  "lat" : 22.296934,
                  "lng" : 70.767037
               },
               "southwest" : {
                  "lat" : 22.288715,
                  "lng" : 70.7579329
               }
            },
            "location" : {
               "lat" : 22.2911546,
               "lng" : 70.7629369
            },
            "location_type" : "APPROXIMATE",
            "viewport" : {
               "northeast" : {
                  "lat" : 22.296934,
                  "lng" : 70.767037
               },
               "southwest" : {
                  "lat" : 22.288715,
                  "lng" : 70.7579329
               }
            }
         },
         "types" : [ "sublocality_level_1", "sublocality", "political" ]
      },
      {
         "address_components" : [
            {
               "long_name" : "DTC Hari Nagar Depot I",
               "short_name" : "DTC Hari Nagar Depot I",
               "types" : [ "bus_station", "transit_station", "establishment" ]
            },
            {
               "long_name" : "Shaheed Bhagat Singh Marg",
               "short_name" : "Shaheed Bhagat Singh Marg",
               "types" : [ "route" ]
            },
            {
               "long_name" : "BF Block",
               "short_name" : "BF Block",
               "types" : [ "neighborhood", "political" ]
            },
            {
               "long_name" : "Block C",
               "short_name" : "Block C",
               "types" : [ "sublocality_level_2", "sublocality", "political" ]
            },
            {
               "long_name" : "Janak Puri",
               "short_name" : "Janak Puri",
               "types" : [ "sublocality_level_1", "sublocality", "political" ]
            },
            {
               "long_name" : "New Delhi",
               "short_name" : "New Delhi",
               "types" : [ "locality", "political" ]
            },
            {
               "long_name" : "West Delhi",
               "short_name" : "West Delhi",
               "types" : [ "administrative_area_level_2", "political" ]
            },
            {
               "long_name" : "Delhi",
               "short_name" : "DL",
               "types" : [ "administrative_area_level_1", "political" ]
            },
            {
               "long_name" : "India",
               "short_name" : "IN",
               "types" : [ "country", "political" ]
            },
            {
               "long_name" : "110064",
               "short_name" : "110064",
               "types" : [ "postal_code" ]
            }
         ],
         "formatted_address" : "DTC Hari Nagar Depot I, Shaheed Bhagat Singh Marg, BF Block, Block C, Janak Puri, New Delhi, Delhi 110064, India",
         "geometry" : {
            "bounds" : {
               "northeast" : {
                  "lat" : 28.6247045,
                  "lng" : 77.10141500000002
               },
               "southwest" : {
                  "lat" : 28.6233815,
                  "lng" : 77.098124
               }
            },
            "location" : {
               "lat" : 28.6241681,
               "lng" : 77.1005121
            },
            "location_type" : "APPROXIMATE",
            "viewport" : {
               "northeast" : {
                  "lat" : 28.6253919802915,
                  "lng" : 77.10141500000002
               },
               "southwest" : {
                  "lat" : 28.6226940197085,
                  "lng" : 77.098124
               }
            }
         },
         "types" : [ "bus_station", "transit_station", "establishment" ]
      },
      {
         "address_components" : [
            {
               "long_name" : "Hari Nagar",
               "short_name" : "Hari Nagar",
               "types" : [ "sublocality_level_1", "sublocality", "political" ]
            },
            {
               "long_name" : "Panipat",
               "short_name" : "Panipat",
               "types" : [ "locality", "political" ]
            },
            {
               "long_name" : "Panipat",
               "short_name" : "Panipat",
               "types" : [ "administrative_area_level_2", "political" ]
            },
            {
               "long_name" : "Haryana",
               "short_name" : "HR",
               "types" : [ "administrative_area_level_1", "political" ]
            },
            {
               "long_name" : "India",
               "short_name" : "IN",
               "types" : [ "country", "political" ]
            },
            {
               "long_name" : "132103",
               "short_name" : "132103",
               "types" : [ "postal_code" ]
            }
         ],
         "formatted_address" : "Hari Nagar, Panipat, Haryana 132103, India",
         "geometry" : {
            "bounds" : {
               "northeast" : {
                  "lat" : 29.426399,
                  "lng" : 76.96457409999999
               },
               "southwest" : {
                  "lat" : 29.40216999999999,
                  "lng" : 76.94637709999999
               }
            },
            "location" : {
               "lat" : 29.4127636,
               "lng" : 76.9556643
            },
            "location_type" : "APPROXIMATE",
            "viewport" : {
               "northeast" : {
                  "lat" : 29.426399,
                  "lng" : 76.96457409999999
               },
               "southwest" : {
                  "lat" : 29.40216999999999,
                  "lng" : 76.94637709999999
               }
            }
         },
         "types" : [ "sublocality_level_1", "sublocality", "political" ]
      },
      {
         "address_components" : [
            {
               "long_name" : "Harinagar",
               "short_name" : "Harinagar",
               "types" : [ "sublocality_level_1", "sublocality", "political" ]
            },
            {
               "long_name" : "Pilani",
               "short_name" : "Pilani",
               "types" : [ "locality", "political" ]
            },
            {
               "long_name" : "Jhunjhunu",
               "short_name" : "Jhunjhunu",
               "types" : [ "administrative_area_level_2", "political" ]
            },
            {
               "long_name" : "Rajasthan",
               "short_name" : "RJ",
               "types" : [ "administrative_area_level_1", "political" ]
            },
            {
               "long_name" : "India",
               "short_name" : "IN",
               "types" : [ "country", "political" ]
            }
         ],
         "formatted_address" : "Harinagar, Pilani, Rajasthan, India",
         "geometry" : {
            "bounds" : {
               "northeast" : {
                  "lat" : 28.36371,
                  "lng" : 75.586147
               },
               "southwest" : {
                  "lat" : 28.34851,
                  "lng" : 75.57648189999999
               }
            },
            "location" : {
               "lat" : 28.3558056,
               "lng" : 75.581523
            },
            "location_type" : "APPROXIMATE",
            "viewport" : {
               "northeast" : {
                  "lat" : 28.36371,
                  "lng" : 75.586147
               },
               "southwest" : {
                  "lat" : 28.34851,
                  "lng" : 75.57648189999999
               }
            }
         },
         "types" : [ "sublocality_level_1", "sublocality", "political" ]
      },
      {
         "address_components" : [
            {
               "long_name" : "Hari Nagar",
               "short_name" : "Hari Nagar",
               "types" : [ "sublocality_level_2", "sublocality", "political" ]
            },
            {
               "long_name" : "Indira Colony",
               "short_name" : "Indira Colony",
               "types" : [ "sublocality_level_1", "sublocality", "political" ]
            },
            {
               "long_name" : "Hisar",
               "short_name" : "Hisar",
               "types" : [ "locality", "political" ]
            },
            {
               "long_name" : "Hisar",
               "short_name" : "Hisar",
               "types" : [ "administrative_area_level_2", "political" ]
            },
            {
               "long_name" : "Haryana",
               "short_name" : "HR",
               "types" : [ "administrative_area_level_1", "political" ]
            },
            {
               "long_name" : "India",
               "short_name" : "IN",
               "types" : [ "country", "political" ]
            },
            {
               "long_name" : "125001",
               "short_name" : "125001",
               "types" : [ "postal_code" ]
            }
         ],
         "formatted_address" : "Hari Nagar, Indira Colony, Hisar, Haryana 125001, India",
         "geometry" : {
            "bounds" : {
               "northeast" : {
                  "lat" : 29.159991,
                  "lng" : 75.737619
               },
               "southwest" : {
                  "lat" : 29.1545051,
                  "lng" : 75.73293409999999
               }
            },
            "location" : {
               "lat" : 29.1573594,
               "lng" : 75.73496849999999
            },
            "location_type" : "APPROXIMATE",
            "viewport" : {
               "northeast" : {
                  "lat" : 29.159991,
                  "lng" : 75.737619
               },
               "southwest" : {
                  "lat" : 29.1545051,
                  "lng" : 75.73293409999999
               }
            }
         },
         "types" : [ "sublocality_level_2", "sublocality", "political" ]
      },
      {
         "address_components" : [
            {
               "long_name" : "Hari Nagar",
               "short_name" : "Hari Nagar",
               "types" : [ "sublocality_level_1", "sublocality", "political" ]
            },
            {
               "long_name" : "Ajmer",
               "short_name" : "Ajmer",
               "types" : [ "locality", "political" ]
            },
            {
               "long_name" : "Ajmer",
               "short_name" : "Ajmer",
               "types" : [ "administrative_area_level_2", "political" ]
            },
            {
               "long_name" : "Rajasthan",
               "short_name" : "RJ",
               "types" : [ "administrative_area_level_1", "political" ]
            },
            {
               "long_name" : "India",
               "short_name" : "IN",
               "types" : [ "country", "political" ]
            },
            {
               "long_name" : "305004",
               "short_name" : "305004",
               "types" : [ "postal_code" ]
            }
         ],
         "formatted_address" : "Hari Nagar, Ajmer, Rajasthan 305004, India",
         "geometry" : {
            "bounds" : {
               "northeast" : {
                  "lat" : 26.4875571,
                  "lng" : 74.6392901
               },
               "southwest" : {
                  "lat" : 26.4847039,
                  "lng" : 74.634669
               }
            },
            "location" : {
               "lat" : 26.4855476,
               "lng" : 74.6374814
            },
            "location_type" : "APPROXIMATE",
            "viewport" : {
               "northeast" : {
                  "lat" : 26.4875571,
                  "lng" : 74.6392901
               },
               "southwest" : {
                  "lat" : 26.4847039,
                  "lng" : 74.634669
               }
            }
         },
         "types" : [ "sublocality_level_1", "sublocality", "political" ]
      },
      {
         "address_components" : [
            {
               "long_name" : "Hari Nagar",
               "short_name" : "Hari Nagar",
               "types" : [ "sublocality_level_2", "sublocality", "political" ]
            },
            {
               "long_name" : "Katulbod",
               "short_name" : "Katulbod",
               "types" : [ "sublocality_level_1", "sublocality", "political" ]
            },
            {
               "long_name" : "Durg",
               "short_name" : "Durg",
               "types" : [ "locality", "political" ]
            },
            {
               "long_name" : "Durg",
               "short_name" : "Durg",
               "types" : [ "administrative_area_level_2", "political" ]
            },
            {
               "long_name" : "Chhattisgarh",
               "short_name" : "CT",
               "types" : [ "administrative_area_level_1", "political" ]
            },
            {
               "long_name" : "India",
               "short_name" : "IN",
               "types" : [ "country", "political" ]
            }
         ],
         "formatted_address" : "Hari Nagar, Katulbod, Durg, Chhattisgarh, India",
         "geometry" : {
            "bounds" : {
               "northeast" : {
                  "lat" : 21.208325,
                  "lng" : 81.30445399999999
               },
               "southwest" : {
                  "lat" : 21.204922,
                  "lng" : 81.2975321
               }
            },
            "location" : {
               "lat" : 21.2068547,
               "lng" : 81.30211629999999
            },
            "location_type" : "APPROXIMATE",
            "viewport" : {
               "northeast" : {
                  "lat" : 21.208325,
                  "lng" : 81.30445399999999
               },
               "southwest" : {
                  "lat" : 21.204922,
                  "lng" : 81.2975321
               }
            }
         },
         "types" : [ "sublocality_level_2", "sublocality", "political" ]
      },
      {
         "address_components" : [
            {
               "long_name" : "Hari Nagar",
               "short_name" : "Hari Nagar",
               "types" : [ "sublocality_level_1", "sublocality", "political" ]
            },
            {
               "long_name" : "Narwana",
               "short_name" : "Narwana",
               "types" : [ "locality", "political" ]
            },
            {
               "long_name" : "Jind",
               "short_name" : "Jind",
               "types" : [ "administrative_area_level_2", "political" ]
            },
            {
               "long_name" : "Haryana",
               "short_name" : "HR",
               "types" : [ "administrative_area_level_1", "political" ]
            },
            {
               "long_name" : "India",
               "short_name" : "IN",
               "types" : [ "country", "political" ]
            },
            {
               "long_name" : "126116",
               "short_name" : "126116",
               "types" : [ "postal_code" ]
            }
         ],
         "formatted_address" : "Hari Nagar, Narwana, Haryana 126116, India",
         "geometry" : {
            "bounds" : {
               "northeast" : {
                  "lat" : 29.588403,
                  "lng" : 76.135037
               },
               "southwest" : {
                  "lat" : 29.57789499999999,
                  "lng" : 76.125297
               }
            },
            "location" : {
               "lat" : 29.585379,
               "lng" : 76.1276465
            },
            "location_type" : "APPROXIMATE",
            "viewport" : {
               "northeast" : {
                  "lat" : 29.588403,
                  "lng" : 76.135037
               },
               "southwest" : {
                  "lat" : 29.57789499999999,
                  "lng" : 76.125297
               }
            }
         },
         "types" : [ "sublocality_level_1", "sublocality", "political" ]
      }
   ],
   "status" : "OK"
}
