{
   "results" : [
      {
         "address_components" : [
            {
               "long_name" : "Hindon River",
               "short_name" : "Hindon River",
               "types" : [ "natural_feature", "establishment" ]
            },
            {
               "long_name" : "Uttar Pradesh",
               "short_name" : "UP",
               "types" : [ "administrative_area_level_1", "political" ]
            },
            {
               "long_name" : "India",
               "short_name" : "IN",
               "types" : [ "country", "political" ]
            }
         ],
         "formatted_address" : "Hindon River, Uttar Pradesh",
         "geometry" : {
            "bounds" : {
               "northeast" : {
                  "lat" : 28.7701646,
                  "lng" : 77.40839269999999
               },
               "southwest" : {
                  "lat" : 28.6516923,
                  "lng" : 77.3837997
               }
            },
            "location" : {
               "lat" : 28.7109285,
               "lng" : 77.3960962
            },
            "location_type" : "APPROXIMATE",
            "viewport" : {
               "northeast" : {
                  "lat" : 28.7701646,
                  "lng" : 77.40839269999999
               },
               "southwest" : {
                  "lat" : 28.6516923,
                  "lng" : 77.3837997
               }
            }
         },
         "types" : [ "natural_feature", "establishment" ]
      },
      {
         "address_components" : [
            {
               "long_name" : "Hindon",
               "short_name" : "Hindon",
               "types" : [ "natural_feature", "establishment" ]
            },
            {
               "long_name" : "Uttar Pradesh",
               "short_name" : "UP",
               "types" : [ "administrative_area_level_1", "political" ]
            },
            {
               "long_name" : "India",
               "short_name" : "IN",
               "types" : [ "country", "political" ]
            }
         ],
         "formatted_address" : "Hindon, Uttar Pradesh",
         "geometry" : {
            "bounds" : {
               "northeast" : {
                  "lat" : 29.2076015,
                  "lng" : 77.5242251
               },
               "southwest" : {
                  "lat" : 29.1858589,
                  "lng" : 77.495048
               }
            },
            "location" : {
               "lat" : 29.19673019999999,
               "lng" : 77.50963659999999
            },
            "location_type" : "APPROXIMATE",
            "viewport" : {
               "northeast" : {
                  "lat" : 29.2076015,
                  "lng" : 77.5242251
               },
               "southwest" : {
                  "lat" : 29.1858589,
                  "lng" : 77.495048
               }
            }
         },
         "types" : [ "natural_feature", "establishment" ]
      }
   ],
   "status" : "OK"
}
