{
   "results" : [
      {
         "address_components" : [
            {
               "long_name" : "Rangpur - Dinajpur Highway",
               "short_name" : "N5",
               "types" : [ "route" ]
            },
            {
               "long_name" : "Rangpur",
               "short_name" : "Rangpur",
               "types" : [ "locality", "political" ]
            },
            {
               "long_name" : "Rangpur",
               "short_name" : "Rangpur",
               "types" : [ "administrative_area_level_2", "political" ]
            },
            {
               "long_name" : "Rangpur Division",
               "short_name" : "Rangpur Division",
               "types" : [ "administrative_area_level_1", "political" ]
            },
            {
               "long_name" : "Bangladesh",
               "short_name" : "BD",
               "types" : [ "country", "political" ]
            }
         ],
         "formatted_address" : "Rangpur - Dinajpur Highway, Rangpur, Bangladesh",
         "geometry" : {
            "bounds" : {
               "northeast" : {
                  "lat" : 25.7894006,
                  "lng" : 89.23125209999999
               },
               "southwest" : {
                  "lat" : 25.7654263,
                  "lng" : 89.20718190000001
               }
            },
            "location" : {
               "lat" : 25.7782739,
               "lng" : 89.2205299
            },
            "location_type" : "GEOMETRIC_CENTER",
            "viewport" : {
               "northeast" : {
                  "lat" : 25.7894006,
                  "lng" : 89.23125209999999
               },
               "southwest" : {
                  "lat" : 25.7654263,
                  "lng" : 89.20718190000001
               }
            }
         },
         "types" : [ "route" ]
      },
      {
         "address_components" : [
            {
               "long_name" : "Jail Road",
               "short_name" : "Jail Rd",
               "types" : [ "route" ]
            },
            {
               "long_name" : "Nashik Road",
               "short_name" : "Nashik Road",
               "types" : [ "sublocality_level_1", "sublocality", "political" ]
            },
            {
               "long_name" : "Nashik",
               "short_name" : "Nashik",
               "types" : [ "locality", "political" ]
            },
            {
               "long_name" : "Nashik",
               "short_name" : "Nashik",
               "types" : [ "administrative_area_level_2", "political" ]
            },
            {
               "long_name" : "Maharashtra",
               "short_name" : "MH",
               "types" : [ "administrative_area_level_1", "political" ]
            },
            {
               "long_name" : "India",
               "short_name" : "IN",
               "types" : [ "country", "political" ]
            },
            {
               "long_name" : "422101",
               "short_name" : "422101",
               "types" : [ "postal_code" ]
            }
         ],
         "formatted_address" : "Jail Road, Nashik Road, Nashik, Maharashtra 422101, India",
         "geometry" : {
            "bounds" : {
               "northeast" : {
                  "lat" : 19.9743795,
                  "lng" : 73.84105840000001
               },
               "southwest" : {
                  "lat" : 19.9539783,
                  "lng" : 73.8376183
               }
            },
            "location" : {
               "lat" : 19.9640432,
               "lng" : 73.8392159
            },
            "location_type" : "GEOMETRIC_CENTER",
            "viewport" : {
               "northeast" : {
                  "lat" : 19.9743795,
                  "lng" : 73.84105840000001
               },
               "southwest" : {
                  "lat" : 19.9539783,
                  "lng" : 73.8376183
               }
            }
         },
         "types" : [ "route" ]
      },
      {
         "address_components" : [
            {
               "long_name" : "Jail Road",
               "short_name" : "Jail Rd",
               "types" : [ "route" ]
            },
            {
               "long_name" : "Jessore",
               "short_name" : "Jessore",
               "types" : [ "locality", "political" ]
            },
            {
               "long_name" : "Jessore",
               "short_name" : "Jessore",
               "types" : [ "administrative_area_level_2", "political" ]
            },
            {
               "long_name" : "Khulna Division",
               "short_name" : "Khulna Division",
               "types" : [ "administrative_area_level_1", "political" ]
            },
            {
               "long_name" : "Bangladesh",
               "short_name" : "BD",
               "types" : [ "country", "political" ]
            }
         ],
         "formatted_address" : "Jail Road, Jessore, Bangladesh",
         "geometry" : {
            "bounds" : {
               "northeast" : {
                  "lat" : 23.1770157,
                  "lng" : 89.21430049999999
               },
               "southwest" : {
                  "lat" : 23.1679588,
                  "lng" : 89.2098776
               }
            },
            "location" : {
               "lat" : 23.1726661,
               "lng" : 89.2139933
            },
            "location_type" : "GEOMETRIC_CENTER",
            "viewport" : {
               "northeast" : {
                  "lat" : 23.1770157,
                  "lng" : 89.21430049999999
               },
               "southwest" : {
                  "lat" : 23.1679588,
                  "lng" : 89.2098776
               }
            }
         },
         "types" : [ "route" ]
      },
      {
         "address_components" : [
            {
               "long_name" : "Jail Road",
               "short_name" : "Jail Rd",
               "types" : [ "route" ]
            },
            {
               "long_name" : "Raipur",
               "short_name" : "Raipur",
               "types" : [ "locality", "political" ]
            },
            {
               "long_name" : "Raipur",
               "short_name" : "Raipur",
               "types" : [ "administrative_area_level_2", "political" ]
            },
            {
               "long_name" : "Chhattisgarh",
               "short_name" : "CT",
               "types" : [ "administrative_area_level_1", "political" ]
            },
            {
               "long_name" : "India",
               "short_name" : "IN",
               "types" : [ "country", "political" ]
            }
         ],
         "formatted_address" : "Jail Road, Raipur, Chhattisgarh, India",
         "geometry" : {
            "bounds" : {
               "northeast" : {
                  "lat" : 21.2566715,
                  "lng" : 81.64181359999999
               },
               "southwest" : {
                  "lat" : 21.2454699,
                  "lng" : 81.6361416
               }
            },
            "location" : {
               "lat" : 21.2517875,
               "lng" : 81.64079149999999
            },
            "location_type" : "GEOMETRIC_CENTER",
            "viewport" : {
               "northeast" : {
                  "lat" : 21.2566715,
                  "lng" : 81.64181359999999
               },
               "southwest" : {
                  "lat" : 21.2454699,
                  "lng" : 81.6361416
               }
            }
         },
         "types" : [ "route" ]
      },
      {
         "address_components" : [
            {
               "long_name" : "Jail Road",
               "short_name" : "Jail Rd",
               "types" : [ "route" ]
            },
            {
               "long_name" : "Mandi",
               "short_name" : "Mandi",
               "types" : [ "locality", "political" ]
            },
            {
               "long_name" : "Mandi",
               "short_name" : "Mandi",
               "types" : [ "administrative_area_level_2", "political" ]
            },
            {
               "long_name" : "Himachal Pradesh",
               "short_name" : "HP",
               "types" : [ "administrative_area_level_1", "political" ]
            },
            {
               "long_name" : "India",
               "short_name" : "IN",
               "types" : [ "country", "political" ]
            },
            {
               "long_name" : "175001",
               "short_name" : "175001",
               "types" : [ "postal_code" ]
            }
         ],
         "formatted_address" : "Jail Road, Mandi, Himachal Pradesh 175001, India",
         "geometry" : {
            "bounds" : {
               "northeast" : {
                  "lat" : 31.7075841,
                  "lng" : 76.9286599
               },
               "southwest" : {
                  "lat" : 31.6998059,
                  "lng" : 76.9236506
               }
            },
            "location" : {
               "lat" : 31.7037164,
               "lng" : 76.9259776
            },
            "location_type" : "GEOMETRIC_CENTER",
            "viewport" : {
               "northeast" : {
                  "lat" : 31.7075841,
                  "lng" : 76.9286599
               },
               "southwest" : {
                  "lat" : 31.6998059,
                  "lng" : 76.9236506
               }
            }
         },
         "types" : [ "route" ]
      },
      {
         "address_components" : [
            {
               "long_name" : "Jail Road",
               "short_name" : "Jail Road",
               "types" : [ "route" ]
            },
            {
               "long_name" : "Siālkot",
               "short_name" : "Siālkot",
               "types" : [ "locality", "political" ]
            },
            {
               "long_name" : "Sialkot District",
               "short_name" : "Sialkot District",
               "types" : [ "administrative_area_level_2", "political" ]
            },
            {
               "long_name" : "Punjab",
               "short_name" : "Punjab",
               "types" : [ "administrative_area_level_1", "political" ]
            },
            {
               "long_name" : "Pakistan",
               "short_name" : "PK",
               "types" : [ "country", "political" ]
            }
         ],
         "formatted_address" : "Jail Road, Siālkot, Pakistan",
         "geometry" : {
            "bounds" : {
               "northeast" : {
                  "lat" : 32.5124345,
                  "lng" : 74.5341468
               },
               "southwest" : {
                  "lat" : 32.5054684,
                  "lng" : 74.52298549999999
               }
            },
            "location" : {
               "lat" : 32.5089135,
               "lng" : 74.52853019999999
            },
            "location_type" : "GEOMETRIC_CENTER",
            "viewport" : {
               "northeast" : {
                  "lat" : 32.5124345,
                  "lng" : 74.5341468
               },
               "southwest" : {
                  "lat" : 32.5054684,
                  "lng" : 74.52298549999999
               }
            }
         },
         "types" : [ "route" ]
      },
      {
         "address_components" : [
            {
               "long_name" : "Jail Road",
               "short_name" : "Jail Rd",
               "types" : [ "route" ]
            },
            {
               "long_name" : "Dharmanagar",
               "short_name" : "Dharmanagar",
               "types" : [ "locality", "political" ]
            },
            {
               "long_name" : "North Tripura",
               "short_name" : "North Tripura",
               "types" : [ "administrative_area_level_2", "political" ]
            },
            {
               "long_name" : "Tripura",
               "short_name" : "TR",
               "types" : [ "administrative_area_level_1", "political" ]
            },
            {
               "long_name" : "India",
               "short_name" : "IN",
               "types" : [ "country", "political" ]
            }
         ],
         "formatted_address" : "Jail Road, Dharmanagar, Tripura, India",
         "geometry" : {
            "bounds" : {
               "northeast" : {
                  "lat" : 24.3749924,
                  "lng" : 92.158767
               },
               "southwest" : {
                  "lat" : 24.3654743,
                  "lng" : 92.14651619999999
               }
            },
            "location" : {
               "lat" : 24.3719281,
               "lng" : 92.15169089999999
            },
            "location_type" : "GEOMETRIC_CENTER",
            "viewport" : {
               "northeast" : {
                  "lat" : 24.3749924,
                  "lng" : 92.158767
               },
               "southwest" : {
                  "lat" : 24.3654743,
                  "lng" : 92.14651619999999
               }
            }
         },
         "types" : [ "route" ]
      },
      {
         "address_components" : [
            {
               "long_name" : "Jail Road",
               "short_name" : "Jail Road",
               "types" : [ "route" ]
            },
            {
               "long_name" : "Shahpur Saddar",
               "short_name" : "Shahpur Saddar",
               "types" : [ "locality", "political" ]
            },
            {
               "long_name" : "Sargodha",
               "short_name" : "Sargodha",
               "types" : [ "administrative_area_level_2", "political" ]
            },
            {
               "long_name" : "Punjab",
               "short_name" : "Punjab",
               "types" : [ "administrative_area_level_1", "political" ]
            },
            {
               "long_name" : "Pakistan",
               "short_name" : "PK",
               "types" : [ "country", "political" ]
            }
         ],
         "formatted_address" : "Jail Road, Shahpur Saddar, Pakistan",
         "geometry" : {
            "bounds" : {
               "northeast" : {
                  "lat" : 32.2738795,
                  "lng" : 72.47698969999999
               },
               "southwest" : {
                  "lat" : 32.2638867,
                  "lng" : 72.472904
               }
            },
            "location" : {
               "lat" : 32.2688954,
               "lng" : 72.4733561
            },
            "location_type" : "GEOMETRIC_CENTER",
            "viewport" : {
               "northeast" : {
                  "lat" : 32.2738795,
                  "lng" : 72.47698969999999
               },
               "southwest" : {
                  "lat" : 32.2638867,
                  "lng" : 72.472904
               }
            }
         },
         "types" : [ "route" ]
      },
      {
         "address_components" : [
            {
               "long_name" : "Jail Road",
               "short_name" : "Jail Rd",
               "types" : [ "route" ]
            },
            {
               "long_name" : "New Delhi",
               "short_name" : "New Delhi",
               "types" : [ "locality", "political" ]
            },
            {
               "long_name" : "Delhi",
               "short_name" : "DL",
               "types" : [ "administrative_area_level_1", "political" ]
            },
            {
               "long_name" : "India",
               "short_name" : "IN",
               "types" : [ "country", "political" ]
            }
         ],
         "formatted_address" : "Jail Road, New Delhi, Delhi, India",
         "geometry" : {
            "bounds" : {
               "northeast" : {
                  "lat" : 28.6361331,
                  "lng" : 77.12111709999999
               },
               "southwest" : {
                  "lat" : 28.6075231,
                  "lng" : 77.0965741
               }
            },
            "location" : {
               "lat" : 28.6193992,
               "lng" : 77.10443410000001
            },
            "location_type" : "GEOMETRIC_CENTER",
            "viewport" : {
               "northeast" : {
                  "lat" : 28.6361331,
                  "lng" : 77.12111709999999
               },
               "southwest" : {
                  "lat" : 28.6075231,
                  "lng" : 77.0965741
               }
            }
         },
         "types" : [ "route" ]
      },
      {
         "address_components" : [
            {
               "long_name" : "Jail Road",
               "short_name" : "Jail Rd",
               "types" : [ "route" ]
            },
            {
               "long_name" : "Arrah",
               "short_name" : "Ara",
               "types" : [ "locality", "political" ]
            },
            {
               "long_name" : "Bhojpur",
               "short_name" : "Bhojpur",
               "types" : [ "administrative_area_level_2", "political" ]
            },
            {
               "long_name" : "Bihar",
               "short_name" : "BR",
               "types" : [ "administrative_area_level_1", "political" ]
            },
            {
               "long_name" : "India",
               "short_name" : "IN",
               "types" : [ "country", "political" ]
            },
            {
               "long_name" : "802301",
               "short_name" : "802301",
               "types" : [ "postal_code" ]
            }
         ],
         "formatted_address" : "Jail Road, Arrah, Bihar 802301, India",
         "geometry" : {
            "bounds" : {
               "northeast" : {
                  "lat" : 25.5648148,
                  "lng" : 84.672528
               },
               "southwest" : {
                  "lat" : 25.5591351,
                  "lng" : 84.67180569999999
               }
            },
            "location" : {
               "lat" : 25.5619625,
               "lng" : 84.67248669999999
            },
            "location_type" : "GEOMETRIC_CENTER",
            "viewport" : {
               "northeast" : {
                  "lat" : 25.5648148,
                  "lng" : 84.67351583029151
               },
               "southwest" : {
                  "lat" : 25.5591351,
                  "lng" : 84.67081786970849
               }
            }
         },
         "types" : [ "route" ]
      },
      {
         "address_components" : [
            {
               "long_name" : "Jail Road",
               "short_name" : "Jail Rd",
               "types" : [ "route" ]
            },
            {
               "long_name" : "Sadar Bazar",
               "short_name" : "Sadar Bazar",
               "types" : [ "sublocality_level_1", "sublocality", "political" ]
            },
            {
               "long_name" : "Shahjahanpur",
               "short_name" : "Shahjahanpur",
               "types" : [ "locality", "political" ]
            },
            {
               "long_name" : "Shahjahanpur",
               "short_name" : "Shahjahanpur",
               "types" : [ "administrative_area_level_2", "political" ]
            },
            {
               "long_name" : "Uttar Pradesh",
               "short_name" : "UP",
               "types" : [ "administrative_area_level_1", "political" ]
            },
            {
               "long_name" : "India",
               "short_name" : "IN",
               "types" : [ "country", "political" ]
            },
            {
               "long_name" : "242001",
               "short_name" : "242001",
               "types" : [ "postal_code" ]
            }
         ],
         "formatted_address" : "Jail Road, Sadar Bazar, Shahjahanpur, Uttar Pradesh 242001, India",
         "geometry" : {
            "bounds" : {
               "northeast" : {
                  "lat" : 27.8866305,
                  "lng" : 79.91842249999999
               },
               "southwest" : {
                  "lat" : 27.8795061,
                  "lng" : 79.9153592
               }
            },
            "location" : {
               "lat" : 27.8837959,
               "lng" : 79.9171882
            },
            "location_type" : "GEOMETRIC_CENTER",
            "viewport" : {
               "northeast" : {
                  "lat" : 27.8866305,
                  "lng" : 79.91842249999999
               },
               "southwest" : {
                  "lat" : 27.8795061,
                  "lng" : 79.9153592
               }
            }
         },
         "types" : [ "route" ]
      },
      {
         "address_components" : [
            {
               "long_name" : "Jail Road",
               "short_name" : "Jail Rd",
               "types" : [ "route" ]
            },
            {
               "long_name" : "Athens",
               "short_name" : "Athens",
               "types" : [ "locality", "political" ]
            },
            {
               "long_name" : "Clarke County",
               "short_name" : "Clarke County",
               "types" : [ "administrative_area_level_2", "political" ]
            },
            {
               "long_name" : "Georgia",
               "short_name" : "GA",
               "types" : [ "administrative_area_level_1", "political" ]
            },
            {
               "long_name" : "United States",
               "short_name" : "US",
               "types" : [ "country", "political" ]
            },
            {
               "long_name" : "30605",
               "short_name" : "30605",
               "types" : [ "postal_code" ]
            }
         ],
         "formatted_address" : "Jail Road, Athens, GA 30605, USA",
         "geometry" : {
            "bounds" : {
               "northeast" : {
                  "lat" : 33.9455739,
                  "lng" : -83.32668679999999
               },
               "southwest" : {
                  "lat" : 33.9415244,
                  "lng" : -83.3276966
               }
            },
            "location" : {
               "lat" : 33.94385949999999,
               "lng" : -83.326723
            },
            "location_type" : "GEOMETRIC_CENTER",
            "viewport" : {
               "northeast" : {
                  "lat" : 33.9455739,
                  "lng" : -83.32584271970849
               },
               "southwest" : {
                  "lat" : 33.9415244,
                  "lng" : -83.3285406802915
               }
            }
         },
         "types" : [ "route" ]
      },
      {
         "address_components" : [
            {
               "long_name" : "Jail Road",
               "short_name" : "Jail Rd",
               "types" : [ "route" ]
            },
            {
               "long_name" : "Division No. 2",
               "short_name" : "Division No. 2",
               "types" : [ "administrative_area_level_2", "political" ]
            },
            {
               "long_name" : "Alberta",
               "short_name" : "AB",
               "types" : [ "administrative_area_level_1", "political" ]
            },
            {
               "long_name" : "Canada",
               "short_name" : "CA",
               "types" : [ "country", "political" ]
            }
         ],
         "formatted_address" : "Jail Road, Alberta, Canada",
         "geometry" : {
            "bounds" : {
               "northeast" : {
                  "lat" : 49.69819709999999,
                  "lng" : -112.711143
               },
               "southwest" : {
                  "lat" : 49.6979601,
                  "lng" : -112.7790081
               }
            },
            "location" : {
               "lat" : 49.6980639,
               "lng" : -112.7449849
            },
            "location_type" : "GEOMETRIC_CENTER",
            "viewport" : {
               "northeast" : {
                  "lat" : 49.69942758029149,
                  "lng" : -112.711143
               },
               "southwest" : {
                  "lat" : 49.6967296197085,
                  "lng" : -112.7790081
               }
            }
         },
         "types" : [ "route" ]
      },
      {
         "address_components" : [
            {
               "long_name" : "Jail Road",
               "short_name" : "Jail Rd",
               "types" : [ "route" ]
            },
            {
               "long_name" : "Campbellsville",
               "short_name" : "Campbellsville",
               "types" : [ "locality", "political" ]
            },
            {
               "long_name" : "Taylor County",
               "short_name" : "Taylor County",
               "types" : [ "administrative_area_level_2", "political" ]
            },
            {
               "long_name" : "Kentucky",
               "short_name" : "KY",
               "types" : [ "administrative_area_level_1", "political" ]
            },
            {
               "long_name" : "United States",
               "short_name" : "US",
               "types" : [ "country", "political" ]
            },
            {
               "long_name" : "42718",
               "short_name" : "42718",
               "types" : [ "postal_code" ]
            }
         ],
         "formatted_address" : "Jail Road, Campbellsville, KY 42718, USA",
         "geometry" : {
            "bounds" : {
               "northeast" : {
                  "lat" : 37.3532477,
                  "lng" : -85.3511889
               },
               "southwest" : {
                  "lat" : 37.3526773,
                  "lng" : -85.3561685
               }
            },
            "location" : {
               "lat" : 37.3529166,
               "lng" : -85.3535115
            },
            "location_type" : "GEOMETRIC_CENTER",
            "viewport" : {
               "northeast" : {
                  "lat" : 37.3543114802915,
                  "lng" : -85.3511889
               },
               "southwest" : {
                  "lat" : 37.3516135197085,
                  "lng" : -85.3561685
               }
            }
         },
         "types" : [ "route" ]
      },
      {
         "address_components" : [
            {
               "long_name" : "Jail Road",
               "short_name" : "Jail Road",
               "types" : [ "route" ]
            },
            {
               "long_name" : "Lahore",
               "short_name" : "Lahore",
               "types" : [ "locality", "political" ]
            },
            {
               "long_name" : "Lahore District",
               "short_name" : "Lahore District",
               "types" : [ "administrative_area_level_2", "political" ]
            },
            {
               "long_name" : "Punjab",
               "short_name" : "Punjab",
               "types" : [ "administrative_area_level_1", "political" ]
            },
            {
               "long_name" : "Pakistan",
               "short_name" : "PK",
               "types" : [ "country", "political" ]
            }
         ],
         "formatted_address" : "Jail Road, Lahore, Pakistan",
         "geometry" : {
            "bounds" : {
               "northeast" : {
                  "lat" : 31.5474275,
                  "lng" : 74.3562613
               },
               "southwest" : {
                  "lat" : 31.5306996,
                  "lng" : 74.31586589999999
               }
            },
            "location" : {
               "lat" : 31.5390645,
               "lng" : 74.3355292
            },
            "location_type" : "GEOMETRIC_CENTER",
            "viewport" : {
               "northeast" : {
                  "lat" : 31.5474275,
                  "lng" : 74.3562613
               },
               "southwest" : {
                  "lat" : 31.5306996,
                  "lng" : 74.31586589999999
               }
            }
         },
         "types" : [ "route" ]
      },
      {
         "address_components" : [
            {
               "long_name" : "Jail Road",
               "short_name" : "Jail Rd",
               "types" : [ "route" ]
            },
            {
               "long_name" : "Raebareli",
               "short_name" : "Raebareli",
               "types" : [ "locality", "political" ]
            },
            {
               "long_name" : "Rae Bareli",
               "short_name" : "Rae Bareli",
               "types" : [ "administrative_area_level_2", "political" ]
            },
            {
               "long_name" : "Uttar Pradesh",
               "short_name" : "UP",
               "types" : [ "administrative_area_level_1", "political" ]
            },
            {
               "long_name" : "India",
               "short_name" : "IN",
               "types" : [ "country", "political" ]
            },
            {
               "long_name" : "229001",
               "short_name" : "229001",
               "types" : [ "postal_code" ]
            }
         ],
         "formatted_address" : "Jail Road, Raebareli, Uttar Pradesh 229001, India",
         "geometry" : {
            "bounds" : {
               "northeast" : {
                  "lat" : 26.2208892,
                  "lng" : 81.2503778
               },
               "southwest" : {
                  "lat" : 26.2056565,
                  "lng" : 81.2339221
               }
            },
            "location" : {
               "lat" : 26.2123613,
               "lng" : 81.23993949999999
            },
            "location_type" : "GEOMETRIC_CENTER",
            "viewport" : {
               "northeast" : {
                  "lat" : 26.2208892,
                  "lng" : 81.2503778
               },
               "southwest" : {
                  "lat" : 26.2056565,
                  "lng" : 81.2339221
               }
            }
         },
         "types" : [ "route" ]
      },
      {
         "address_components" : [
            {
               "long_name" : "Jail Road",
               "short_name" : "Jail Rd",
               "types" : [ "route" ]
            },
            {
               "long_name" : "Vadodara",
               "short_name" : "Vadodara",
               "types" : [ "locality", "political" ]
            },
            {
               "long_name" : "Vadodara",
               "short_name" : "Vadodara",
               "types" : [ "administrative_area_level_2", "political" ]
            },
            {
               "long_name" : "Gujarat",
               "short_name" : "GJ",
               "types" : [ "administrative_area_level_1", "political" ]
            },
            {
               "long_name" : "India",
               "short_name" : "IN",
               "types" : [ "country", "political" ]
            },
            {
               "long_name" : "390001",
               "short_name" : "390001",
               "types" : [ "postal_code" ]
            }
         ],
         "formatted_address" : "Jail Road, Vadodara, Gujarat 390001, India",
         "geometry" : {
            "bounds" : {
               "northeast" : {
                  "lat" : 22.3080164,
                  "lng" : 73.19499019999999
               },
               "southwest" : {
                  "lat" : 22.3010878,
                  "lng" : 73.18874889999999
               }
            },
            "location" : {
               "lat" : 22.30318,
               "lng" : 73.19012579999999
            },
            "location_type" : "GEOMETRIC_CENTER",
            "viewport" : {
               "northeast" : {
                  "lat" : 22.3080164,
                  "lng" : 73.19499019999999
               },
               "southwest" : {
                  "lat" : 22.3010878,
                  "lng" : 73.18874889999999
               }
            }
         },
         "types" : [ "route" ]
      },
      {
         "address_components" : [
            {
               "long_name" : "Jail Road",
               "short_name" : "Jail Rd",
               "types" : [ "route" ]
            },
            {
               "long_name" : "Gaya",
               "short_name" : "Gaya",
               "types" : [ "locality", "political" ]
            },
            {
               "long_name" : "Gaya",
               "short_name" : "Gaya",
               "types" : [ "administrative_area_level_2", "political" ]
            },
            {
               "long_name" : "Bihar",
               "short_name" : "BR",
               "types" : [ "administrative_area_level_1", "political" ]
            },
            {
               "long_name" : "India",
               "short_name" : "IN",
               "types" : [ "country", "political" ]
            },
            {
               "long_name" : "823001",
               "short_name" : "823001",
               "types" : [ "postal_code" ]
            }
         ],
         "formatted_address" : "Jail Road, Gaya, Bihar 823001, India",
         "geometry" : {
            "bounds" : {
               "northeast" : {
                  "lat" : 24.7858491,
                  "lng" : 84.99472089999999
               },
               "southwest" : {
                  "lat" : 24.7773127,
                  "lng" : 84.97584429999999
               }
            },
            "location" : {
               "lat" : 24.7813538,
               "lng" : 84.9848432
            },
            "location_type" : "GEOMETRIC_CENTER",
            "viewport" : {
               "northeast" : {
                  "lat" : 24.7858491,
                  "lng" : 84.99472089999999
               },
               "southwest" : {
                  "lat" : 24.7773127,
                  "lng" : 84.97584429999999
               }
            }
         },
         "types" : [ "route" ]
      },
      {
         "address_components" : [
            {
               "long_name" : "Jail Road",
               "short_name" : "Jail Rd",
               "types" : [ "route" ]
            },
            {
               "long_name" : "Lucknow",
               "short_name" : "Lucknow",
               "types" : [ "locality", "political" ]
            },
            {
               "long_name" : "Lucknow",
               "short_name" : "Lucknow",
               "types" : [ "administrative_area_level_2", "political" ]
            },
            {
               "long_name" : "Uttar Pradesh",
               "short_name" : "UP",
               "types" : [ "administrative_area_level_1", "political" ]
            },
            {
               "long_name" : "India",
               "short_name" : "IN",
               "types" : [ "country", "political" ]
            }
         ],
         "formatted_address" : "Jail Road, Lucknow, Uttar Pradesh, India",
         "geometry" : {
            "bounds" : {
               "northeast" : {
                  "lat" : 26.8271227,
                  "lng" : 80.926239
               },
               "southwest" : {
                  "lat" : 26.777832,
                  "lng" : 80.9214779
               }
            },
            "location" : {
               "lat" : 26.8026432,
               "lng" : 80.92296229999999
            },
            "location_type" : "GEOMETRIC_CENTER",
            "viewport" : {
               "northeast" : {
                  "lat" : 26.8271227,
                  "lng" : 80.926239
               },
               "southwest" : {
                  "lat" : 26.777832,
                  "lng" : 80.9214779
               }
            }
         },
         "types" : [ "route" ]
      },
      {
         "address_components" : [
            {
               "long_name" : "Jail Road",
               "short_name" : "Jail Rd",
               "types" : [ "route" ]
            },
            {
               "long_name" : "Hardoi",
               "short_name" : "Hardoi",
               "types" : [ "locality", "political" ]
            },
            {
               "long_name" : "Hardoi",
               "short_name" : "Hardoi",
               "types" : [ "administrative_area_level_2", "political" ]
            },
            {
               "long_name" : "Uttar Pradesh",
               "short_name" : "UP",
               "types" : [ "administrative_area_level_1", "political" ]
            },
            {
               "long_name" : "India",
               "short_name" : "IN",
               "types" : [ "country", "political" ]
            },
            {
               "long_name" : "241001",
               "short_name" : "241001",
               "types" : [ "postal_code" ]
            }
         ],
         "formatted_address" : "Jail Road, Hardoi, Uttar Pradesh 241001, India",
         "geometry" : {
            "bounds" : {
               "northeast" : {
                  "lat" : 27.4008829,
                  "lng" : 80.1428002
               },
               "southwest" : {
                  "lat" : 27.3981454,
                  "lng" : 80.12582639999999
               }
            },
            "location" : {
               "lat" : 27.3995273,
               "lng" : 80.13436980000002
            },
            "location_type" : "GEOMETRIC_CENTER",
            "viewport" : {
               "northeast" : {
                  "lat" : 27.4008829,
                  "lng" : 80.1428002
               },
               "southwest" : {
                  "lat" : 27.3981454,
                  "lng" : 80.12582639999999
               }
            }
         },
         "types" : [ "route" ]
      },
      {
         "address_components" : [
            {
               "long_name" : "Jail Road",
               "short_name" : "Jail Rd",
               "types" : [ "route" ]
            },
            {
               "long_name" : "Gurdaspur",
               "short_name" : "Gurdaspur",
               "types" : [ "locality", "political" ]
            },
            {
               "long_name" : "Gurdaspur",
               "short_name" : "Gurdaspur",
               "types" : [ "administrative_area_level_2", "political" ]
            },
            {
               "long_name" : "Punjab",
               "short_name" : "PB",
               "types" : [ "administrative_area_level_1", "political" ]
            },
            {
               "long_name" : "India",
               "short_name" : "IN",
               "types" : [ "country", "political" ]
            },
            {
               "long_name" : "143521",
               "short_name" : "143521",
               "types" : [ "postal_code" ]
            }
         ],
         "formatted_address" : "Jail Road, Gurdaspur, Punjab 143521, India",
         "geometry" : {
            "bounds" : {
               "northeast" : {
                  "lat" : 32.0525744,
                  "lng" : 75.4118488
               },
               "southwest" : {
                  "lat" : 32.0414135,
                  "lng" : 75.4030992
               }
            },
            "location" : {
               "lat" : 32.0468859,
               "lng" : 75.4074064
            },
            "location_type" : "GEOMETRIC_CENTER",
            "viewport" : {
               "northeast" : {
                  "lat" : 32.0525744,
                  "lng" : 75.4118488
               },
               "southwest" : {
                  "lat" : 32.0414135,
                  "lng" : 75.4030992
               }
            }
         },
         "types" : [ "route" ]
      },
      {
         "address_components" : [
            {
               "long_name" : "Jail Road",
               "short_name" : "Jail Rd",
               "types" : [ "route" ]
            },
            {
               "long_name" : "Hyderabad",
               "short_name" : "Hyderabad",
               "types" : [ "locality", "political" ]
            },
            {
               "long_name" : "Hyderabad",
               "short_name" : "Hyderabad",
               "types" : [ "administrative_area_level_2", "political" ]
            },
            {
               "long_name" : "Sindh",
               "short_name" : "Sindh",
               "types" : [ "administrative_area_level_1", "political" ]
            },
            {
               "long_name" : "Pakistan",
               "short_name" : "PK",
               "types" : [ "country", "political" ]
            }
         ],
         "formatted_address" : "Jail Road, Hyderabad, Pakistan",
         "geometry" : {
            "bounds" : {
               "northeast" : {
                  "lat" : 25.4103721,
                  "lng" : 68.3684497
               },
               "southwest" : {
                  "lat" : 25.4000471,
                  "lng" : 68.3657295
               }
            },
            "location" : {
               "lat" : 25.4051792,
               "lng" : 68.36708229999999
            },
            "location_type" : "GEOMETRIC_CENTER",
            "viewport" : {
               "northeast" : {
                  "lat" : 25.4103721,
                  "lng" : 68.3684497
               },
               "southwest" : {
                  "lat" : 25.4000471,
                  "lng" : 68.3657295
               }
            }
         },
         "types" : [ "route" ]
      },
      {
         "address_components" : [
            {
               "long_name" : "Jail Road",
               "short_name" : "Jail Rd",
               "types" : [ "route" ]
            },
            {
               "long_name" : "Quetta",
               "short_name" : "Quetta",
               "types" : [ "locality", "political" ]
            },
            {
               "long_name" : "Quetta District",
               "short_name" : "Quetta District",
               "types" : [ "administrative_area_level_2", "political" ]
            },
            {
               "long_name" : "Balochistan",
               "short_name" : "Balochistan",
               "types" : [ "administrative_area_level_1", "political" ]
            },
            {
               "long_name" : "Pakistan",
               "short_name" : "PK",
               "types" : [ "country", "political" ]
            }
         ],
         "formatted_address" : "Jail Road, Quetta, Pakistan",
         "geometry" : {
            "bounds" : {
               "northeast" : {
                  "lat" : 30.2129258,
                  "lng" : 67.00035179999999
               },
               "southwest" : {
                  "lat" : 30.2019696,
                  "lng" : 66.9952617
               }
            },
            "location" : {
               "lat" : 30.2076703,
               "lng" : 66.99840349999999
            },
            "location_type" : "GEOMETRIC_CENTER",
            "viewport" : {
               "northeast" : {
                  "lat" : 30.2129258,
                  "lng" : 67.00035179999999
               },
               "southwest" : {
                  "lat" : 30.2019696,
                  "lng" : 66.9952617
               }
            }
         },
         "types" : [ "route" ]
      },
      {
         "address_components" : [
            {
               "long_name" : "Park Gate Road",
               "short_name" : "Park Gate Rd",
               "types" : [ "route" ]
            },
            {
               "long_name" : "ATT Colony",
               "short_name" : "ATT Colony",
               "types" : [ "sublocality_level_2", "sublocality", "political" ]
            },
            {
               "long_name" : "Coimbatore",
               "short_name" : "Coimbatore",
               "types" : [ "locality", "political" ]
            },
            {
               "long_name" : "Coimbatore",
               "short_name" : "Coimbatore",
               "types" : [ "administrative_area_level_2", "political" ]
            },
            {
               "long_name" : "Tamil Nadu",
               "short_name" : "TN",
               "types" : [ "administrative_area_level_1", "political" ]
            },
            {
               "long_name" : "India",
               "short_name" : "IN",
               "types" : [ "country", "political" ]
            },
            {
               "long_name" : "641018",
               "short_name" : "641018",
               "types" : [ "postal_code" ]
            }
         ],
         "formatted_address" : "Park Gate Road, ATT Colony, Coimbatore, Tamil Nadu 641018, India",
         "geometry" : {
            "bounds" : {
               "northeast" : {
                  "lat" : 11.0083108,
                  "lng" : 76.9724545
               },
               "southwest" : {
                  "lat" : 11.0038326,
                  "lng" : 76.96677939999999
               }
            },
            "location" : {
               "lat" : 11.0078758,
               "lng" : 76.96954479999999
            },
            "location_type" : "GEOMETRIC_CENTER",
            "viewport" : {
               "northeast" : {
                  "lat" : 11.0083108,
                  "lng" : 76.9724545
               },
               "southwest" : {
                  "lat" : 11.0038326,
                  "lng" : 76.96677939999999
               }
            }
         },
         "types" : [ "route" ]
      },
      {
         "address_components" : [
            {
               "long_name" : "Jail Road",
               "short_name" : "Jail Rd",
               "types" : [ "route" ]
            },
            {
               "long_name" : "India",
               "short_name" : "IN",
               "types" : [ "country", "political" ]
            }
         ],
         "formatted_address" : "Jail Road, India",
         "geometry" : {
            "bounds" : {
               "northeast" : {
                  "lat" : 30.7031047,
                  "lng" : 76.74545839999999
               },
               "southwest" : {
                  "lat" : 30.6847219,
                  "lng" : 76.7163729
               }
            },
            "location" : {
               "lat" : 30.6934797,
               "lng" : 76.7302344
            },
            "location_type" : "GEOMETRIC_CENTER",
            "viewport" : {
               "northeast" : {
                  "lat" : 30.7031047,
                  "lng" : 76.74545839999999
               },
               "southwest" : {
                  "lat" : 30.6847219,
                  "lng" : 76.7163729
               }
            }
         },
         "types" : [ "route" ]
      },
      {
         "address_components" : [
            {
               "long_name" : "Jail Road",
               "short_name" : "Jail Rd",
               "types" : [ "route" ]
            },
            {
               "long_name" : "Police Line",
               "short_name" : "Police Line",
               "types" : [ "sublocality_level_1", "sublocality", "political" ]
            },
            {
               "long_name" : "Lakhimpur",
               "short_name" : "Lakhimpur",
               "types" : [ "locality", "political" ]
            },
            {
               "long_name" : "Lakhimpur Kheri",
               "short_name" : "Lakhimpur Kheri",
               "types" : [ "administrative_area_level_2", "political" ]
            },
            {
               "long_name" : "Uttar Pradesh",
               "short_name" : "UP",
               "types" : [ "administrative_area_level_1", "political" ]
            },
            {
               "long_name" : "India",
               "short_name" : "IN",
               "types" : [ "country", "political" ]
            },
            {
               "long_name" : "262701",
               "short_name" : "262701",
               "types" : [ "postal_code" ]
            }
         ],
         "formatted_address" : "Jail Road, Police Line, Lakhimpur, Uttar Pradesh 262701, India",
         "geometry" : {
            "bounds" : {
               "northeast" : {
                  "lat" : 27.9505362,
                  "lng" : 80.78956840000001
               },
               "southwest" : {
                  "lat" : 27.9443445,
                  "lng" : 80.78414269999999
               }
            },
            "location" : {
               "lat" : 27.9475204,
               "lng" : 80.7867524
            },
            "location_type" : "GEOMETRIC_CENTER",
            "viewport" : {
               "northeast" : {
                  "lat" : 27.9505362,
                  "lng" : 80.78956840000001
               },
               "southwest" : {
                  "lat" : 27.9443445,
                  "lng" : 80.78414269999999
               }
            }
         },
         "types" : [ "route" ]
      },
      {
         "address_components" : [
            {
               "long_name" : "Jail Road",
               "short_name" : "Jail Rd",
               "types" : [ "route" ]
            },
            {
               "long_name" : "Bahawalpur",
               "short_name" : "BWP",
               "types" : [ "locality", "political" ]
            },
            {
               "long_name" : "Bahawalpur",
               "short_name" : "Bahawalpur",
               "types" : [ "administrative_area_level_2", "political" ]
            },
            {
               "long_name" : "Punjab",
               "short_name" : "Punjab",
               "types" : [ "administrative_area_level_1", "political" ]
            },
            {
               "long_name" : "Pakistan",
               "short_name" : "PK",
               "types" : [ "country", "political" ]
            }
         ],
         "formatted_address" : "Jail Road, Bahawalpur, Pakistan",
         "geometry" : {
            "bounds" : {
               "northeast" : {
                  "lat" : 29.4127035,
                  "lng" : 71.725595
               },
               "southwest" : {
                  "lat" : 29.4051938,
                  "lng" : 71.68135199999999
               }
            },
            "location" : {
               "lat" : 29.4069947,
               "lng" : 71.7047755
            },
            "location_type" : "GEOMETRIC_CENTER",
            "viewport" : {
               "northeast" : {
                  "lat" : 29.4127035,
                  "lng" : 71.725595
               },
               "southwest" : {
                  "lat" : 29.4051938,
                  "lng" : 71.68135199999999
               }
            }
         },
         "types" : [ "route" ]
      },
      {
         "address_components" : [
            {
               "long_name" : "Jail Road",
               "short_name" : "Jail Rd",
               "types" : [ "route" ]
            },
            {
               "long_name" : "Khairpur",
               "short_name" : "Khairpur",
               "types" : [ "locality", "political" ]
            },
            {
               "long_name" : "Khairpur District",
               "short_name" : "Khairpur District",
               "types" : [ "administrative_area_level_2", "political" ]
            },
            {
               "long_name" : "Sindh",
               "short_name" : "Sindh",
               "types" : [ "administrative_area_level_1", "political" ]
            },
            {
               "long_name" : "Pakistan",
               "short_name" : "PK",
               "types" : [ "country", "political" ]
            }
         ],
         "formatted_address" : "Jail Road, Khairpur, Pakistan",
         "geometry" : {
            "bounds" : {
               "northeast" : {
                  "lat" : 27.5651697,
                  "lng" : 68.79356349999999
               },
               "southwest" : {
                  "lat" : 27.5429204,
                  "lng" : 68.75708700000001
               }
            },
            "location" : {
               "lat" : 27.5534911,
               "lng" : 68.77442479999999
            },
            "location_type" : "GEOMETRIC_CENTER",
            "viewport" : {
               "northeast" : {
                  "lat" : 27.5651697,
                  "lng" : 68.79356349999999
               },
               "southwest" : {
                  "lat" : 27.5429204,
                  "lng" : 68.75708700000001
               }
            }
         },
         "types" : [ "route" ]
      },
      {
         "address_components" : [
            {
               "long_name" : "Jail - Allahabad Bank Road",
               "short_name" : "Jail - Allahabad Bank Rd",
               "types" : [ "route" ]
            },
            {
               "long_name" : "Jhansi",
               "short_name" : "Jhansi",
               "types" : [ "locality", "political" ]
            },
            {
               "long_name" : "Jhansi",
               "short_name" : "Jhansi",
               "types" : [ "administrative_area_level_2", "political" ]
            },
            {
               "long_name" : "Uttar Pradesh",
               "short_name" : "UP",
               "types" : [ "administrative_area_level_1", "political" ]
            },
            {
               "long_name" : "India",
               "short_name" : "IN",
               "types" : [ "country", "political" ]
            },
            {
               "long_name" : "284001",
               "short_name" : "284001",
               "types" : [ "postal_code" ]
            }
         ],
         "formatted_address" : "Jail - Allahabad Bank Road, Jhansi, Uttar Pradesh 284001, India",
         "geometry" : {
            "bounds" : {
               "northeast" : {
                  "lat" : 25.4467822,
                  "lng" : 78.582382
               },
               "southwest" : {
                  "lat" : 25.4389024,
                  "lng" : 78.56092749999999
               }
            },
            "location" : {
               "lat" : 25.4412074,
               "lng" : 78.5709402
            },
            "location_type" : "GEOMETRIC_CENTER",
            "viewport" : {
               "northeast" : {
                  "lat" : 25.4467822,
                  "lng" : 78.582382
               },
               "southwest" : {
                  "lat" : 25.4389024,
                  "lng" : 78.56092749999999
               }
            }
         },
         "types" : [ "route" ]
      },
      {
         "address_components" : [
            {
               "long_name" : "Mushtaq Baig Shaheed Road",
               "short_name" : "Mushtaq Baig Shaheed Road",
               "types" : [ "route" ]
            },
            {
               "long_name" : "Rawalpindi",
               "short_name" : "RWP",
               "types" : [ "locality", "political" ]
            },
            {
               "long_name" : "Rawalpindi",
               "short_name" : "Rawalpindi",
               "types" : [ "administrative_area_level_2", "political" ]
            },
            {
               "long_name" : "Punjab",
               "short_name" : "Punjab",
               "types" : [ "administrative_area_level_1", "political" ]
            },
            {
               "long_name" : "Pakistan",
               "short_name" : "PK",
               "types" : [ "country", "political" ]
            }
         ],
         "formatted_address" : "Mushtaq Baig Shaheed Road, Rawalpindi, Pakistan",
         "geometry" : {
            "bounds" : {
               "northeast" : {
                  "lat" : 33.5857999,
                  "lng" : 73.07002279999999
               },
               "southwest" : {
                  "lat" : 33.5756139,
                  "lng" : 73.069659
               }
            },
            "location" : {
               "lat" : 33.5808639,
               "lng" : 73.06977599999999
            },
            "location_type" : "GEOMETRIC_CENTER",
            "viewport" : {
               "northeast" : {
                  "lat" : 33.5857999,
                  "lng" : 73.0711898802915
               },
               "southwest" : {
                  "lat" : 33.5756139,
                  "lng" : 73.06849191970849
               }
            }
         },
         "types" : [ "route" ]
      }
   ],
   "status" : "OK"
}
