{
   "results" : [
      {
         "address_components" : [
            {
               "long_name" : "Lajpat Rai Marg",
               "short_name" : "Lajpat Rai Marg",
               "types" : [ "route" ]
            },
            {
               "long_name" : "Subhash Nagar",
               "short_name" : "Subhash Nagar",
               "types" : [ "sublocality_level_1", "sublocality", "political" ]
            },
            {
               "long_name" : "Dehradun",
               "short_name" : "Dehradun",
               "types" : [ "locality", "political" ]
            },
            {
               "long_name" : "Dehradun",
               "short_name" : "Dehradun",
               "types" : [ "administrative_area_level_2", "political" ]
            },
            {
               "long_name" : "Uttarakhand",
               "short_name" : "UT",
               "types" : [ "administrative_area_level_1", "political" ]
            },
            {
               "long_name" : "India",
               "short_name" : "IN",
               "types" : [ "country", "political" ]
            },
            {
               "long_name" : "248002",
               "short_name" : "248002",
               "types" : [ "postal_code" ]
            }
         ],
         "formatted_address" : "Lajpat Rai Marg, Subhash Nagar, Dehradun, Uttarakhand 248002, India",
         "geometry" : {
            "bounds" : {
               "northeast" : {
                  "lat" : 30.2759143,
                  "lng" : 77.99359939999999
               },
               "southwest" : {
                  "lat" : 30.2716809,
                  "lng" : 77.9903013
               }
            },
            "location" : {
               "lat" : 30.2737609,
               "lng" : 77.9919137
            },
            "location_type" : "GEOMETRIC_CENTER",
            "viewport" : {
               "northeast" : {
                  "lat" : 30.2759143,
                  "lng" : 77.99359939999999
               },
               "southwest" : {
                  "lat" : 30.2716809,
                  "lng" : 77.9903013
               }
            }
         },
         "partial_match" : true,
         "types" : [ "route" ]
      },
      {
         "address_components" : [
            {
               "long_name" : "Lajpat Rai Road",
               "short_name" : "Lajpat Rai Rd",
               "types" : [ "route" ]
            },
            {
               "long_name" : "Jamshed Quarters",
               "short_name" : "Jamshed Quarters",
               "types" : [ "neighborhood", "political" ]
            },
            {
               "long_name" : "Jamshed Town",
               "short_name" : "Jamshed Town",
               "types" : [ "sublocality_level_1", "sublocality", "political" ]
            },
            {
               "long_name" : "Karachi",
               "short_name" : "Karachi",
               "types" : [ "locality", "political" ]
            },
            {
               "long_name" : "Karachi District",
               "short_name" : "Karachi District",
               "types" : [ "administrative_area_level_2", "political" ]
            },
            {
               "long_name" : "Sindh",
               "short_name" : "Sindh",
               "types" : [ "administrative_area_level_1", "political" ]
            },
            {
               "long_name" : "Pakistan",
               "short_name" : "PK",
               "types" : [ "country", "political" ]
            }
         ],
         "formatted_address" : "Lajpat Rai Road, Karachi, Pakistan",
         "geometry" : {
            "bounds" : {
               "northeast" : {
                  "lat" : 24.8835916,
                  "lng" : 67.0451338
               },
               "southwest" : {
                  "lat" : 24.8823567,
                  "lng" : 67.0441601
               }
            },
            "location" : {
               "lat" : 24.8829472,
               "lng" : 67.0446869
            },
            "location_type" : "GEOMETRIC_CENTER",
            "viewport" : {
               "northeast" : {
                  "lat" : 24.8843231302915,
                  "lng" : 67.04599593029151
               },
               "southwest" : {
                  "lat" : 24.8816251697085,
                  "lng" : 67.0432979697085
               }
            }
         },
         "partial_match" : true,
         "types" : [ "route" ]
      },
      {
         "address_components" : [
            {
               "long_name" : "Lajpat Rai Road",
               "short_name" : "Lajpat Rai Rd",
               "types" : [ "route" ]
            },
            {
               "long_name" : "Salori",
               "short_name" : "Salori",
               "types" : [ "neighborhood", "political" ]
            },
            {
               "long_name" : "Govindpur",
               "short_name" : "Govindpur",
               "types" : [ "sublocality_level_2", "sublocality", "political" ]
            },
            {
               "long_name" : "Teliarganj",
               "short_name" : "Teliarganj",
               "types" : [ "sublocality_level_1", "sublocality", "political" ]
            },
            {
               "long_name" : "Allahabad",
               "short_name" : "Allahabad",
               "types" : [ "locality", "political" ]
            },
            {
               "long_name" : "Allahabad",
               "short_name" : "Allahabad",
               "types" : [ "administrative_area_level_2", "political" ]
            },
            {
               "long_name" : "Uttar Pradesh",
               "short_name" : "UP",
               "types" : [ "administrative_area_level_1", "political" ]
            },
            {
               "long_name" : "India",
               "short_name" : "IN",
               "types" : [ "country", "political" ]
            },
            {
               "long_name" : "211002",
               "short_name" : "211002",
               "types" : [ "postal_code" ]
            }
         ],
         "formatted_address" : "Lajpat Rai Road, Salori, Govindpur, Teliarganj, Allahabad, Uttar Pradesh 211002, India",
         "geometry" : {
            "bounds" : {
               "northeast" : {
                  "lat" : 25.4853285,
                  "lng" : 81.8759725
               },
               "southwest" : {
                  "lat" : 25.4842514,
                  "lng" : 81.87586349999999
               }
            },
            "location" : {
               "lat" : 25.4847833,
               "lng" : 81.8759328
            },
            "location_type" : "GEOMETRIC_CENTER",
            "viewport" : {
               "northeast" : {
                  "lat" : 25.4861389302915,
                  "lng" : 81.87726698029151
               },
               "southwest" : {
                  "lat" : 25.48344096970849,
                  "lng" : 81.87456901970849
               }
            }
         },
         "partial_match" : true,
         "types" : [ "route" ]
      },
      {
         "address_components" : [
            {
               "long_name" : "Lajpat Rai Market",
               "short_name" : "Lajpat Rai Market",
               "types" : [ "sublocality_level_2", "sublocality", "political" ]
            },
            {
               "long_name" : "Chandni Chowk",
               "short_name" : "Chandni Chowk",
               "types" : [ "sublocality_level_1", "sublocality", "political" ]
            },
            {
               "long_name" : "New Delhi",
               "short_name" : "New Delhi",
               "types" : [ "locality", "political" ]
            },
            {
               "long_name" : "North Delhi",
               "short_name" : "North Delhi",
               "types" : [ "administrative_area_level_2", "political" ]
            },
            {
               "long_name" : "Delhi",
               "short_name" : "DL",
               "types" : [ "administrative_area_level_1", "political" ]
            },
            {
               "long_name" : "India",
               "short_name" : "IN",
               "types" : [ "country", "political" ]
            },
            {
               "long_name" : "110006",
               "short_name" : "110006",
               "types" : [ "postal_code" ]
            }
         ],
         "formatted_address" : "Lajpat Rai Market, Chandni Chowk, New Delhi, Delhi 110006, India",
         "geometry" : {
            "bounds" : {
               "northeast" : {
                  "lat" : 28.658777,
                  "lng" : 77.23680709999999
               },
               "southwest" : {
                  "lat" : 28.65599589999999,
                  "lng" : 77.23512699999999
               }
            },
            "location" : {
               "lat" : 28.6577391,
               "lng" : 77.2358452
            },
            "location_type" : "APPROXIMATE",
            "viewport" : {
               "northeast" : {
                  "lat" : 28.658777,
                  "lng" : 77.23731603029151
               },
               "southwest" : {
                  "lat" : 28.65599589999999,
                  "lng" : 77.23461806970849
               }
            }
         },
         "partial_match" : true,
         "types" : [ "sublocality_level_2", "sublocality", "political" ]
      },
      {
         "address_components" : [
            {
               "long_name" : "Lala Lajpat Rai Marg",
               "short_name" : "Lala Lajpat Rai Marg",
               "types" : [ "route" ]
            },
            {
               "long_name" : "Ahmedabad",
               "short_name" : "Ahmedabad",
               "types" : [ "locality", "political" ]
            },
            {
               "long_name" : "Gujarat",
               "short_name" : "GJ",
               "types" : [ "administrative_area_level_1", "political" ]
            },
            {
               "long_name" : "India",
               "short_name" : "IN",
               "types" : [ "country", "political" ]
            }
         ],
         "formatted_address" : "Lala Lajpat Rai Marg, Ahmedabad, Gujarat, India",
         "geometry" : {
            "bounds" : {
               "northeast" : {
                  "lat" : 23.0020927,
                  "lng" : 76.05023899999999
               },
               "southwest" : {
                  "lat" : 22.9632666,
                  "lng" : 72.5993587
               }
            },
            "location" : {
               "lat" : 22.9983764,
               "lng" : 72.611305
            },
            "location_type" : "GEOMETRIC_CENTER",
            "viewport" : {
               "northeast" : {
                  "lat" : 23.0020927,
                  "lng" : 76.05023899999999
               },
               "southwest" : {
                  "lat" : 22.9632666,
                  "lng" : 72.5993587
               }
            }
         },
         "partial_match" : true,
         "types" : [ "route" ]
      },
      {
         "address_components" : [
            {
               "long_name" : "Lala Lajpat Rai Road",
               "short_name" : "Lala Lajpat Rai Rd",
               "types" : [ "route" ]
            },
            {
               "long_name" : "New Delhi",
               "short_name" : "New Delhi",
               "types" : [ "locality", "political" ]
            },
            {
               "long_name" : "India",
               "short_name" : "IN",
               "types" : [ "country", "political" ]
            }
         ],
         "formatted_address" : "Lala Lajpat Rai Road, New Delhi, India",
         "geometry" : {
            "bounds" : {
               "northeast" : {
                  "lat" : 28.5973147,
                  "lng" : 77.251266
               },
               "southwest" : {
                  "lat" : 28.5459019,
                  "lng" : 77.23126400000001
               }
            },
            "location" : {
               "lat" : 28.5735848,
               "lng" : 77.2380672
            },
            "location_type" : "GEOMETRIC_CENTER",
            "viewport" : {
               "northeast" : {
                  "lat" : 28.5973147,
                  "lng" : 77.251266
               },
               "southwest" : {
                  "lat" : 28.5459019,
                  "lng" : 77.23126400000001
               }
            }
         },
         "partial_match" : true,
         "types" : [ "route" ]
      },
      {
         "address_components" : [
            {
               "long_name" : "Lajpat Rai Marg",
               "short_name" : "Lajpat Rai Marg",
               "types" : [ "route" ]
            },
            {
               "long_name" : "Vallabh Nagar",
               "short_name" : "Vallabh Nagar",
               "types" : [ "sublocality_level_2", "sublocality", "political" ]
            },
            {
               "long_name" : "Gumanpura",
               "short_name" : "Gumanpura",
               "types" : [ "sublocality_level_1", "sublocality", "political" ]
            },
            {
               "long_name" : "Kota",
               "short_name" : "Kota",
               "types" : [ "locality", "political" ]
            },
            {
               "long_name" : "Kota",
               "short_name" : "Kota",
               "types" : [ "administrative_area_level_2", "political" ]
            },
            {
               "long_name" : "Rajasthan",
               "short_name" : "RJ",
               "types" : [ "administrative_area_level_1", "political" ]
            },
            {
               "long_name" : "India",
               "short_name" : "IN",
               "types" : [ "country", "political" ]
            },
            {
               "long_name" : "324006",
               "short_name" : "324006",
               "types" : [ "postal_code" ]
            }
         ],
         "formatted_address" : "Lajpat Rai Marg, Vallabh Nagar, Gumanpura, Kota, Rajasthan 324006, India",
         "geometry" : {
            "location" : {
               "lat" : 25.168198,
               "lng" : 75.848806
            },
            "location_type" : "GEOMETRIC_CENTER",
            "viewport" : {
               "northeast" : {
                  "lat" : 25.1695469802915,
                  "lng" : 75.85015498029151
               },
               "southwest" : {
                  "lat" : 25.1668490197085,
                  "lng" : 75.8474570197085
               }
            }
         },
         "partial_match" : true,
         "types" : [ "route" ]
      },
      {
         "address_components" : [
            {
               "long_name" : "Lajpat Rai Marg",
               "short_name" : "Lajpat Rai Marg",
               "types" : [ "route" ]
            },
            {
               "long_name" : "Ramchandrapura",
               "short_name" : "Ramchandrapura",
               "types" : [ "sublocality_level_2", "sublocality", "political" ]
            },
            {
               "long_name" : "Gumanpura",
               "short_name" : "Gumanpura",
               "types" : [ "sublocality_level_1", "sublocality", "political" ]
            },
            {
               "long_name" : "Kota",
               "short_name" : "Kota",
               "types" : [ "locality", "political" ]
            },
            {
               "long_name" : "Kota",
               "short_name" : "Kota",
               "types" : [ "administrative_area_level_2", "political" ]
            },
            {
               "long_name" : "Rajasthan",
               "short_name" : "RJ",
               "types" : [ "administrative_area_level_1", "political" ]
            },
            {
               "long_name" : "India",
               "short_name" : "IN",
               "types" : [ "country", "political" ]
            },
            {
               "long_name" : "324006",
               "short_name" : "324006",
               "types" : [ "postal_code" ]
            }
         ],
         "formatted_address" : "Lajpat Rai Marg, Ramchandrapura, Gumanpura, Kota, Rajasthan 324006, India",
         "geometry" : {
            "location" : {
               "lat" : 25.1718322,
               "lng" : 75.8492088
            },
            "location_type" : "GEOMETRIC_CENTER",
            "viewport" : {
               "northeast" : {
                  "lat" : 25.1731811802915,
                  "lng" : 75.8505577802915
               },
               "southwest" : {
                  "lat" : 25.17048321970849,
                  "lng" : 75.84785981970849
               }
            }
         },
         "partial_match" : true,
         "types" : [ "route" ]
      },
      {
         "address_components" : [
            {
               "long_name" : "Lala Lajpat Rai Marg",
               "short_name" : "Lala Lajpat Rai Marg",
               "types" : [ "route" ]
            },
            {
               "long_name" : "Lajpat Nagar IV",
               "short_name" : "Lajpat Nagar IV",
               "types" : [ "sublocality_level_2", "sublocality", "political" ]
            },
            {
               "long_name" : "Lajpat Nagar",
               "short_name" : "Lajpat Nagar",
               "types" : [ "sublocality_level_1", "sublocality", "political" ]
            },
            {
               "long_name" : "New Delhi",
               "short_name" : "New Delhi",
               "types" : [ "locality", "political" ]
            },
            {
               "long_name" : "South Delhi",
               "short_name" : "South Delhi",
               "types" : [ "administrative_area_level_2", "political" ]
            },
            {
               "long_name" : "Delhi",
               "short_name" : "DL",
               "types" : [ "administrative_area_level_1", "political" ]
            },
            {
               "long_name" : "India",
               "short_name" : "IN",
               "types" : [ "country", "political" ]
            },
            {
               "long_name" : "110024",
               "short_name" : "110024",
               "types" : [ "postal_code" ]
            }
         ],
         "formatted_address" : "Lala Lajpat Rai Marg, Lajpat Nagar IV, Lajpat Nagar, New Delhi, Delhi 110024, India",
         "geometry" : {
            "bounds" : {
               "northeast" : {
                  "lat" : 28.5653254,
                  "lng" : 77.2500416
               },
               "southwest" : {
                  "lat" : 28.5633503,
                  "lng" : 77.233825
               }
            },
            "location" : {
               "lat" : 28.5646744,
               "lng" : 77.24073629999999
            },
            "location_type" : "GEOMETRIC_CENTER",
            "viewport" : {
               "northeast" : {
                  "lat" : 28.5656868302915,
                  "lng" : 77.2500416
               },
               "southwest" : {
                  "lat" : 28.56298886970849,
                  "lng" : 77.233825
               }
            }
         },
         "partial_match" : true,
         "types" : [ "route" ]
      },
      {
         "address_components" : [
            {
               "long_name" : "Lala Lajpat Rai Marg",
               "short_name" : "Lala Lajpat Rai Marg",
               "types" : [ "route" ]
            },
            {
               "long_name" : "Gumanpura",
               "short_name" : "Gumanpura",
               "types" : [ "sublocality_level_1", "sublocality", "political" ]
            },
            {
               "long_name" : "Kota",
               "short_name" : "Kota",
               "types" : [ "locality", "political" ]
            },
            {
               "long_name" : "Kota",
               "short_name" : "Kota",
               "types" : [ "administrative_area_level_2", "political" ]
            },
            {
               "long_name" : "Rajasthan",
               "short_name" : "RJ",
               "types" : [ "administrative_area_level_1", "political" ]
            },
            {
               "long_name" : "India",
               "short_name" : "IN",
               "types" : [ "country", "political" ]
            }
         ],
         "formatted_address" : "Lala Lajpat Rai Marg, Gumanpura, Kota, Rajasthan, India",
         "geometry" : {
            "bounds" : {
               "northeast" : {
                  "lat" : 25.1726119,
                  "lng" : 75.85170909999999
               },
               "southwest" : {
                  "lat" : 25.1678638,
                  "lng" : 75.84948489999999
               }
            },
            "location" : {
               "lat" : 25.1703681,
               "lng" : 75.85040049999999
            },
            "location_type" : "GEOMETRIC_CENTER",
            "viewport" : {
               "northeast" : {
                  "lat" : 25.1726119,
                  "lng" : 75.85194598029149
               },
               "southwest" : {
                  "lat" : 25.1678638,
                  "lng" : 75.84924801970848
               }
            }
         },
         "partial_match" : true,
         "types" : [ "route" ]
      },
      {
         "address_components" : [
            {
               "long_name" : "Lala Lajpat Rai Marg",
               "short_name" : "Lala Lajpat Rai Marg",
               "types" : [ "route" ]
            },
            {
               "long_name" : "Allahabad",
               "short_name" : "Allahabad",
               "types" : [ "locality", "political" ]
            },
            {
               "long_name" : "Allahabad",
               "short_name" : "Allahabad",
               "types" : [ "administrative_area_level_2", "political" ]
            },
            {
               "long_name" : "Uttar Pradesh",
               "short_name" : "UP",
               "types" : [ "administrative_area_level_1", "political" ]
            },
            {
               "long_name" : "India",
               "short_name" : "IN",
               "types" : [ "country", "political" ]
            },
            {
               "long_name" : "211002",
               "short_name" : "211002",
               "types" : [ "postal_code" ]
            }
         ],
         "formatted_address" : "Lala Lajpat Rai Marg, Allahabad, Uttar Pradesh 211002, India",
         "geometry" : {
            "bounds" : {
               "northeast" : {
                  "lat" : 25.4743751,
                  "lng" : 81.85766409999999
               },
               "southwest" : {
                  "lat" : 25.4734544,
                  "lng" : 81.8481089
               }
            },
            "location" : {
               "lat" : 25.474233,
               "lng" : 81.8534049
            },
            "location_type" : "GEOMETRIC_CENTER",
            "viewport" : {
               "northeast" : {
                  "lat" : 25.4752637302915,
                  "lng" : 81.85766409999999
               },
               "southwest" : {
                  "lat" : 25.4725657697085,
                  "lng" : 81.8481089
               }
            }
         },
         "partial_match" : true,
         "types" : [ "route" ]
      },
      {
         "address_components" : [
            {
               "long_name" : "Lala Lajpat Rai Road",
               "short_name" : "Lala Lajpat Rai Rd",
               "types" : [ "route" ]
            },
            {
               "long_name" : "Agra",
               "short_name" : "Agra",
               "types" : [ "locality", "political" ]
            },
            {
               "long_name" : "Agra",
               "short_name" : "Agra",
               "types" : [ "administrative_area_level_2", "political" ]
            },
            {
               "long_name" : "Uttar Pradesh",
               "short_name" : "UP",
               "types" : [ "administrative_area_level_1", "political" ]
            },
            {
               "long_name" : "India",
               "short_name" : "IN",
               "types" : [ "country", "political" ]
            },
            {
               "long_name" : "282002",
               "short_name" : "282002",
               "types" : [ "postal_code" ]
            }
         ],
         "formatted_address" : "Lala Lajpat Rai Road, Agra, Uttar Pradesh 282002, India",
         "geometry" : {
            "bounds" : {
               "northeast" : {
                  "lat" : 27.2034917,
                  "lng" : 78.0031429
               },
               "southwest" : {
                  "lat" : 27.1990658,
                  "lng" : 77.9951463
               }
            },
            "location" : {
               "lat" : 27.2008671,
               "lng" : 77.99851799999999
            },
            "location_type" : "GEOMETRIC_CENTER",
            "viewport" : {
               "northeast" : {
                  "lat" : 27.2034917,
                  "lng" : 78.0031429
               },
               "southwest" : {
                  "lat" : 27.1990658,
                  "lng" : 77.9951463
               }
            }
         },
         "partial_match" : true,
         "types" : [ "route" ]
      },
      {
         "address_components" : [
            {
               "long_name" : "Lala Lajpat Rai Avenue",
               "short_name" : "Lala Lajpat Rai Ave",
               "types" : [ "route" ]
            },
            {
               "long_name" : "A-Zone",
               "short_name" : "A-Zone",
               "types" : [ "sublocality_level_1", "sublocality", "political" ]
            },
            {
               "long_name" : "Durgapur",
               "short_name" : "Durgapur",
               "types" : [ "locality", "political" ]
            },
            {
               "long_name" : "Bardhaman",
               "short_name" : "Bardhaman",
               "types" : [ "administrative_area_level_2", "political" ]
            },
            {
               "long_name" : "West Bengal",
               "short_name" : "WB",
               "types" : [ "administrative_area_level_1", "political" ]
            },
            {
               "long_name" : "India",
               "short_name" : "IN",
               "types" : [ "country", "political" ]
            }
         ],
         "formatted_address" : "Lala Lajpat Rai Avenue, A-Zone, Durgapur, West Bengal, India",
         "geometry" : {
            "bounds" : {
               "northeast" : {
                  "lat" : 23.5596776,
                  "lng" : 87.2985552
               },
               "southwest" : {
                  "lat" : 23.5595919,
                  "lng" : 87.2911099
               }
            },
            "location" : {
               "lat" : 23.5596111,
               "lng" : 87.29478640000001
            },
            "location_type" : "GEOMETRIC_CENTER",
            "viewport" : {
               "northeast" : {
                  "lat" : 23.5609837302915,
                  "lng" : 87.2985552
               },
               "southwest" : {
                  "lat" : 23.5582857697085,
                  "lng" : 87.2911099
               }
            }
         },
         "partial_match" : true,
         "types" : [ "route" ]
      },
      {
         "address_components" : [
            {
               "long_name" : "Lala Lajpat Rai Marg",
               "short_name" : "Lala Lajpat Rai Marg",
               "types" : [ "route" ]
            },
            {
               "long_name" : "Malipura",
               "short_name" : "Malipura",
               "types" : [ "sublocality_level_1", "sublocality", "political" ]
            },
            {
               "long_name" : "Ujjain",
               "short_name" : "Ujjain",
               "types" : [ "locality", "political" ]
            },
            {
               "long_name" : "Ujjain",
               "short_name" : "Ujjain",
               "types" : [ "administrative_area_level_2", "political" ]
            },
            {
               "long_name" : "Madhya Pradesh",
               "short_name" : "MP",
               "types" : [ "administrative_area_level_1", "political" ]
            },
            {
               "long_name" : "India",
               "short_name" : "IN",
               "types" : [ "country", "political" ]
            },
            {
               "long_name" : "456006",
               "short_name" : "456006",
               "types" : [ "postal_code" ]
            }
         ],
         "formatted_address" : "Lala Lajpat Rai Marg, Malipura, Ujjain, Madhya Pradesh 456006, India",
         "geometry" : {
            "bounds" : {
               "northeast" : {
                  "lat" : 23.1892454,
                  "lng" : 75.7848814
               },
               "southwest" : {
                  "lat" : 23.1879954,
                  "lng" : 75.7793331
               }
            },
            "location" : {
               "lat" : 23.1888653,
               "lng" : 75.7820962
            },
            "location_type" : "GEOMETRIC_CENTER",
            "viewport" : {
               "northeast" : {
                  "lat" : 23.1899693802915,
                  "lng" : 75.7848814
               },
               "southwest" : {
                  "lat" : 23.18727141970849,
                  "lng" : 75.7793331
               }
            }
         },
         "partial_match" : true,
         "types" : [ "route" ]
      },
      {
         "address_components" : [
            {
               "long_name" : "Lala Lajpat Rai Sarani",
               "short_name" : "Lala Lajpat Rai Sarani",
               "types" : [ "route" ]
            },
            {
               "long_name" : "Kolkata",
               "short_name" : "Kolkata",
               "types" : [ "locality", "political" ]
            },
            {
               "long_name" : "Kolkata",
               "short_name" : "Kolkata",
               "types" : [ "administrative_area_level_2", "political" ]
            },
            {
               "long_name" : "West Bengal",
               "short_name" : "WB",
               "types" : [ "administrative_area_level_1", "political" ]
            },
            {
               "long_name" : "India",
               "short_name" : "IN",
               "types" : [ "country", "political" ]
            }
         ],
         "formatted_address" : "Lala Lajpat Rai Sarani, Kolkata, West Bengal, India",
         "geometry" : {
            "bounds" : {
               "northeast" : {
                  "lat" : 22.5388042,
                  "lng" : 88.35438049999999
               },
               "southwest" : {
                  "lat" : 22.53709,
                  "lng" : 88.3465781
               }
            },
            "location" : {
               "lat" : 22.537841,
               "lng" : 88.350236
            },
            "location_type" : "GEOMETRIC_CENTER",
            "viewport" : {
               "northeast" : {
                  "lat" : 22.5392960802915,
                  "lng" : 88.35438049999999
               },
               "southwest" : {
                  "lat" : 22.5365981197085,
                  "lng" : 88.3465781
               }
            }
         },
         "partial_match" : true,
         "types" : [ "route" ]
      },
      {
         "address_components" : [
            {
               "long_name" : "Lajpat Rai Chowk",
               "short_name" : "Lajpat Rai Chowk",
               "types" : [ "point_of_interest", "establishment" ]
            },
            {
               "long_name" : "Block E",
               "short_name" : "Block E",
               "types" : [ "sublocality_level_2", "sublocality", "political" ]
            },
            {
               "long_name" : "Krishna Nagar",
               "short_name" : "Krishna Nagar",
               "types" : [ "sublocality_level_1", "sublocality", "political" ]
            },
            {
               "long_name" : "New Delhi",
               "short_name" : "New Delhi",
               "types" : [ "locality", "political" ]
            },
            {
               "long_name" : "East Delhi",
               "short_name" : "East Delhi",
               "types" : [ "administrative_area_level_2", "political" ]
            },
            {
               "long_name" : "Delhi",
               "short_name" : "DL",
               "types" : [ "administrative_area_level_1", "political" ]
            },
            {
               "long_name" : "India",
               "short_name" : "IN",
               "types" : [ "country", "political" ]
            },
            {
               "long_name" : "110051",
               "short_name" : "110051",
               "types" : [ "postal_code" ]
            }
         ],
         "formatted_address" : "Lajpat Rai Chowk, Block E, Krishna Nagar, New Delhi, Delhi 110051, India",
         "geometry" : {
            "location" : {
               "lat" : 28.661177,
               "lng" : 77.28272969999999
            },
            "location_type" : "APPROXIMATE",
            "viewport" : {
               "northeast" : {
                  "lat" : 28.66252598029149,
                  "lng" : 77.2840786802915
               },
               "southwest" : {
                  "lat" : 28.6598280197085,
                  "lng" : 77.28138071970848
               }
            }
         },
         "partial_match" : true,
         "types" : [ "point_of_interest", "establishment" ]
      }
   ],
   "status" : "OK"
}
