{
   "results" : [
      {
         "address_components" : [
            {
               "long_name" : "Lakshmi Nagar",
               "short_name" : "Lakshmi Nagar",
               "types" : [ "sublocality_level_1", "sublocality", "political" ]
            },
            {
               "long_name" : "New Delhi",
               "short_name" : "New Delhi",
               "types" : [ "locality", "political" ]
            },
            {
               "long_name" : "East Delhi",
               "short_name" : "East Delhi",
               "types" : [ "administrative_area_level_2", "political" ]
            },
            {
               "long_name" : "Delhi",
               "short_name" : "DL",
               "types" : [ "administrative_area_level_1", "political" ]
            },
            {
               "long_name" : "India",
               "short_name" : "IN",
               "types" : [ "country", "political" ]
            }
         ],
         "formatted_address" : "Lakshmi Nagar, New Delhi, Delhi, India",
         "geometry" : {
            "bounds" : {
               "northeast" : {
                  "lat" : 28.643762,
                  "lng" : 77.285703
               },
               "southwest" : {
                  "lat" : 28.628174,
                  "lng" : 77.25341299999999
               }
            },
            "location" : {
               "lat" : 28.636736,
               "lng" : 77.274807
            },
            "location_type" : "APPROXIMATE",
            "viewport" : {
               "northeast" : {
                  "lat" : 28.643762,
                  "lng" : 77.285703
               },
               "southwest" : {
                  "lat" : 28.628174,
                  "lng" : 77.25341299999999
               }
            }
         },
         "types" : [ "sublocality_level_1", "sublocality", "political" ]
      },
      {
         "address_components" : [
            {
               "long_name" : "Laxmi Nagar",
               "short_name" : "Laxmi Nagar",
               "types" : [ "locality", "political" ]
            },
            {
               "long_name" : "Seti",
               "short_name" : "Seti",
               "types" : [ "administrative_area_level_2", "political" ]
            },
            {
               "long_name" : "Far-Western Region",
               "short_name" : "Far-Western Region",
               "types" : [ "administrative_area_level_1", "political" ]
            },
            {
               "long_name" : "Nepal",
               "short_name" : "NP",
               "types" : [ "country", "political" ]
            },
            {
               "long_name" : "10800",
               "short_name" : "10800",
               "types" : [ "postal_code" ]
            }
         ],
         "formatted_address" : "Laxmi Nagar 10800, Nepal",
         "geometry" : {
            "location" : {
               "lat" : 29.07,
               "lng" : 80.67
            },
            "location_type" : "APPROXIMATE",
            "viewport" : {
               "northeast" : {
                  "lat" : 29.0713489802915,
                  "lng" : 80.67134898029151
               },
               "southwest" : {
                  "lat" : 29.0686510197085,
                  "lng" : 80.66865101970851
               }
            }
         },
         "types" : [ "locality", "political" ]
      },
      {
         "address_components" : [
            {
               "long_name" : "Laxmi Nagar Metro Station Stop",
               "short_name" : "Laxmi Nagar Metro Station Stop",
               "types" : [ "subway_station", "train_station", "transit_station", "establishment" ]
            },
            {
               "long_name" : "Vikas Marg",
               "short_name" : "Vikas Marg",
               "types" : [ "route" ]
            },
            {
               "long_name" : "Block U",
               "short_name" : "Block U",
               "types" : [ "sublocality_level_2", "sublocality", "political" ]
            },
            {
               "long_name" : "Shakarpur Khas",
               "short_name" : "Shakarpur Khas",
               "types" : [ "sublocality_level_1", "sublocality", "political" ]
            },
            {
               "long_name" : "New Delhi",
               "short_name" : "New Delhi",
               "types" : [ "locality", "political" ]
            },
            {
               "long_name" : "East Delhi",
               "short_name" : "East Delhi",
               "types" : [ "administrative_area_level_2", "political" ]
            },
            {
               "long_name" : "Delhi",
               "short_name" : "DL",
               "types" : [ "administrative_area_level_1", "political" ]
            },
            {
               "long_name" : "India",
               "short_name" : "IN",
               "types" : [ "country", "political" ]
            },
            {
               "long_name" : "110092",
               "short_name" : "110092",
               "types" : [ "postal_code" ]
            }
         ],
         "formatted_address" : "Laxmi Nagar Metro Station Stop, Vikas Marg, Block U, Shakarpur Khas, New Delhi, Delhi 110092, India",
         "geometry" : {
            "bounds" : {
               "northeast" : {
                  "lat" : 28.6311542,
                  "lng" : 77.27840449999999
               },
               "southwest" : {
                  "lat" : 28.6300183,
                  "lng" : 77.27677489999999
               }
            },
            "location" : {
               "lat" : 28.6306206,
               "lng" : 77.2776001
            },
            "location_type" : "APPROXIMATE",
            "viewport" : {
               "northeast" : {
                  "lat" : 28.6319352302915,
                  "lng" : 77.2789386802915
               },
               "southwest" : {
                  "lat" : 28.6292372697085,
                  "lng" : 77.2762407197085
               }
            }
         },
         "types" : [ "subway_station", "train_station", "transit_station", "establishment" ]
      },
      {
         "address_components" : [
            {
               "long_name" : "Laxminagar",
               "short_name" : "Laxminagar",
               "types" : [ "sublocality_level_1", "sublocality", "political" ]
            },
            {
               "long_name" : "Nagpur",
               "short_name" : "Nagpur",
               "types" : [ "locality", "political" ]
            },
            {
               "long_name" : "Nagpur",
               "short_name" : "Nagpur",
               "types" : [ "administrative_area_level_2", "political" ]
            },
            {
               "long_name" : "Maharashtra",
               "short_name" : "MH",
               "types" : [ "administrative_area_level_1", "political" ]
            },
            {
               "long_name" : "India",
               "short_name" : "IN",
               "types" : [ "country", "political" ]
            }
         ],
         "formatted_address" : "Laxminagar, Nagpur, Maharashtra, India",
         "geometry" : {
            "bounds" : {
               "northeast" : {
                  "lat" : 21.127002,
                  "lng" : 79.068528
               },
               "southwest" : {
                  "lat" : 21.1191159,
                  "lng" : 79.05665209999999
               }
            },
            "location" : {
               "lat" : 21.1228115,
               "lng" : 79.0625156
            },
            "location_type" : "APPROXIMATE",
            "viewport" : {
               "northeast" : {
                  "lat" : 21.127002,
                  "lng" : 79.068528
               },
               "southwest" : {
                  "lat" : 21.1191159,
                  "lng" : 79.05665209999999
               }
            }
         },
         "types" : [ "sublocality_level_1", "sublocality", "political" ]
      },
      {
         "address_components" : [
            {
               "long_name" : "Laxmi Nagar",
               "short_name" : "Laxmi Nagar",
               "types" : [ "sublocality_level_1", "sublocality", "political" ]
            },
            {
               "long_name" : "Surat",
               "short_name" : "Surat",
               "types" : [ "locality", "political" ]
            },
            {
               "long_name" : "Surat",
               "short_name" : "Surat",
               "types" : [ "administrative_area_level_2", "political" ]
            },
            {
               "long_name" : "Gujarat",
               "short_name" : "GJ",
               "types" : [ "administrative_area_level_1", "political" ]
            },
            {
               "long_name" : "India",
               "short_name" : "IN",
               "types" : [ "country", "political" ]
            }
         ],
         "formatted_address" : "Laxmi Nagar, Surat, Gujarat, India",
         "geometry" : {
            "bounds" : {
               "northeast" : {
                  "lat" : 21.178472,
                  "lng" : 72.8364089
               },
               "southwest" : {
                  "lat" : 21.162198,
                  "lng" : 72.82637099999999
               }
            },
            "location" : {
               "lat" : 21.1705481,
               "lng" : 72.8314637
            },
            "location_type" : "APPROXIMATE",
            "viewport" : {
               "northeast" : {
                  "lat" : 21.178472,
                  "lng" : 72.8364089
               },
               "southwest" : {
                  "lat" : 21.162198,
                  "lng" : 72.82637099999999
               }
            }
         },
         "types" : [ "sublocality_level_1", "sublocality", "political" ]
      },
      {
         "address_components" : [
            {
               "long_name" : "Laxmi Nagar",
               "short_name" : "Laxmi Nagar",
               "types" : [ "sublocality_level_3", "sublocality", "political" ]
            },
            {
               "long_name" : "Pandesara",
               "short_name" : "Pandesara",
               "types" : [ "sublocality_level_2", "sublocality", "political" ]
            },
            {
               "long_name" : "Udhna",
               "short_name" : "Udhna",
               "types" : [ "sublocality_level_1", "sublocality", "political" ]
            },
            {
               "long_name" : "Surat",
               "short_name" : "Surat",
               "types" : [ "locality", "political" ]
            },
            {
               "long_name" : "Surat",
               "short_name" : "Surat",
               "types" : [ "administrative_area_level_2", "political" ]
            },
            {
               "long_name" : "Gujarat",
               "short_name" : "GJ",
               "types" : [ "administrative_area_level_1", "political" ]
            },
            {
               "long_name" : "India",
               "short_name" : "IN",
               "types" : [ "country", "political" ]
            },
            {
               "long_name" : "394220",
               "short_name" : "394220",
               "types" : [ "postal_code" ]
            }
         ],
         "formatted_address" : "Laxmi Nagar, Pandesara, Udhna, Surat, Gujarat 394220, India",
         "geometry" : {
            "bounds" : {
               "northeast" : {
                  "lat" : 21.1508409,
                  "lng" : 72.8344501
               },
               "southwest" : {
                  "lat" : 21.144183,
                  "lng" : 72.8293
               }
            },
            "location" : {
               "lat" : 21.1467005,
               "lng" : 72.8323463
            },
            "location_type" : "APPROXIMATE",
            "viewport" : {
               "northeast" : {
                  "lat" : 21.1508409,
                  "lng" : 72.8344501
               },
               "southwest" : {
                  "lat" : 21.144183,
                  "lng" : 72.8293
               }
            }
         },
         "types" : [ "sublocality_level_3", "sublocality", "political" ]
      },
      {
         "address_components" : [
            {
               "long_name" : "Laxmi Nagar",
               "short_name" : "Laxmi Nagar",
               "types" : [ "sublocality_level_2", "sublocality", "political" ]
            },
            {
               "long_name" : "Kondapur",
               "short_name" : "Kondapur",
               "types" : [ "sublocality_level_1", "sublocality", "political" ]
            },
            {
               "long_name" : "Hyderabad",
               "short_name" : "Hyderabad",
               "types" : [ "locality", "political" ]
            },
            {
               "long_name" : "Ranga Reddy",
               "short_name" : "R.R. District",
               "types" : [ "administrative_area_level_2", "political" ]
            },
            {
               "long_name" : "Telangana",
               "short_name" : "Telangana",
               "types" : [ "administrative_area_level_1", "political" ]
            },
            {
               "long_name" : "India",
               "short_name" : "IN",
               "types" : [ "country", "political" ]
            },
            {
               "long_name" : "500084",
               "short_name" : "500084",
               "types" : [ "postal_code" ]
            }
         ],
         "formatted_address" : "Laxmi Nagar, Kondapur, Hyderabad, Telangana 500084, India",
         "geometry" : {
            "bounds" : {
               "northeast" : {
                  "lat" : 17.4668499,
                  "lng" : 78.357632
               },
               "southwest" : {
                  "lat" : 17.45989,
                  "lng" : 78.34701799999999
               }
            },
            "location" : {
               "lat" : 17.4631839,
               "lng" : 78.3536438
            },
            "location_type" : "APPROXIMATE",
            "viewport" : {
               "northeast" : {
                  "lat" : 17.4668499,
                  "lng" : 78.357632
               },
               "southwest" : {
                  "lat" : 17.45989,
                  "lng" : 78.34701799999999
               }
            }
         },
         "types" : [ "sublocality_level_2", "sublocality", "political" ]
      },
      {
         "address_components" : [
            {
               "long_name" : "Laxmi Nagar",
               "short_name" : "Laxmi Nagar",
               "types" : [ "sublocality_level_2", "sublocality", "political" ]
            },
            {
               "long_name" : "Moula Ali",
               "short_name" : "Moula Ali",
               "types" : [ "sublocality_level_1", "sublocality", "political" ]
            },
            {
               "long_name" : "Secunderabad",
               "short_name" : "SC",
               "types" : [ "locality", "political" ]
            },
            {
               "long_name" : "Ranga Reddy",
               "short_name" : "R.R. District",
               "types" : [ "administrative_area_level_2", "political" ]
            },
            {
               "long_name" : "Telangana",
               "short_name" : "Telangana",
               "types" : [ "administrative_area_level_1", "political" ]
            },
            {
               "long_name" : "India",
               "short_name" : "IN",
               "types" : [ "country", "political" ]
            }
         ],
         "formatted_address" : "Laxmi Nagar, Moula Ali, Secunderabad, Telangana, India",
         "geometry" : {
            "bounds" : {
               "northeast" : {
                  "lat" : 17.467878,
                  "lng" : 78.5692389
               },
               "southwest" : {
                  "lat" : 17.456787,
                  "lng" : 78.5585531
               }
            },
            "location" : {
               "lat" : 17.4589089,
               "lng" : 78.5621553
            },
            "location_type" : "APPROXIMATE",
            "viewport" : {
               "northeast" : {
                  "lat" : 17.467878,
                  "lng" : 78.5692389
               },
               "southwest" : {
                  "lat" : 17.456787,
                  "lng" : 78.5585531
               }
            }
         },
         "types" : [ "sublocality_level_2", "sublocality", "political" ]
      },
      {
         "address_components" : [
            {
               "long_name" : "Laxmi Nagar",
               "short_name" : "Laxmi Nagar",
               "types" : [ "sublocality_level_1", "sublocality", "political" ]
            },
            {
               "long_name" : "Jodhpur",
               "short_name" : "Jodhpur",
               "types" : [ "locality", "political" ]
            },
            {
               "long_name" : "Jodhpur",
               "short_name" : "Jodhpur",
               "types" : [ "administrative_area_level_2", "political" ]
            },
            {
               "long_name" : "Rajasthan",
               "short_name" : "RJ",
               "types" : [ "administrative_area_level_1", "political" ]
            },
            {
               "long_name" : "India",
               "short_name" : "IN",
               "types" : [ "country", "political" ]
            },
            {
               "long_name" : "342006",
               "short_name" : "342006",
               "types" : [ "postal_code" ]
            }
         ],
         "formatted_address" : "Laxmi Nagar, Jodhpur, Rajasthan 342006, India",
         "geometry" : {
            "bounds" : {
               "northeast" : {
                  "lat" : 26.304491,
                  "lng" : 73.05274399999999
               },
               "southwest" : {
                  "lat" : 26.2994309,
                  "lng" : 73.0396851
               }
            },
            "location" : {
               "lat" : 26.3025996,
               "lng" : 73.0486446
            },
            "location_type" : "APPROXIMATE",
            "viewport" : {
               "northeast" : {
                  "lat" : 26.304491,
                  "lng" : 73.05274399999999
               },
               "southwest" : {
                  "lat" : 26.2994309,
                  "lng" : 73.0396851
               }
            }
         },
         "types" : [ "sublocality_level_1", "sublocality", "political" ]
      },
      {
         "address_components" : [
            {
               "long_name" : "Laxmi Nagar",
               "short_name" : "Laxmi Nagar",
               "types" : [ "sublocality_level_2", "sublocality", "political" ]
            },
            {
               "long_name" : "Alwal",
               "short_name" : "Alwal",
               "types" : [ "sublocality_level_1", "sublocality", "political" ]
            },
            {
               "long_name" : "Secunderabad",
               "short_name" : "SC",
               "types" : [ "locality", "political" ]
            },
            {
               "long_name" : "Ranga Reddy",
               "short_name" : "R.R. District",
               "types" : [ "administrative_area_level_2", "political" ]
            },
            {
               "long_name" : "Telangana",
               "short_name" : "Telangana",
               "types" : [ "administrative_area_level_1", "political" ]
            },
            {
               "long_name" : "India",
               "short_name" : "IN",
               "types" : [ "country", "political" ]
            },
            {
               "long_name" : "500010",
               "short_name" : "500010",
               "types" : [ "postal_code" ]
            }
         ],
         "formatted_address" : "Laxmi Nagar, Alwal, Secunderabad, Telangana 500010, India",
         "geometry" : {
            "bounds" : {
               "northeast" : {
                  "lat" : 17.496631,
                  "lng" : 78.51282789999999
               },
               "southwest" : {
                  "lat" : 17.492396,
                  "lng" : 78.50577899999999
               }
            },
            "location" : {
               "lat" : 17.4947698,
               "lng" : 78.51025299999999
            },
            "location_type" : "APPROXIMATE",
            "viewport" : {
               "northeast" : {
                  "lat" : 17.496631,
                  "lng" : 78.51282789999999
               },
               "southwest" : {
                  "lat" : 17.492396,
                  "lng" : 78.50577899999999
               }
            }
         },
         "types" : [ "sublocality_level_2", "sublocality", "political" ]
      },
      {
         "address_components" : [
            {
               "long_name" : "Laxmi Nagar",
               "short_name" : "Laxmi Nagar",
               "types" : [ "sublocality_level_1", "sublocality", "political" ]
            },
            {
               "long_name" : "Ramagundam",
               "short_name" : "Ramagundam",
               "types" : [ "locality", "political" ]
            },
            {
               "long_name" : "Karimnagar",
               "short_name" : "Karimnagar",
               "types" : [ "administrative_area_level_2", "political" ]
            },
            {
               "long_name" : "Telangana",
               "short_name" : "Telangana",
               "types" : [ "administrative_area_level_1", "political" ]
            },
            {
               "long_name" : "India",
               "short_name" : "IN",
               "types" : [ "country", "political" ]
            },
            {
               "long_name" : "505211",
               "short_name" : "505211",
               "types" : [ "postal_code" ]
            }
         ],
         "formatted_address" : "Laxmi Nagar, Ramagundam, Telangana 505211, India",
         "geometry" : {
            "bounds" : {
               "northeast" : {
                  "lat" : 18.7577183,
                  "lng" : 79.51328409999999
               },
               "southwest" : {
                  "lat" : 18.7419504,
                  "lng" : 79.5031089
               }
            },
            "location" : {
               "lat" : 18.7507937,
               "lng" : 79.50834929999999
            },
            "location_type" : "APPROXIMATE",
            "viewport" : {
               "northeast" : {
                  "lat" : 18.7577183,
                  "lng" : 79.51328409999999
               },
               "southwest" : {
                  "lat" : 18.7419504,
                  "lng" : 79.5031089
               }
            }
         },
         "types" : [ "sublocality_level_1", "sublocality", "political" ]
      },
      {
         "address_components" : [
            {
               "long_name" : "Laxmi Nagar",
               "short_name" : "Laxmi Nagar",
               "types" : [ "sublocality_level_2", "sublocality", "political" ]
            },
            {
               "long_name" : "Dhanori",
               "short_name" : "Dhanori",
               "types" : [ "sublocality_level_1", "sublocality", "political" ]
            },
            {
               "long_name" : "Pune",
               "short_name" : "Pune",
               "types" : [ "locality", "political" ]
            },
            {
               "long_name" : "Pune",
               "short_name" : "Pune",
               "types" : [ "administrative_area_level_2", "political" ]
            },
            {
               "long_name" : "Maharashtra",
               "short_name" : "MH",
               "types" : [ "administrative_area_level_1", "political" ]
            },
            {
               "long_name" : "India",
               "short_name" : "IN",
               "types" : [ "country", "political" ]
            },
            {
               "long_name" : "411015",
               "short_name" : "411015",
               "types" : [ "postal_code" ]
            }
         ],
         "formatted_address" : "Laxmi Nagar, Dhanori, Pune, Maharashtra 411015, India",
         "geometry" : {
            "bounds" : {
               "northeast" : {
                  "lat" : 18.5969699,
                  "lng" : 73.89984700000001
               },
               "southwest" : {
                  "lat" : 18.592408,
                  "lng" : 73.8923269
               }
            },
            "location" : {
               "lat" : 18.5945763,
               "lng" : 73.8970344
            },
            "location_type" : "APPROXIMATE",
            "viewport" : {
               "northeast" : {
                  "lat" : 18.5969699,
                  "lng" : 73.89984700000001
               },
               "southwest" : {
                  "lat" : 18.592408,
                  "lng" : 73.8923269
               }
            }
         },
         "types" : [ "sublocality_level_2", "sublocality", "political" ]
      },
      {
         "address_components" : [
            {
               "long_name" : "LAXMI NAGAR",
               "short_name" : "LAXMI NAGAR",
               "types" : [ "premise" ]
            },
            {
               "long_name" : "Galli Number 1",
               "short_name" : "Galli Number 1",
               "types" : [ "route" ]
            },
            {
               "long_name" : "Jodhpur",
               "short_name" : "Jodhpur",
               "types" : [ "locality", "political" ]
            },
            {
               "long_name" : "Jodhpur",
               "short_name" : "Jodhpur",
               "types" : [ "administrative_area_level_2", "political" ]
            },
            {
               "long_name" : "Rajasthan",
               "short_name" : "RJ",
               "types" : [ "administrative_area_level_1", "political" ]
            },
            {
               "long_name" : "India",
               "short_name" : "IN",
               "types" : [ "country", "political" ]
            },
            {
               "long_name" : "342006",
               "short_name" : "342006",
               "types" : [ "postal_code" ]
            }
         ],
         "formatted_address" : "LAXMI NAGAR, Galli Number 1, Jodhpur, Rajasthan 342006, India",
         "geometry" : {
            "bounds" : {
               "northeast" : {
                  "lat" : 26.3105737,
                  "lng" : 73.06097029999999
               },
               "southwest" : {
                  "lat" : 26.2950309,
                  "lng" : 73.04191589999999
               }
            },
            "location" : {
               "lat" : 26.3035831,
               "lng" : 73.05085819999999
            },
            "location_type" : "ROOFTOP",
            "viewport" : {
               "northeast" : {
                  "lat" : 26.3105737,
                  "lng" : 73.06097029999999
               },
               "southwest" : {
                  "lat" : 26.2950309,
                  "lng" : 73.04191589999999
               }
            }
         },
         "types" : [ "premise" ]
      },
      {
         "address_components" : [
            {
               "long_name" : "Laxmi Nagar",
               "short_name" : "Laxmi Nagar",
               "types" : [ "sublocality_level_2", "sublocality", "political" ]
            },
            {
               "long_name" : "Parvati Darshan",
               "short_name" : "Parvati Darshan",
               "types" : [ "sublocality_level_1", "sublocality", "political" ]
            },
            {
               "long_name" : "Pune",
               "short_name" : "Pune",
               "types" : [ "locality", "political" ]
            },
            {
               "long_name" : "Pune",
               "short_name" : "Pune",
               "types" : [ "administrative_area_level_2", "political" ]
            },
            {
               "long_name" : "Maharashtra",
               "short_name" : "MH",
               "types" : [ "administrative_area_level_1", "political" ]
            },
            {
               "long_name" : "India",
               "short_name" : "IN",
               "types" : [ "country", "political" ]
            },
            {
               "long_name" : "411009",
               "short_name" : "411009",
               "types" : [ "postal_code" ]
            }
         ],
         "formatted_address" : "Laxmi Nagar, Parvati Darshan, Pune, Maharashtra 411009, India",
         "geometry" : {
            "bounds" : {
               "northeast" : {
                  "lat" : 18.4966061,
                  "lng" : 73.85157509999999
               },
               "southwest" : {
                  "lat" : 18.4904899,
                  "lng" : 73.8433749
               }
            },
            "location" : {
               "lat" : 18.4938463,
               "lng" : 73.8485225
            },
            "location_type" : "APPROXIMATE",
            "viewport" : {
               "northeast" : {
                  "lat" : 18.4966061,
                  "lng" : 73.85157509999999
               },
               "southwest" : {
                  "lat" : 18.4904899,
                  "lng" : 73.8433749
               }
            }
         },
         "types" : [ "sublocality_level_2", "sublocality", "political" ]
      },
      {
         "address_components" : [
            {
               "long_name" : "Laxmi Nagar",
               "short_name" : "Laxmi Nagar",
               "types" : [ "sublocality_level_2", "sublocality", "political" ]
            },
            {
               "long_name" : "Vikhroli East",
               "short_name" : "Vikhroli East",
               "types" : [ "sublocality_level_1", "sublocality", "political" ]
            },
            {
               "long_name" : "Mumbai",
               "short_name" : "Mumbai",
               "types" : [ "locality", "political" ]
            },
            {
               "long_name" : "Mumbai Suburban",
               "short_name" : "Mumbai Suburban",
               "types" : [ "administrative_area_level_2", "political" ]
            },
            {
               "long_name" : "Maharashtra",
               "short_name" : "MH",
               "types" : [ "administrative_area_level_1", "political" ]
            },
            {
               "long_name" : "India",
               "short_name" : "IN",
               "types" : [ "country", "political" ]
            }
         ],
         "formatted_address" : "Laxmi Nagar, Vikhroli East, Mumbai, Maharashtra, India",
         "geometry" : {
            "bounds" : {
               "northeast" : {
                  "lat" : 19.0949719,
                  "lng" : 72.919242
               },
               "southwest" : {
                  "lat" : 19.0884321,
                  "lng" : 72.914568
               }
            },
            "location" : {
               "lat" : 19.0920425,
               "lng" : 72.91689579999999
            },
            "location_type" : "APPROXIMATE",
            "viewport" : {
               "northeast" : {
                  "lat" : 19.0949719,
                  "lng" : 72.919242
               },
               "southwest" : {
                  "lat" : 19.0884321,
                  "lng" : 72.914568
               }
            }
         },
         "types" : [ "sublocality_level_2", "sublocality", "political" ]
      },
      {
         "address_components" : [
            {
               "long_name" : "Laxmi Nagar",
               "short_name" : "Laxmi Nagar",
               "types" : [ "route" ]
            },
            {
               "long_name" : "Ostwal Nagari",
               "short_name" : "Ostwal Nagari",
               "types" : [ "neighborhood", "political" ]
            },
            {
               "long_name" : "Oswal Nagari",
               "short_name" : "Oswal Nagari",
               "types" : [ "sublocality_level_2", "sublocality", "political" ]
            },
            {
               "long_name" : "Nalasopara East",
               "short_name" : "Nalasopara East",
               "types" : [ "sublocality_level_1", "sublocality", "political" ]
            },
            {
               "long_name" : "Nala Sopara",
               "short_name" : "Nala Sopara",
               "types" : [ "locality", "political" ]
            },
            {
               "long_name" : "Thane",
               "short_name" : "Thane",
               "types" : [ "administrative_area_level_2", "political" ]
            },
            {
               "long_name" : "Maharashtra",
               "short_name" : "MH",
               "types" : [ "administrative_area_level_1", "political" ]
            },
            {
               "long_name" : "India",
               "short_name" : "IN",
               "types" : [ "country", "political" ]
            },
            {
               "long_name" : "401209",
               "short_name" : "401209",
               "types" : [ "postal_code" ]
            }
         ],
         "formatted_address" : "Laxmi Nagar, Ostwal Nagari, Oswal Nagari, Nalasopara East, Nala Sopara, Maharashtra 401209, India",
         "geometry" : {
            "bounds" : {
               "northeast" : {
                  "lat" : 19.4294134,
                  "lng" : 72.82162749999999
               },
               "southwest" : {
                  "lat" : 19.4284404,
                  "lng" : 72.8199685
               }
            },
            "location" : {
               "lat" : 19.4285426,
               "lng" : 72.8208489
            },
            "location_type" : "GEOMETRIC_CENTER",
            "viewport" : {
               "northeast" : {
                  "lat" : 19.4302758802915,
                  "lng" : 72.82214698029151
               },
               "southwest" : {
                  "lat" : 19.4275779197085,
                  "lng" : 72.8194490197085
               }
            }
         },
         "types" : [ "route" ]
      },
      {
         "address_components" : [
            {
               "long_name" : "Lakshmi Nagar",
               "short_name" : "Lakshmi Nagar",
               "types" : [ "sublocality_level_2", "sublocality", "political" ]
            },
            {
               "long_name" : "Velachery",
               "short_name" : "Velachery",
               "types" : [ "sublocality_level_1", "sublocality", "political" ]
            },
            {
               "long_name" : "Chennai",
               "short_name" : "Chennai",
               "types" : [ "locality", "political" ]
            },
            {
               "long_name" : "Kanchipuram",
               "short_name" : "Kanchipuram",
               "types" : [ "administrative_area_level_2", "political" ]
            },
            {
               "long_name" : "Tamil Nadu",
               "short_name" : "TN",
               "types" : [ "administrative_area_level_1", "political" ]
            },
            {
               "long_name" : "India",
               "short_name" : "IN",
               "types" : [ "country", "political" ]
            },
            {
               "long_name" : "600042",
               "short_name" : "600042",
               "types" : [ "postal_code" ]
            }
         ],
         "formatted_address" : "Lakshmi Nagar, Velachery, Chennai, Tamil Nadu 600042, India",
         "geometry" : {
            "bounds" : {
               "northeast" : {
                  "lat" : 12.983354,
                  "lng" : 80.21810599999999
               },
               "southwest" : {
                  "lat" : 12.981322,
                  "lng" : 80.21358049999999
               }
            },
            "location" : {
               "lat" : 12.9821981,
               "lng" : 80.2157484
            },
            "location_type" : "APPROXIMATE",
            "viewport" : {
               "northeast" : {
                  "lat" : 12.9836869802915,
                  "lng" : 80.21810599999999
               },
               "southwest" : {
                  "lat" : 12.9809890197085,
                  "lng" : 80.21358049999999
               }
            }
         },
         "types" : [ "sublocality_level_2", "sublocality", "political" ]
      },
      {
         "address_components" : [
            {
               "long_name" : "Laxmi Nagar",
               "short_name" : "Laxmi Nagar",
               "types" : [ "sublocality_level_2", "sublocality", "political" ]
            },
            {
               "long_name" : "Thane West",
               "short_name" : "Thane West",
               "types" : [ "sublocality_level_1", "sublocality", "political" ]
            },
            {
               "long_name" : "Thane",
               "short_name" : "Thane",
               "types" : [ "locality", "political" ]
            },
            {
               "long_name" : "Thane",
               "short_name" : "Thane",
               "types" : [ "administrative_area_level_2", "political" ]
            },
            {
               "long_name" : "Maharashtra",
               "short_name" : "MH",
               "types" : [ "administrative_area_level_1", "political" ]
            },
            {
               "long_name" : "India",
               "short_name" : "IN",
               "types" : [ "country", "political" ]
            },
            {
               "long_name" : "400606",
               "short_name" : "400606",
               "types" : [ "postal_code" ]
            }
         ],
         "formatted_address" : "Laxmi Nagar, Thane West, Thane, Maharashtra 400606, India",
         "geometry" : {
            "bounds" : {
               "northeast" : {
                  "lat" : 19.2118021,
                  "lng" : 72.9748341
               },
               "southwest" : {
                  "lat" : 19.206299,
                  "lng" : 72.969323
               }
            },
            "location" : {
               "lat" : 19.208722,
               "lng" : 72.97226139999999
            },
            "location_type" : "APPROXIMATE",
            "viewport" : {
               "northeast" : {
                  "lat" : 19.2118021,
                  "lng" : 72.9748341
               },
               "southwest" : {
                  "lat" : 19.206299,
                  "lng" : 72.969323
               }
            }
         },
         "types" : [ "sublocality_level_2", "sublocality", "political" ]
      },
      {
         "address_components" : [
            {
               "long_name" : "Laxmi Nagar",
               "short_name" : "Laxmi Nagar",
               "types" : [ "route" ]
            },
            {
               "long_name" : "Sambra",
               "short_name" : "Sambra",
               "types" : [ "locality", "political" ]
            },
            {
               "long_name" : "Belagavi",
               "short_name" : "Belagavi",
               "types" : [ "administrative_area_level_2", "political" ]
            },
            {
               "long_name" : "Karnataka",
               "short_name" : "KA",
               "types" : [ "administrative_area_level_1", "political" ]
            },
            {
               "long_name" : "India",
               "short_name" : "IN",
               "types" : [ "country", "political" ]
            },
            {
               "long_name" : "591124",
               "short_name" : "591124",
               "types" : [ "postal_code" ]
            }
         ],
         "formatted_address" : "Laxmi Nagar, Sambra, Karnataka 591124, India",
         "geometry" : {
            "bounds" : {
               "northeast" : {
                  "lat" : 15.8697692,
                  "lng" : 74.6213508
               },
               "southwest" : {
                  "lat" : 15.868223,
                  "lng" : 74.62035829999999
               }
            },
            "location" : {
               "lat" : 15.8697692,
               "lng" : 74.62035829999999
            },
            "location_type" : "GEOMETRIC_CENTER",
            "viewport" : {
               "northeast" : {
                  "lat" : 15.8703450802915,
                  "lng" : 74.6222035302915
               },
               "southwest" : {
                  "lat" : 15.8676471197085,
                  "lng" : 74.61950556970849
               }
            }
         },
         "types" : [ "route" ]
      },
      {
         "address_components" : [
            {
               "long_name" : "Laxmi Nagar",
               "short_name" : "Laxmi Nagar",
               "types" : [ "sublocality_level_2", "sublocality", "political" ]
            },
            {
               "long_name" : "Goregaon West",
               "short_name" : "Goregaon West",
               "types" : [ "sublocality_level_1", "sublocality", "political" ]
            },
            {
               "long_name" : "Mumbai",
               "short_name" : "Mumbai",
               "types" : [ "locality", "political" ]
            },
            {
               "long_name" : "Mumbai Suburban",
               "short_name" : "Mumbai Suburban",
               "types" : [ "administrative_area_level_2", "political" ]
            },
            {
               "long_name" : "Maharashtra",
               "short_name" : "MH",
               "types" : [ "administrative_area_level_1", "political" ]
            },
            {
               "long_name" : "India",
               "short_name" : "IN",
               "types" : [ "country", "political" ]
            }
         ],
         "formatted_address" : "Laxmi Nagar, Goregaon West, Mumbai, Maharashtra, India",
         "geometry" : {
            "bounds" : {
               "northeast" : {
                  "lat" : 19.1634748,
                  "lng" : 72.83511109999999
               },
               "southwest" : {
                  "lat" : 19.1595049,
                  "lng" : 72.82895909999999
               }
            },
            "location" : {
               "lat" : 19.1608463,
               "lng" : 72.83230469999999
            },
            "location_type" : "APPROXIMATE",
            "viewport" : {
               "northeast" : {
                  "lat" : 19.1634748,
                  "lng" : 72.83511109999999
               },
               "southwest" : {
                  "lat" : 19.1595049,
                  "lng" : 72.82895909999999
               }
            }
         },
         "types" : [ "sublocality_level_2", "sublocality", "political" ]
      },
      {
         "address_components" : [
            {
               "long_name" : "Laxmi Nagar",
               "short_name" : "Laxmi Nagar",
               "types" : [ "sublocality_level_3", "sublocality", "political" ]
            },
            {
               "long_name" : "Balkum",
               "short_name" : "Balkum",
               "types" : [ "sublocality_level_2", "sublocality", "political" ]
            },
            {
               "long_name" : "Majiwada",
               "short_name" : "Majiwada",
               "types" : [ "sublocality_level_1", "sublocality", "political" ]
            },
            {
               "long_name" : "Thane",
               "short_name" : "Thane",
               "types" : [ "locality", "political" ]
            },
            {
               "long_name" : "Thane",
               "short_name" : "Thane",
               "types" : [ "administrative_area_level_2", "political" ]
            },
            {
               "long_name" : "Maharashtra",
               "short_name" : "MH",
               "types" : [ "administrative_area_level_1", "political" ]
            },
            {
               "long_name" : "India",
               "short_name" : "IN",
               "types" : [ "country", "political" ]
            }
         ],
         "formatted_address" : "Laxmi Nagar, Balkum, Majiwada, Thane, Maharashtra, India",
         "geometry" : {
            "bounds" : {
               "northeast" : {
                  "lat" : 19.2197281,
                  "lng" : 72.99564699999999
               },
               "southwest" : {
                  "lat" : 19.209153,
                  "lng" : 72.98597289999999
               }
            },
            "location" : {
               "lat" : 19.2152559,
               "lng" : 72.9918208
            },
            "location_type" : "APPROXIMATE",
            "viewport" : {
               "northeast" : {
                  "lat" : 19.2197281,
                  "lng" : 72.99564699999999
               },
               "southwest" : {
                  "lat" : 19.209153,
                  "lng" : 72.98597289999999
               }
            }
         },
         "types" : [ "sublocality_level_3", "sublocality", "political" ]
      },
      {
         "address_components" : [
            {
               "long_name" : "Laxmi Nagar",
               "short_name" : "Laxmi Nagar",
               "types" : [ "sublocality_level_2", "sublocality", "political" ]
            },
            {
               "long_name" : "Jogeshwari East",
               "short_name" : "Jogeshwari East",
               "types" : [ "sublocality_level_1", "sublocality", "political" ]
            },
            {
               "long_name" : "Mumbai",
               "short_name" : "Mumbai",
               "types" : [ "locality", "political" ]
            },
            {
               "long_name" : "Mumbai Suburban",
               "short_name" : "Mumbai Suburban",
               "types" : [ "administrative_area_level_2", "political" ]
            },
            {
               "long_name" : "Maharashtra",
               "short_name" : "MH",
               "types" : [ "administrative_area_level_1", "political" ]
            },
            {
               "long_name" : "India",
               "short_name" : "IN",
               "types" : [ "country", "political" ]
            }
         ],
         "formatted_address" : "Laxmi Nagar, Jogeshwari East, Mumbai, Maharashtra, India",
         "geometry" : {
            "bounds" : {
               "northeast" : {
                  "lat" : 19.145897,
                  "lng" : 72.8544419
               },
               "southwest" : {
                  "lat" : 19.139261,
                  "lng" : 72.8493641
               }
            },
            "location" : {
               "lat" : 19.1418555,
               "lng" : 72.85260319999999
            },
            "location_type" : "APPROXIMATE",
            "viewport" : {
               "northeast" : {
                  "lat" : 19.145897,
                  "lng" : 72.8544419
               },
               "southwest" : {
                  "lat" : 19.139261,
                  "lng" : 72.8493641
               }
            }
         },
         "types" : [ "sublocality_level_2", "sublocality", "political" ]
      },
      {
         "address_components" : [
            {
               "long_name" : "Laxmi Nagar",
               "short_name" : "Laxmi Nagar",
               "types" : [ "route" ]
            },
            {
               "long_name" : "Block D",
               "short_name" : "Block D",
               "types" : [ "sublocality_level_2", "sublocality", "political" ]
            },
            {
               "long_name" : "Lakshmi Nagar",
               "short_name" : "Lakshmi Nagar",
               "types" : [ "sublocality_level_1", "sublocality", "political" ]
            },
            {
               "long_name" : "New Delhi",
               "short_name" : "New Delhi",
               "types" : [ "locality", "political" ]
            },
            {
               "long_name" : "East Delhi",
               "short_name" : "East Delhi",
               "types" : [ "administrative_area_level_2", "political" ]
            },
            {
               "long_name" : "Delhi",
               "short_name" : "DL",
               "types" : [ "administrative_area_level_1", "political" ]
            },
            {
               "long_name" : "India",
               "short_name" : "IN",
               "types" : [ "country", "political" ]
            },
            {
               "long_name" : "110031",
               "short_name" : "110031",
               "types" : [ "postal_code" ]
            }
         ],
         "formatted_address" : "Laxmi Nagar, Block D, Lakshmi Nagar, New Delhi, Delhi 110031, India",
         "geometry" : {
            "bounds" : {
               "northeast" : {
                  "lat" : 28.6323927,
                  "lng" : 77.27706239999999
               },
               "southwest" : {
                  "lat" : 28.6313953,
                  "lng" : 77.27627559999999
               }
            },
            "location" : {
               "lat" : 28.6319843,
               "lng" : 77.27657909999999
            },
            "location_type" : "GEOMETRIC_CENTER",
            "viewport" : {
               "northeast" : {
                  "lat" : 28.6332429802915,
                  "lng" : 77.27801798029149
               },
               "southwest" : {
                  "lat" : 28.6305450197085,
                  "lng" : 77.27532001970847
               }
            }
         },
         "types" : [ "route" ]
      },
      {
         "address_components" : [
            {
               "long_name" : "Laxmi Nagar",
               "short_name" : "Laxmi Nagar",
               "types" : [ "route" ]
            },
            {
               "long_name" : "Kumbharia Gam",
               "short_name" : "Kumbharia Gam",
               "types" : [ "sublocality_level_1", "sublocality", "political" ]
            },
            {
               "long_name" : "Surat",
               "short_name" : "Surat",
               "types" : [ "locality", "political" ]
            },
            {
               "long_name" : "Surat",
               "short_name" : "Surat",
               "types" : [ "administrative_area_level_2", "political" ]
            },
            {
               "long_name" : "Gujarat",
               "short_name" : "GJ",
               "types" : [ "administrative_area_level_1", "political" ]
            },
            {
               "long_name" : "India",
               "short_name" : "IN",
               "types" : [ "country", "political" ]
            },
            {
               "long_name" : "395010",
               "short_name" : "395010",
               "types" : [ "postal_code" ]
            }
         ],
         "formatted_address" : "Laxmi Nagar, Kumbharia Gam, Surat, Gujarat 395010, India",
         "geometry" : {
            "bounds" : {
               "northeast" : {
                  "lat" : 21.1852221,
                  "lng" : 72.8899359
               },
               "southwest" : {
                  "lat" : 21.1845752,
                  "lng" : 72.8894597
               }
            },
            "location" : {
               "lat" : 21.1846015,
               "lng" : 72.88970549999999
            },
            "location_type" : "GEOMETRIC_CENTER",
            "viewport" : {
               "northeast" : {
                  "lat" : 21.1862476302915,
                  "lng" : 72.8910467802915
               },
               "southwest" : {
                  "lat" : 21.1835496697085,
                  "lng" : 72.8883488197085
               }
            }
         },
         "types" : [ "route" ]
      },
      {
         "address_components" : [
            {
               "long_name" : "Laxmi Nagar",
               "short_name" : "Laxmi Nagar",
               "types" : [ "sublocality_level_2", "sublocality", "political" ]
            },
            {
               "long_name" : "Sanganoor",
               "short_name" : "Sanganoor",
               "types" : [ "sublocality_level_1", "sublocality", "political" ]
            },
            {
               "long_name" : "Coimbatore",
               "short_name" : "Coimbatore",
               "types" : [ "locality", "political" ]
            },
            {
               "long_name" : "Coimbatore",
               "short_name" : "Coimbatore",
               "types" : [ "administrative_area_level_2", "political" ]
            },
            {
               "long_name" : "Tamil Nadu",
               "short_name" : "TN",
               "types" : [ "administrative_area_level_1", "political" ]
            },
            {
               "long_name" : "India",
               "short_name" : "IN",
               "types" : [ "country", "political" ]
            },
            {
               "long_name" : "641006",
               "short_name" : "641006",
               "types" : [ "postal_code" ]
            }
         ],
         "formatted_address" : "Laxmi Nagar, Sanganoor, Coimbatore, Tamil Nadu 641006, India",
         "geometry" : {
            "bounds" : {
               "northeast" : {
                  "lat" : 11.046412,
                  "lng" : 76.96760309999999
               },
               "southwest" : {
                  "lat" : 11.0355441,
                  "lng" : 76.955123
               }
            },
            "location" : {
               "lat" : 11.0400291,
               "lng" : 76.96286580000002
            },
            "location_type" : "APPROXIMATE",
            "viewport" : {
               "northeast" : {
                  "lat" : 11.046412,
                  "lng" : 76.96760309999999
               },
               "southwest" : {
                  "lat" : 11.0355441,
                  "lng" : 76.955123
               }
            }
         },
         "types" : [ "sublocality_level_2", "sublocality", "political" ]
      },
      {
         "address_components" : [
            {
               "long_name" : "Laxmi Nagar",
               "short_name" : "Laxmi Nagar",
               "types" : [ "sublocality_level_1", "sublocality", "political" ]
            },
            {
               "long_name" : "Bulandshahr",
               "short_name" : "Bulandshahr",
               "types" : [ "locality", "political" ]
            },
            {
               "long_name" : "Bulandshahar",
               "short_name" : "Bulandshahar",
               "types" : [ "administrative_area_level_2", "political" ]
            },
            {
               "long_name" : "Uttar Pradesh",
               "short_name" : "UP",
               "types" : [ "administrative_area_level_1", "political" ]
            },
            {
               "long_name" : "India",
               "short_name" : "IN",
               "types" : [ "country", "political" ]
            },
            {
               "long_name" : "203001",
               "short_name" : "203001",
               "types" : [ "postal_code" ]
            }
         ],
         "formatted_address" : "Laxmi Nagar, Bulandshahr, Uttar Pradesh 203001, India",
         "geometry" : {
            "bounds" : {
               "northeast" : {
                  "lat" : 28.406932,
                  "lng" : 77.85746189999999
               },
               "southwest" : {
                  "lat" : 28.3975941,
                  "lng" : 77.8433029
               }
            },
            "location" : {
               "lat" : 28.4022748,
               "lng" : 77.8524505
            },
            "location_type" : "APPROXIMATE",
            "viewport" : {
               "northeast" : {
                  "lat" : 28.406932,
                  "lng" : 77.85746189999999
               },
               "southwest" : {
                  "lat" : 28.3975941,
                  "lng" : 77.8433029
               }
            }
         },
         "types" : [ "sublocality_level_1", "sublocality", "political" ]
      },
      {
         "address_components" : [
            {
               "long_name" : "Laxmi Nagar",
               "short_name" : "Laxmi Nagar",
               "types" : [ "sublocality_level_2", "sublocality", "political" ]
            },
            {
               "long_name" : "Sultanpuri",
               "short_name" : "Sultanpuri",
               "types" : [ "sublocality_level_1", "sublocality", "political" ]
            },
            {
               "long_name" : "New Delhi",
               "short_name" : "New Delhi",
               "types" : [ "locality", "political" ]
            },
            {
               "long_name" : "North West Delhi",
               "short_name" : "North West Delhi",
               "types" : [ "administrative_area_level_2", "political" ]
            },
            {
               "long_name" : "Delhi",
               "short_name" : "DL",
               "types" : [ "administrative_area_level_1", "political" ]
            },
            {
               "long_name" : "India",
               "short_name" : "IN",
               "types" : [ "country", "political" ]
            },
            {
               "long_name" : "110081",
               "short_name" : "110081",
               "types" : [ "postal_code" ]
            }
         ],
         "formatted_address" : "Laxmi Nagar, Sultanpuri, New Delhi, Delhi 110081, India",
         "geometry" : {
            "bounds" : {
               "northeast" : {
                  "lat" : 28.702222,
                  "lng" : 77.0575889
               },
               "southwest" : {
                  "lat" : 28.6996991,
                  "lng" : 77.0548829
               }
            },
            "location" : {
               "lat" : 28.7006491,
               "lng" : 77.0560866
            },
            "location_type" : "APPROXIMATE",
            "viewport" : {
               "northeast" : {
                  "lat" : 28.7023095302915,
                  "lng" : 77.0575889
               },
               "southwest" : {
                  "lat" : 28.6996115697085,
                  "lng" : 77.0548829
               }
            }
         },
         "types" : [ "sublocality_level_2", "sublocality", "political" ]
      },
      {
         "address_components" : [
            {
               "long_name" : "Laxmi Nagar",
               "short_name" : "Laxmi Nagar",
               "types" : [ "sublocality_level_2", "sublocality", "political" ]
            },
            {
               "long_name" : "Chandreshnagar",
               "short_name" : "Chandreshnagar",
               "types" : [ "sublocality_level_1", "sublocality", "political" ]
            },
            {
               "long_name" : "Rajkot",
               "short_name" : "Rajkot",
               "types" : [ "locality", "political" ]
            },
            {
               "long_name" : "Rajkot",
               "short_name" : "Rajkot",
               "types" : [ "administrative_area_level_2", "political" ]
            },
            {
               "long_name" : "Gujarat",
               "short_name" : "GJ",
               "types" : [ "administrative_area_level_1", "political" ]
            },
            {
               "long_name" : "India",
               "short_name" : "IN",
               "types" : [ "country", "political" ]
            }
         ],
         "formatted_address" : "Laxmi Nagar, Chandreshnagar, Rajkot, Gujarat, India",
         "geometry" : {
            "bounds" : {
               "northeast" : {
                  "lat" : 22.2835291,
                  "lng" : 70.792526
               },
               "southwest" : {
                  "lat" : 22.2778829,
                  "lng" : 70.7862361
               }
            },
            "location" : {
               "lat" : 22.2807543,
               "lng" : 70.7889533
            },
            "location_type" : "APPROXIMATE",
            "viewport" : {
               "northeast" : {
                  "lat" : 22.2835291,
                  "lng" : 70.792526
               },
               "southwest" : {
                  "lat" : 22.2778829,
                  "lng" : 70.7862361
               }
            }
         },
         "types" : [ "sublocality_level_2", "sublocality", "political" ]
      },
      {
         "address_components" : [
            {
               "long_name" : "Laxmi Nagar",
               "short_name" : "Laxmi Nagar",
               "types" : [ "sublocality_level_1", "sublocality", "political" ]
            },
            {
               "long_name" : "Tiruppur",
               "short_name" : "Tiruppur",
               "types" : [ "locality", "political" ]
            },
            {
               "long_name" : "Tiruppur",
               "short_name" : "Tiruppur",
               "types" : [ "administrative_area_level_2", "political" ]
            },
            {
               "long_name" : "Tamil Nadu",
               "short_name" : "TN",
               "types" : [ "administrative_area_level_1", "political" ]
            },
            {
               "long_name" : "India",
               "short_name" : "IN",
               "types" : [ "country", "political" ]
            }
         ],
         "formatted_address" : "Laxmi Nagar, Tiruppur, Tamil Nadu, India",
         "geometry" : {
            "bounds" : {
               "northeast" : {
                  "lat" : 11.122025,
                  "lng" : 77.343823
               },
               "southwest" : {
                  "lat" : 11.112604,
                  "lng" : 77.33933789999999
               }
            },
            "location" : {
               "lat" : 11.1165968,
               "lng" : 77.3417748
            },
            "location_type" : "APPROXIMATE",
            "viewport" : {
               "northeast" : {
                  "lat" : 11.122025,
                  "lng" : 77.343823
               },
               "southwest" : {
                  "lat" : 11.112604,
                  "lng" : 77.33933789999999
               }
            }
         },
         "types" : [ "sublocality_level_1", "sublocality", "political" ]
      },
      {
         "address_components" : [
            {
               "long_name" : "Laxmi Nagar",
               "short_name" : "Laxmi Nagar",
               "types" : [ "sublocality_level_2", "sublocality", "political" ]
            },
            {
               "long_name" : "Habsiguda",
               "short_name" : "Habsiguda",
               "types" : [ "sublocality_level_1", "sublocality", "political" ]
            },
            {
               "long_name" : "Hyderabad",
               "short_name" : "Hyderabad",
               "types" : [ "locality", "political" ]
            },
            {
               "long_name" : "Hyderabad",
               "short_name" : "Hyderabad",
               "types" : [ "administrative_area_level_2", "political" ]
            },
            {
               "long_name" : "Telangana",
               "short_name" : "Telangana",
               "types" : [ "administrative_area_level_1", "political" ]
            },
            {
               "long_name" : "India",
               "short_name" : "IN",
               "types" : [ "country", "political" ]
            },
            {
               "long_name" : "500013",
               "short_name" : "500013",
               "types" : [ "postal_code" ]
            }
         ],
         "formatted_address" : "Laxmi Nagar, Habsiguda, Hyderabad, Telangana 500013, India",
         "geometry" : {
            "bounds" : {
               "northeast" : {
                  "lat" : 17.4029401,
                  "lng" : 78.543426
               },
               "southwest" : {
                  "lat" : 17.400811,
                  "lng" : 78.540823
               }
            },
            "location" : {
               "lat" : 17.4019645,
               "lng" : 78.54248269999999
            },
            "location_type" : "APPROXIMATE",
            "viewport" : {
               "northeast" : {
                  "lat" : 17.4032245302915,
                  "lng" : 78.54347348029151
               },
               "southwest" : {
                  "lat" : 17.4005265697085,
                  "lng" : 78.5407755197085
               }
            }
         },
         "types" : [ "sublocality_level_2", "sublocality", "political" ]
      }
   ],
   "status" : "OK"
}
