{
   "results" : [
      {
         "address_components" : [
            {
               "long_name" : "Max Mueller Marg",
               "short_name" : "Max Mueller Marg",
               "types" : [ "route" ]
            },
            {
               "long_name" : "New Delhi",
               "short_name" : "New Delhi",
               "types" : [ "locality", "political" ]
            },
            {
               "long_name" : "Delhi",
               "short_name" : "DL",
               "types" : [ "administrative_area_level_1", "political" ]
            },
            {
               "long_name" : "India",
               "short_name" : "IN",
               "types" : [ "country", "political" ]
            },
            {
               "long_name" : "110003",
               "short_name" : "110003",
               "types" : [ "postal_code" ]
            }
         ],
         "formatted_address" : "Max Mueller Marg, New Delhi, Delhi 110003, India",
         "geometry" : {
            "bounds" : {
               "northeast" : {
                  "lat" : 28.5973279,
                  "lng" : 77.22379959999999
               },
               "southwest" : {
                  "lat" : 28.5905093,
                  "lng" : 77.223316
               }
            },
            "location" : {
               "lat" : 28.5939618,
               "lng" : 77.2235075
            },
            "location_type" : "GEOMETRIC_CENTER",
            "viewport" : {
               "northeast" : {
                  "lat" : 28.5973279,
                  "lng" : 77.22490678029151
               },
               "southwest" : {
                  "lat" : 28.5905093,
                  "lng" : 77.22220881970848
               }
            }
         },
         "partial_match" : true,
         "types" : [ "route" ]
      },
      {
         "address_components" : [
            {
               "long_name" : "Max-Müller-Straße",
               "short_name" : "Max-Müller-Straße",
               "types" : [ "route" ]
            },
            {
               "long_name" : "Zittau",
               "short_name" : "Zittau",
               "types" : [ "locality", "political" ]
            },
            {
               "long_name" : "Dresden",
               "short_name" : "DD",
               "types" : [ "administrative_area_level_2", "political" ]
            },
            {
               "long_name" : "Sachsen",
               "short_name" : "SN",
               "types" : [ "administrative_area_level_1", "political" ]
            },
            {
               "long_name" : "Germany",
               "short_name" : "DE",
               "types" : [ "country", "political" ]
            },
            {
               "long_name" : "02763",
               "short_name" : "02763",
               "types" : [ "postal_code" ]
            }
         ],
         "formatted_address" : "Max-Müller-Straße, 02763 Zittau, Germany",
         "geometry" : {
            "bounds" : {
               "northeast" : {
                  "lat" : 50.8944315,
                  "lng" : 14.8165
               },
               "southwest" : {
                  "lat" : 50.890591,
                  "lng" : 14.8115432
               }
            },
            "location" : {
               "lat" : 50.8924665,
               "lng" : 14.8142673
            },
            "location_type" : "GEOMETRIC_CENTER",
            "viewport" : {
               "northeast" : {
                  "lat" : 50.8944315,
                  "lng" : 14.8165
               },
               "southwest" : {
                  "lat" : 50.890591,
                  "lng" : 14.8115432
               }
            }
         },
         "partial_match" : true,
         "types" : [ "route" ]
      },
      {
         "address_components" : [
            {
               "long_name" : "Max-Müller-Straße",
               "short_name" : "Max-Müller-Straße",
               "types" : [ "route" ]
            },
            {
               "long_name" : "Greding",
               "short_name" : "Greding",
               "types" : [ "locality", "political" ]
            },
            {
               "long_name" : "Mittelfranken",
               "short_name" : "Mittelfranken",
               "types" : [ "administrative_area_level_2", "political" ]
            },
            {
               "long_name" : "Bayern",
               "short_name" : "BY",
               "types" : [ "administrative_area_level_1", "political" ]
            },
            {
               "long_name" : "Germany",
               "short_name" : "DE",
               "types" : [ "country", "political" ]
            },
            {
               "long_name" : "91171",
               "short_name" : "91171",
               "types" : [ "postal_code" ]
            }
         ],
         "formatted_address" : "Max-Müller-Straße, 91171 Greding, Germany",
         "geometry" : {
            "bounds" : {
               "northeast" : {
                  "lat" : 49.048823,
                  "lng" : 11.36215
               },
               "southwest" : {
                  "lat" : 49.0455953,
                  "lng" : 11.3597345
               }
            },
            "location" : {
               "lat" : 49.0469795,
               "lng" : 11.3600995
            },
            "location_type" : "GEOMETRIC_CENTER",
            "viewport" : {
               "northeast" : {
                  "lat" : 49.048823,
                  "lng" : 11.3622912302915
               },
               "southwest" : {
                  "lat" : 49.0455953,
                  "lng" : 11.3595932697085
               }
            }
         },
         "partial_match" : true,
         "types" : [ "route" ]
      },
      {
         "address_components" : [
            {
               "long_name" : "Max Müller Strasse",
               "short_name" : "Max Müller Str.",
               "types" : [ "route" ]
            },
            {
               "long_name" : "Dietikon",
               "short_name" : "Dietikon",
               "types" : [ "locality", "political" ]
            },
            {
               "long_name" : "Dietikon",
               "short_name" : "Dietikon",
               "types" : [ "administrative_area_level_2", "political" ]
            },
            {
               "long_name" : "Zürich",
               "short_name" : "ZH",
               "types" : [ "administrative_area_level_1", "political" ]
            },
            {
               "long_name" : "Switzerland",
               "short_name" : "CH",
               "types" : [ "country", "political" ]
            },
            {
               "long_name" : "8953",
               "short_name" : "8953",
               "types" : [ "postal_code" ]
            }
         ],
         "formatted_address" : "Max Müller Strasse, 8953 Dietikon, Switzerland",
         "geometry" : {
            "bounds" : {
               "northeast" : {
                  "lat" : 47.3982633,
                  "lng" : 8.413758899999999
               },
               "southwest" : {
                  "lat" : 47.39700149999999,
                  "lng" : 8.4117157
               }
            },
            "location" : {
               "lat" : 47.3976104,
               "lng" : 8.412331499999999
            },
            "location_type" : "GEOMETRIC_CENTER",
            "viewport" : {
               "northeast" : {
                  "lat" : 47.3989813802915,
                  "lng" : 8.414086280291503
               },
               "southwest" : {
                  "lat" : 47.3962834197085,
                  "lng" : 8.411388319708498
               }
            }
         },
         "partial_match" : true,
         "types" : [ "route" ]
      },
      {
         "address_components" : [
            {
               "long_name" : "Max-Müller-Straße",
               "short_name" : "Max-Müller-Straße",
               "types" : [ "route" ]
            },
            {
               "long_name" : "Markersdorf",
               "short_name" : "Markersdorf",
               "types" : [ "sublocality_level_1", "sublocality", "political" ]
            },
            {
               "long_name" : "Chemnitz",
               "short_name" : "Chemnitz",
               "types" : [ "locality", "political" ]
            },
            {
               "long_name" : "Chemnitz",
               "short_name" : "C",
               "types" : [ "administrative_area_level_2", "political" ]
            },
            {
               "long_name" : "Sachsen",
               "short_name" : "SN",
               "types" : [ "administrative_area_level_1", "political" ]
            },
            {
               "long_name" : "Germany",
               "short_name" : "DE",
               "types" : [ "country", "political" ]
            },
            {
               "long_name" : "09123",
               "short_name" : "09123",
               "types" : [ "postal_code" ]
            }
         ],
         "formatted_address" : "Max-Müller-Straße, 09123 Chemnitz, Germany",
         "geometry" : {
            "bounds" : {
               "northeast" : {
                  "lat" : 50.7916946,
                  "lng" : 12.9015171
               },
               "southwest" : {
                  "lat" : 50.78688529999999,
                  "lng" : 12.8940291
               }
            },
            "location" : {
               "lat" : 50.7893869,
               "lng" : 12.8978435
            },
            "location_type" : "GEOMETRIC_CENTER",
            "viewport" : {
               "northeast" : {
                  "lat" : 50.7916946,
                  "lng" : 12.9015171
               },
               "southwest" : {
                  "lat" : 50.78688529999999,
                  "lng" : 12.8940291
               }
            }
         },
         "partial_match" : true,
         "types" : [ "route" ]
      },
      {
         "address_components" : [
            {
               "long_name" : "Max-Müller-Straße",
               "short_name" : "Max-Müller-Straße",
               "types" : [ "route" ]
            },
            {
               "long_name" : "Sankt Wendel",
               "short_name" : "St. Wendel",
               "types" : [ "locality", "political" ]
            },
            {
               "long_name" : "Saarland",
               "short_name" : "SL",
               "types" : [ "administrative_area_level_1", "political" ]
            },
            {
               "long_name" : "Germany",
               "short_name" : "DE",
               "types" : [ "country", "political" ]
            },
            {
               "long_name" : "66606",
               "short_name" : "66606",
               "types" : [ "postal_code" ]
            }
         ],
         "formatted_address" : "Max-Müller-Straße, 66606 Sankt Wendel, Germany",
         "geometry" : {
            "bounds" : {
               "northeast" : {
                  "lat" : 49.46116019999999,
                  "lng" : 7.1761029
               },
               "southwest" : {
                  "lat" : 49.45946379999999,
                  "lng" : 7.17173
               }
            },
            "location" : {
               "lat" : 49.4609114,
               "lng" : 7.173725799999999
            },
            "location_type" : "GEOMETRIC_CENTER",
            "viewport" : {
               "northeast" : {
                  "lat" : 49.4616609802915,
                  "lng" : 7.1761029
               },
               "southwest" : {
                  "lat" : 49.4589630197085,
                  "lng" : 7.17173
               }
            }
         },
         "partial_match" : true,
         "types" : [ "route" ]
      },
      {
         "address_components" : [
            {
               "long_name" : "Max-Müller-Straße",
               "short_name" : "Max-Müller-Straße",
               "types" : [ "route" ]
            },
            {
               "long_name" : "Nord",
               "short_name" : "Nord",
               "types" : [ "sublocality_level_1", "sublocality", "political" ]
            },
            {
               "long_name" : "Hannover",
               "short_name" : "Hannover",
               "types" : [ "locality", "political" ]
            },
            {
               "long_name" : "Niedersachsen",
               "short_name" : "NDS",
               "types" : [ "administrative_area_level_1", "political" ]
            },
            {
               "long_name" : "Germany",
               "short_name" : "DE",
               "types" : [ "country", "political" ]
            },
            {
               "long_name" : "30179",
               "short_name" : "30179",
               "types" : [ "postal_code" ]
            }
         ],
         "formatted_address" : "Max-Müller-Straße, 30179 Hannover, Germany",
         "geometry" : {
            "bounds" : {
               "northeast" : {
                  "lat" : 52.420809,
                  "lng" : 9.7223174
               },
               "southwest" : {
                  "lat" : 52.419,
                  "lng" : 9.71537
               }
            },
            "location" : {
               "lat" : 52.419455,
               "lng" : 9.719276799999999
            },
            "location_type" : "GEOMETRIC_CENTER",
            "viewport" : {
               "northeast" : {
                  "lat" : 52.4212534802915,
                  "lng" : 9.7223174
               },
               "southwest" : {
                  "lat" : 52.4185555197085,
                  "lng" : 9.71537
               }
            }
         },
         "partial_match" : true,
         "types" : [ "route" ]
      },
      {
         "address_components" : [
            {
               "long_name" : "Max-Müller-Weg",
               "short_name" : "Max-Müller-Weg",
               "types" : [ "route" ]
            },
            {
               "long_name" : "Arnach",
               "short_name" : "Arnach",
               "types" : [ "sublocality_level_1", "sublocality", "political" ]
            },
            {
               "long_name" : "Bad Wurzach",
               "short_name" : "Bad Wurzach",
               "types" : [ "locality", "political" ]
            },
            {
               "long_name" : "Tübingen",
               "short_name" : "TÜ",
               "types" : [ "administrative_area_level_2", "political" ]
            },
            {
               "long_name" : "Baden-Württemberg",
               "short_name" : "BW",
               "types" : [ "administrative_area_level_1", "political" ]
            },
            {
               "long_name" : "Germany",
               "short_name" : "DE",
               "types" : [ "country", "political" ]
            },
            {
               "long_name" : "88410",
               "short_name" : "88410",
               "types" : [ "postal_code" ]
            }
         ],
         "formatted_address" : "Max-Müller-Weg, 88410 Bad Wurzach, Germany",
         "geometry" : {
            "bounds" : {
               "northeast" : {
                  "lat" : 47.85113,
                  "lng" : 9.901589999999999
               },
               "southwest" : {
                  "lat" : 47.8506242,
                  "lng" : 9.900714899999999
               }
            },
            "location" : {
               "lat" : 47.8508291,
               "lng" : 9.9013095
            },
            "location_type" : "GEOMETRIC_CENTER",
            "viewport" : {
               "northeast" : {
                  "lat" : 47.8522260802915,
                  "lng" : 9.902501430291501
               },
               "southwest" : {
                  "lat" : 47.8495281197085,
                  "lng" : 9.899803469708496
               }
            }
         },
         "partial_match" : true,
         "types" : [ "route" ]
      },
      {
         "address_components" : [
            {
               "long_name" : "Goethe-Institut",
               "short_name" : "Goethe-Institut",
               "types" : [ "point_of_interest", "establishment" ]
            },
            {
               "long_name" : "First Stage",
               "short_name" : "First Stage",
               "types" : [ "neighborhood", "political" ]
            },
            {
               "long_name" : "Defence Colony",
               "short_name" : "Defence Colony",
               "types" : [ "sublocality_level_2", "sublocality", "political" ]
            },
            {
               "long_name" : "Indira Nagar 2nd Stage",
               "short_name" : "Indira Nagar 2nd Stage",
               "types" : [ "sublocality_level_1", "sublocality", "political" ]
            },
            {
               "long_name" : "Bengaluru",
               "short_name" : "Bengaluru",
               "types" : [ "locality", "political" ]
            },
            {
               "long_name" : "Bangalore Urban",
               "short_name" : "Bangalore Urban",
               "types" : [ "administrative_area_level_2", "political" ]
            },
            {
               "long_name" : "Karnataka",
               "short_name" : "KA",
               "types" : [ "administrative_area_level_1", "political" ]
            },
            {
               "long_name" : "India",
               "short_name" : "IN",
               "types" : [ "country", "political" ]
            },
            {
               "long_name" : "560038",
               "short_name" : "560038",
               "types" : [ "postal_code" ]
            }
         ],
         "formatted_address" : "Goethe-Institut, First Stage, Defence Colony, Indira Nagar 2nd Stage, Bengaluru, Karnataka 560038, India",
         "geometry" : {
            "location" : {
               "lat" : 12.9782393,
               "lng" : 77.6443881
            },
            "location_type" : "APPROXIMATE",
            "viewport" : {
               "northeast" : {
                  "lat" : 12.97958828029151,
                  "lng" : 77.64573708029151
               },
               "southwest" : {
                  "lat" : 12.9768903197085,
                  "lng" : 77.64303911970849
               }
            }
         },
         "partial_match" : true,
         "types" : [ "point_of_interest", "establishment" ]
      },
      {
         "address_components" : [
            {
               "long_name" : "Max Mueller Bhavan",
               "short_name" : "Max Mueller Bhavan",
               "types" : [ "point_of_interest", "establishment" ]
            },
            {
               "long_name" : "HC Mathur Lane",
               "short_name" : "HC Mathur Lane",
               "types" : [ "sublocality_level_1", "sublocality", "political" ]
            },
            {
               "long_name" : "New Delhi",
               "short_name" : "New Delhi",
               "types" : [ "locality", "political" ]
            },
            {
               "long_name" : "New Delhi",
               "short_name" : "New Delhi",
               "types" : [ "administrative_area_level_2", "political" ]
            },
            {
               "long_name" : "Delhi",
               "short_name" : "DL",
               "types" : [ "administrative_area_level_1", "political" ]
            },
            {
               "long_name" : "India",
               "short_name" : "IN",
               "types" : [ "country", "political" ]
            },
            {
               "long_name" : "110001",
               "short_name" : "110001",
               "types" : [ "postal_code" ]
            }
         ],
         "formatted_address" : "Max Mueller Bhavan, HC Mathur Lane, New Delhi, Delhi 110001, India",
         "geometry" : {
            "location" : {
               "lat" : 28.623891,
               "lng" : 77.22423499999999
            },
            "location_type" : "APPROXIMATE",
            "viewport" : {
               "northeast" : {
                  "lat" : 28.6252399802915,
                  "lng" : 77.2255839802915
               },
               "southwest" : {
                  "lat" : 28.6225420197085,
                  "lng" : 77.2228860197085
               }
            }
         },
         "partial_match" : true,
         "types" : [ "library", "point_of_interest", "establishment" ]
      },
      {
         "address_components" : [
            {
               "long_name" : "Max Muller Marg",
               "short_name" : "Max Muller Marg",
               "types" : [ "bus_station", "transit_station", "establishment" ]
            },
            {
               "long_name" : "Lodhi Gardens",
               "short_name" : "Lodhi Gardens",
               "types" : [ "sublocality_level_2", "sublocality", "political" ]
            },
            {
               "long_name" : "Lodhi Estate",
               "short_name" : "Lodhi Estate",
               "types" : [ "sublocality_level_1", "sublocality", "political" ]
            },
            {
               "long_name" : "New Delhi",
               "short_name" : "New Delhi",
               "types" : [ "locality", "political" ]
            },
            {
               "long_name" : "New Delhi",
               "short_name" : "New Delhi",
               "types" : [ "administrative_area_level_2", "political" ]
            },
            {
               "long_name" : "Delhi",
               "short_name" : "DL",
               "types" : [ "administrative_area_level_1", "political" ]
            },
            {
               "long_name" : "India",
               "short_name" : "IN",
               "types" : [ "country", "political" ]
            },
            {
               "long_name" : "110003",
               "short_name" : "110003",
               "types" : [ "postal_code" ]
            }
         ],
         "formatted_address" : "Max Muller Marg, Lodhi Gardens, Lodhi Estate, New Delhi, Delhi 110003",
         "geometry" : {
            "location" : {
               "lat" : 28.595903,
               "lng" : 77.22327899999999
            },
            "location_type" : "APPROXIMATE",
            "viewport" : {
               "northeast" : {
                  "lat" : 28.5972519802915,
                  "lng" : 77.2246279802915
               },
               "southwest" : {
                  "lat" : 28.5945540197085,
                  "lng" : 77.22193001970849
               }
            }
         },
         "partial_match" : true,
         "types" : [ "bus_station", "transit_station", "establishment" ]
      },
      {
         "address_components" : [
            {
               "long_name" : "Max Mueller Bhavan",
               "short_name" : "Max Mueller Bhavan",
               "types" : [ "premise" ]
            },
            {
               "long_name" : "K Dubash Marg",
               "short_name" : "K Dubash Marg",
               "types" : [ "route" ]
            },
            {
               "long_name" : "Kala Ghoda",
               "short_name" : "Kala Ghoda",
               "types" : [ "sublocality_level_2", "sublocality", "political" ]
            },
            {
               "long_name" : "Fort",
               "short_name" : "Fort",
               "types" : [ "sublocality_level_1", "sublocality", "political" ]
            },
            {
               "long_name" : "Mumbai",
               "short_name" : "Mumbai",
               "types" : [ "locality", "political" ]
            },
            {
               "long_name" : "Mumbai",
               "short_name" : "Mumbai",
               "types" : [ "administrative_area_level_2", "political" ]
            },
            {
               "long_name" : "Maharashtra",
               "short_name" : "MH",
               "types" : [ "administrative_area_level_1", "political" ]
            },
            {
               "long_name" : "India",
               "short_name" : "IN",
               "types" : [ "country", "political" ]
            },
            {
               "long_name" : "400001",
               "short_name" : "400001",
               "types" : [ "postal_code" ]
            }
         ],
         "formatted_address" : "Max Mueller Bhavan, K Dubash Marg, Kala Ghoda, Fort, Mumbai, Maharashtra 400001, India",
         "geometry" : {
            "location" : {
               "lat" : 18.9275949,
               "lng" : 72.8320463
            },
            "location_type" : "ROOFTOP",
            "viewport" : {
               "northeast" : {
                  "lat" : 18.9289438802915,
                  "lng" : 72.83339528029151
               },
               "southwest" : {
                  "lat" : 18.9262459197085,
                  "lng" : 72.83069731970849
               }
            }
         },
         "partial_match" : true,
         "types" : [ "premise" ]
      }
   ],
   "status" : "OK"
}
