{
   "results" : [
      {
         "address_components" : [
            {
               "long_name" : "Old Iron Road",
               "short_name" : "Old Iron Rd",
               "types" : [ "route" ]
            },
            {
               "long_name" : "Hermann",
               "short_name" : "Hermann",
               "types" : [ "locality", "political" ]
            },
            {
               "long_name" : "Roark",
               "short_name" : "Roark",
               "types" : [ "administrative_area_level_3", "political" ]
            },
            {
               "long_name" : "Gasconade County",
               "short_name" : "Gasconade County",
               "types" : [ "administrative_area_level_2", "political" ]
            },
            {
               "long_name" : "Missouri",
               "short_name" : "MO",
               "types" : [ "administrative_area_level_1", "political" ]
            },
            {
               "long_name" : "United States",
               "short_name" : "US",
               "types" : [ "country", "political" ]
            },
            {
               "long_name" : "65041",
               "short_name" : "65041",
               "types" : [ "postal_code" ]
            }
         ],
         "formatted_address" : "Old Iron Road, Hermann, MO 65041, USA",
         "geometry" : {
            "bounds" : {
               "northeast" : {
                  "lat" : 38.6589832,
                  "lng" : -91.47090799999999
               },
               "southwest" : {
                  "lat" : 38.585848,
                  "lng" : -91.48557129999999
               }
            },
            "location" : {
               "lat" : 38.6215319,
               "lng" : -91.474963
            },
            "location_type" : "GEOMETRIC_CENTER",
            "viewport" : {
               "northeast" : {
                  "lat" : 38.6589832,
                  "lng" : -91.47090799999999
               },
               "southwest" : {
                  "lat" : 38.585848,
                  "lng" : -91.48557129999999
               }
            }
         },
         "partial_match" : true,
         "types" : [ "route" ]
      },
      {
         "address_components" : [
            {
               "long_name" : "Old Iron Road",
               "short_name" : "Old Iron Rd",
               "types" : [ "route" ]
            },
            {
               "long_name" : "Hopewell",
               "short_name" : "Hopewell",
               "types" : [ "locality", "political" ]
            },
            {
               "long_name" : "Virginia",
               "short_name" : "VA",
               "types" : [ "administrative_area_level_1", "political" ]
            },
            {
               "long_name" : "United States",
               "short_name" : "US",
               "types" : [ "country", "political" ]
            },
            {
               "long_name" : "23860",
               "short_name" : "23860",
               "types" : [ "postal_code" ]
            }
         ],
         "formatted_address" : "Old Iron Road, Hopewell, VA 23860, USA",
         "geometry" : {
            "bounds" : {
               "northeast" : {
                  "lat" : 37.272136,
                  "lng" : -77.3102116
               },
               "southwest" : {
                  "lat" : 37.258457,
                  "lng" : -77.3127229
               }
            },
            "location" : {
               "lat" : 37.2656588,
               "lng" : -77.310569
            },
            "location_type" : "GEOMETRIC_CENTER",
            "viewport" : {
               "northeast" : {
                  "lat" : 37.272136,
                  "lng" : -77.31011826970848
               },
               "southwest" : {
                  "lat" : 37.258457,
                  "lng" : -77.3128162302915
               }
            }
         },
         "partial_match" : true,
         "types" : [ "route" ]
      },
      {
         "address_components" : [
            {
               "long_name" : "Old Iron Bridge",
               "short_name" : "Old Iron Bridge",
               "types" : [ "route" ]
            },
            {
               "long_name" : "Gandhi Nagar",
               "short_name" : "Gandhi Nagar",
               "types" : [ "sublocality_level_3", "sublocality", "political" ]
            },
            {
               "long_name" : "Silampur",
               "short_name" : "Silampur",
               "types" : [ "sublocality_level_2", "sublocality", "political" ]
            },
            {
               "long_name" : "Shahdara",
               "short_name" : "Shahdara",
               "types" : [ "sublocality_level_1", "sublocality", "political" ]
            },
            {
               "long_name" : "New Delhi",
               "short_name" : "New Delhi",
               "types" : [ "locality", "political" ]
            },
            {
               "long_name" : "North Delhi",
               "short_name" : "North Delhi",
               "types" : [ "administrative_area_level_2", "political" ]
            },
            {
               "long_name" : "Delhi",
               "short_name" : "DL",
               "types" : [ "administrative_area_level_1", "political" ]
            },
            {
               "long_name" : "India",
               "short_name" : "IN",
               "types" : [ "country", "political" ]
            },
            {
               "long_name" : "110006",
               "short_name" : "110006",
               "types" : [ "postal_code" ]
            }
         ],
         "formatted_address" : "Old Iron Bridge, Gandhi Nagar, Silampur, Shahdara, New Delhi, Delhi 110006, India",
         "geometry" : {
            "bounds" : {
               "northeast" : {
                  "lat" : 28.6651485,
                  "lng" : 77.2525053
               },
               "southwest" : {
                  "lat" : 28.6621056,
                  "lng" : 77.2449098
               }
            },
            "location" : {
               "lat" : 28.6635907,
               "lng" : 77.2486164
            },
            "location_type" : "GEOMETRIC_CENTER",
            "viewport" : {
               "northeast" : {
                  "lat" : 28.6651485,
                  "lng" : 77.2525053
               },
               "southwest" : {
                  "lat" : 28.6621056,
                  "lng" : 77.2449098
               }
            }
         },
         "partial_match" : true,
         "types" : [ "route" ]
      },
      {
         "address_components" : [
            {
               "long_name" : "Old Iron Road",
               "short_name" : "Old Iron Rd",
               "types" : [ "route" ]
            },
            {
               "long_name" : "Columbia",
               "short_name" : "Columbia",
               "types" : [ "locality", "political" ]
            },
            {
               "long_name" : "Richland County",
               "short_name" : "Richland County",
               "types" : [ "administrative_area_level_2", "political" ]
            },
            {
               "long_name" : "South Carolina",
               "short_name" : "SC",
               "types" : [ "administrative_area_level_1", "political" ]
            },
            {
               "long_name" : "United States",
               "short_name" : "US",
               "types" : [ "country", "political" ]
            },
            {
               "long_name" : "29229",
               "short_name" : "29229",
               "types" : [ "postal_code" ]
            }
         ],
         "formatted_address" : "Old Iron Road, Columbia, SC 29229, USA",
         "geometry" : {
            "bounds" : {
               "northeast" : {
                  "lat" : 34.1015575,
                  "lng" : -80.850081
               },
               "southwest" : {
                  "lat" : 34.0985969,
                  "lng" : -80.85145
               }
            },
            "location" : {
               "lat" : 34.0997518,
               "lng" : -80.85082280000002
            },
            "location_type" : "GEOMETRIC_CENTER",
            "viewport" : {
               "northeast" : {
                  "lat" : 34.1015575,
                  "lng" : -80.84941651970848
               },
               "southwest" : {
                  "lat" : 34.0985969,
                  "lng" : -80.8521144802915
               }
            }
         },
         "partial_match" : true,
         "types" : [ "route" ]
      },
      {
         "address_components" : [
            {
               "long_name" : "Old Iron Lane",
               "short_name" : "Old Iron Ln",
               "types" : [ "route" ]
            },
            {
               "long_name" : "Bradfield Farms",
               "short_name" : "Bradfield Farms",
               "types" : [ "neighborhood", "political" ]
            },
            {
               "long_name" : "Charlotte",
               "short_name" : "Charlotte",
               "types" : [ "locality", "political" ]
            },
            {
               "long_name" : "6, Clear Creek",
               "short_name" : "6, Clear Creek",
               "types" : [ "administrative_area_level_3", "political" ]
            },
            {
               "long_name" : "Mecklenburg County",
               "short_name" : "Mecklenburg County",
               "types" : [ "administrative_area_level_2", "political" ]
            },
            {
               "long_name" : "North Carolina",
               "short_name" : "NC",
               "types" : [ "administrative_area_level_1", "political" ]
            },
            {
               "long_name" : "United States",
               "short_name" : "US",
               "types" : [ "country", "political" ]
            },
            {
               "long_name" : "28215",
               "short_name" : "28215",
               "types" : [ "postal_code" ]
            }
         ],
         "formatted_address" : "Old Iron Lane, Charlotte, NC 28215, USA",
         "geometry" : {
            "bounds" : {
               "northeast" : {
                  "lat" : 35.2376106,
                  "lng" : -80.63814900000001
               },
               "southwest" : {
                  "lat" : 35.236433,
                  "lng" : -80.63934399999999
               }
            },
            "location" : {
               "lat" : 35.2371129,
               "lng" : -80.638836
            },
            "location_type" : "GEOMETRIC_CENTER",
            "viewport" : {
               "northeast" : {
                  "lat" : 35.2383707802915,
                  "lng" : -80.63739751970851
               },
               "southwest" : {
                  "lat" : 35.2356728197085,
                  "lng" : -80.64009548029152
               }
            }
         },
         "partial_match" : true,
         "types" : [ "route" ]
      },
      {
         "address_components" : [
            {
               "long_name" : "Old Iron Court",
               "short_name" : "Old Iron Ct",
               "types" : [ "route" ]
            },
            {
               "long_name" : "Hopewell",
               "short_name" : "Hopewell",
               "types" : [ "locality", "political" ]
            },
            {
               "long_name" : "Virginia",
               "short_name" : "VA",
               "types" : [ "administrative_area_level_1", "political" ]
            },
            {
               "long_name" : "United States",
               "short_name" : "US",
               "types" : [ "country", "political" ]
            },
            {
               "long_name" : "23860",
               "short_name" : "23860",
               "types" : [ "postal_code" ]
            }
         ],
         "formatted_address" : "Old Iron Court, Hopewell, VA 23860, USA",
         "geometry" : {
            "bounds" : {
               "northeast" : {
                  "lat" : 37.268453,
                  "lng" : -77.311509
               },
               "southwest" : {
                  "lat" : 37.26722790000001,
                  "lng" : -77.3171179
               }
            },
            "location" : {
               "lat" : 37.267887,
               "lng" : -77.3141519
            },
            "location_type" : "GEOMETRIC_CENTER",
            "viewport" : {
               "northeast" : {
                  "lat" : 37.2691894302915,
                  "lng" : -77.311509
               },
               "southwest" : {
                  "lat" : 37.26649146970851,
                  "lng" : -77.3171179
               }
            }
         },
         "partial_match" : true,
         "types" : [ "route" ]
      },
      {
         "address_components" : [
            {
               "long_name" : "Old Iron Road",
               "short_name" : "Old Iron Rd",
               "types" : [ "route" ]
            },
            {
               "long_name" : "Bethel",
               "short_name" : "Bethel",
               "types" : [ "locality", "political" ]
            },
            {
               "long_name" : "Oxford County",
               "short_name" : "Oxford County",
               "types" : [ "administrative_area_level_2", "political" ]
            },
            {
               "long_name" : "Maine",
               "short_name" : "ME",
               "types" : [ "administrative_area_level_1", "political" ]
            },
            {
               "long_name" : "United States",
               "short_name" : "US",
               "types" : [ "country", "political" ]
            },
            {
               "long_name" : "04217",
               "short_name" : "04217",
               "types" : [ "postal_code" ]
            }
         ],
         "formatted_address" : "Old Iron Road, Bethel, ME 04217, USA",
         "geometry" : {
            "bounds" : {
               "northeast" : {
                  "lat" : 44.4239571,
                  "lng" : -70.81044439999999
               },
               "southwest" : {
                  "lat" : 44.420931,
                  "lng" : -70.8128632
               }
            },
            "location" : {
               "lat" : 44.4224565,
               "lng" : -70.81177439999999
            },
            "location_type" : "GEOMETRIC_CENTER",
            "viewport" : {
               "northeast" : {
                  "lat" : 44.4239571,
                  "lng" : -70.81030481970849
               },
               "southwest" : {
                  "lat" : 44.420931,
                  "lng" : -70.81300278029151
               }
            }
         },
         "partial_match" : true,
         "types" : [ "route" ]
      },
      {
         "address_components" : [
            {
               "long_name" : "Old Iron Lane",
               "short_name" : "Old Iron Ln",
               "types" : [ "route" ]
            },
            {
               "long_name" : "Keysville",
               "short_name" : "Keysville",
               "types" : [ "locality", "political" ]
            },
            {
               "long_name" : "Walton",
               "short_name" : "Walton",
               "types" : [ "administrative_area_level_3", "political" ]
            },
            {
               "long_name" : "Charlotte County",
               "short_name" : "Charlotte County",
               "types" : [ "administrative_area_level_2", "political" ]
            },
            {
               "long_name" : "Virginia",
               "short_name" : "VA",
               "types" : [ "administrative_area_level_1", "political" ]
            },
            {
               "long_name" : "United States",
               "short_name" : "US",
               "types" : [ "country", "political" ]
            },
            {
               "long_name" : "23947",
               "short_name" : "23947",
               "types" : [ "postal_code" ]
            }
         ],
         "formatted_address" : "Old Iron Lane, Keysville, VA 23947, USA",
         "geometry" : {
            "bounds" : {
               "northeast" : {
                  "lat" : 37.1096322,
                  "lng" : -78.52043399999999
               },
               "southwest" : {
                  "lat" : 37.1075001,
                  "lng" : -78.5228108
               }
            },
            "location" : {
               "lat" : 37.107681,
               "lng" : -78.5217682
            },
            "location_type" : "GEOMETRIC_CENTER",
            "viewport" : {
               "northeast" : {
                  "lat" : 37.1099151302915,
                  "lng" : -78.52027341970849
               },
               "southwest" : {
                  "lat" : 37.1072171697085,
                  "lng" : -78.52297138029149
               }
            }
         },
         "partial_match" : true,
         "types" : [ "route" ]
      },
      {
         "address_components" : [
            {
               "long_name" : "Old Iron Lane",
               "short_name" : "Old Iron Ln",
               "types" : [ "route" ]
            },
            {
               "long_name" : "The George Washington and Jefferson National Forests",
               "short_name" : "The George Washington and Jefferson National Forests",
               "types" : [ "establishment" ]
            },
            {
               "long_name" : "Mathias",
               "short_name" : "Mathias",
               "types" : [ "locality", "political" ]
            },
            {
               "long_name" : "Lost River",
               "short_name" : "Lost River",
               "types" : [ "administrative_area_level_3", "political" ]
            },
            {
               "long_name" : "Hardy County",
               "short_name" : "Hardy County",
               "types" : [ "administrative_area_level_2", "political" ]
            },
            {
               "long_name" : "West Virginia",
               "short_name" : "WV",
               "types" : [ "administrative_area_level_1", "political" ]
            },
            {
               "long_name" : "United States",
               "short_name" : "US",
               "types" : [ "country", "political" ]
            },
            {
               "long_name" : "26812",
               "short_name" : "26812",
               "types" : [ "postal_code" ]
            }
         ],
         "formatted_address" : "The George Washington and Jefferson National Forests, Old Iron Lane, Mathias, WV 26812, USA",
         "geometry" : {
            "bounds" : {
               "northeast" : {
                  "lat" : 38.8688019,
                  "lng" : -78.8223699
               },
               "southwest" : {
                  "lat" : 38.8678389,
                  "lng" : -78.82713799999999
               }
            },
            "location" : {
               "lat" : 38.868581,
               "lng" : -78.823554
            },
            "location_type" : "GEOMETRIC_CENTER",
            "viewport" : {
               "northeast" : {
                  "lat" : 38.8696693802915,
                  "lng" : -78.8223699
               },
               "southwest" : {
                  "lat" : 38.86697141970851,
                  "lng" : -78.82713799999999
               }
            }
         },
         "partial_match" : true,
         "types" : [ "route" ]
      },
      {
         "address_components" : [
            {
               "long_name" : "Old Iron Mountain",
               "short_name" : "Old Iron Mountain",
               "types" : [ "natural_feature", "establishment" ]
            },
            {
               "long_name" : "Eldorado National Forest",
               "short_name" : "Eldorado National Forest",
               "types" : [ "establishment" ]
            },
            {
               "long_name" : "El Dorado County",
               "short_name" : "El Dorado County",
               "types" : [ "administrative_area_level_2", "political" ]
            },
            {
               "long_name" : "California",
               "short_name" : "CA",
               "types" : [ "administrative_area_level_1", "political" ]
            },
            {
               "long_name" : "United States",
               "short_name" : "US",
               "types" : [ "country", "political" ]
            }
         ],
         "formatted_address" : "Old Iron Mountain, Eldorado National Forest, California, USA",
         "geometry" : {
            "location" : {
               "lat" : 38.7054622,
               "lng" : -120.3913084
            },
            "location_type" : "APPROXIMATE",
            "viewport" : {
               "northeast" : {
                  "lat" : 38.7068111802915,
                  "lng" : -120.3899594197085
               },
               "southwest" : {
                  "lat" : 38.7041132197085,
                  "lng" : -120.3926573802915
               }
            }
         },
         "partial_match" : true,
         "types" : [ "natural_feature", "establishment" ]
      },
      {
         "address_components" : [
            {
               "long_name" : "Old Ironworks Court",
               "short_name" : "Old Ironworks Ct",
               "types" : [ "route" ]
            },
            {
               "long_name" : "Greensboro",
               "short_name" : "Greensboro",
               "types" : [ "locality", "political" ]
            },
            {
               "long_name" : "Center Grove",
               "short_name" : "Center Grove",
               "types" : [ "administrative_area_level_3", "political" ]
            },
            {
               "long_name" : "Guilford County",
               "short_name" : "Guilford County",
               "types" : [ "administrative_area_level_2", "political" ]
            },
            {
               "long_name" : "North Carolina",
               "short_name" : "NC",
               "types" : [ "administrative_area_level_1", "political" ]
            },
            {
               "long_name" : "United States",
               "short_name" : "US",
               "types" : [ "country", "political" ]
            },
            {
               "long_name" : "27455",
               "short_name" : "27455",
               "types" : [ "postal_code" ]
            }
         ],
         "formatted_address" : "Old Ironworks Court, Greensboro, NC 27455, USA",
         "geometry" : {
            "bounds" : {
               "northeast" : {
                  "lat" : 36.1983559,
                  "lng" : -79.8370659
               },
               "southwest" : {
                  "lat" : 36.197353,
                  "lng" : -79.8387939
               }
            },
            "location" : {
               "lat" : 36.1978163,
               "lng" : -79.83770749999999
            },
            "location_type" : "GEOMETRIC_CENTER",
            "viewport" : {
               "northeast" : {
                  "lat" : 36.1992034302915,
                  "lng" : -79.8365809197085
               },
               "southwest" : {
                  "lat" : 36.1965054697085,
                  "lng" : -79.83927888029152
               }
            }
         },
         "partial_match" : true,
         "types" : [ "route" ]
      },
      {
         "address_components" : [
            {
               "long_name" : "The Old Iron House",
               "short_name" : "The Old Iron House",
               "types" : [ "premise" ]
            },
            {
               "long_name" : "26",
               "short_name" : "26",
               "types" : [ "street_number" ]
            },
            {
               "long_name" : "Exchange Street",
               "short_name" : "Exchange St",
               "types" : [ "route" ]
            },
            {
               "long_name" : "Norwich",
               "short_name" : "Norwich",
               "types" : [ "locality", "political" ]
            },
            {
               "long_name" : "Norwich",
               "short_name" : "Norwich",
               "types" : [ "postal_town" ]
            },
            {
               "long_name" : "Norfolk",
               "short_name" : "Norfk",
               "types" : [ "administrative_area_level_2", "political" ]
            },
            {
               "long_name" : "United Kingdom",
               "short_name" : "GB",
               "types" : [ "country", "political" ]
            },
            {
               "long_name" : "NR2 1AX",
               "short_name" : "NR2 1AX",
               "types" : [ "postal_code" ]
            }
         ],
         "formatted_address" : "The Old Iron House, 26 Exchange Street, Norwich, Norfolk NR2 1AX, UK",
         "geometry" : {
            "location" : {
               "lat" : 52.6300815,
               "lng" : 1.2936827
            },
            "location_type" : "ROOFTOP",
            "viewport" : {
               "northeast" : {
                  "lat" : 52.63143048029149,
                  "lng" : 1.295031680291502
               },
               "southwest" : {
                  "lat" : 52.62873251970849,
                  "lng" : 1.292333719708498
               }
            }
         },
         "partial_match" : true,
         "types" : [ "premise" ]
      },
      {
         "address_components" : [
            {
               "long_name" : "Old Iron Foundry",
               "short_name" : "Old Iron Foundry",
               "types" : [ "route" ]
            },
            {
               "long_name" : "King's Somborne",
               "short_name" : "King's Somborne",
               "types" : [ "locality", "political" ]
            },
            {
               "long_name" : "Stockbridge",
               "short_name" : "Stockbridge",
               "types" : [ "postal_town" ]
            },
            {
               "long_name" : "Hampshire",
               "short_name" : "Hants",
               "types" : [ "administrative_area_level_2", "political" ]
            },
            {
               "long_name" : "United Kingdom",
               "short_name" : "GB",
               "types" : [ "country", "political" ]
            },
            {
               "long_name" : "SO20 6RP",
               "short_name" : "SO20 6RP",
               "types" : [ "postal_code" ]
            }
         ],
         "formatted_address" : "Old Iron Foundry, King's Somborne, Stockbridge, Hampshire SO20 6RP, UK",
         "geometry" : {
            "bounds" : {
               "northeast" : {
                  "lat" : 51.0776023,
                  "lng" : -1.4879512
               },
               "southwest" : {
                  "lat" : 51.0770893,
                  "lng" : -1.4884762
               }
            },
            "location" : {
               "lat" : 51.0773571,
               "lng" : -1.4882114
            },
            "location_type" : "GEOMETRIC_CENTER",
            "viewport" : {
               "northeast" : {
                  "lat" : 51.07869478029149,
                  "lng" : -1.486864719708498
               },
               "southwest" : {
                  "lat" : 51.0759968197085,
                  "lng" : -1.489562680291502
               }
            }
         },
         "partial_match" : true,
         "types" : [ "route" ]
      },
      {
         "address_components" : [
            {
               "long_name" : "Old Highway 82",
               "short_name" : "Old Hwy 82",
               "types" : [ "route" ]
            },
            {
               "long_name" : "Winona",
               "short_name" : "Winona",
               "types" : [ "locality", "political" ]
            },
            {
               "long_name" : "Montgomery County",
               "short_name" : "Montgomery County",
               "types" : [ "administrative_area_level_2", "political" ]
            },
            {
               "long_name" : "Mississippi",
               "short_name" : "MS",
               "types" : [ "administrative_area_level_1", "political" ]
            },
            {
               "long_name" : "United States",
               "short_name" : "US",
               "types" : [ "country", "political" ]
            },
            {
               "long_name" : "38967",
               "short_name" : "38967",
               "types" : [ "postal_code" ]
            }
         ],
         "formatted_address" : "Old Highway 82, Winona, MS 38967, USA",
         "geometry" : {
            "bounds" : {
               "northeast" : {
                  "lat" : 33.4897894,
                  "lng" : -89.771625
               },
               "southwest" : {
                  "lat" : 33.4870281,
                  "lng" : -89.78510129999999
               }
            },
            "location" : {
               "lat" : 33.4873129,
               "lng" : -89.7789047
            },
            "location_type" : "GEOMETRIC_CENTER",
            "viewport" : {
               "northeast" : {
                  "lat" : 33.4897894,
                  "lng" : -89.771625
               },
               "southwest" : {
                  "lat" : 33.4870281,
                  "lng" : -89.78510129999999
               }
            }
         },
         "partial_match" : true,
         "types" : [ "route" ]
      },
      {
         "address_components" : [
            {
               "long_name" : "Old Iron Bridge",
               "short_name" : "Old Iron Bridge",
               "types" : [ "route" ]
            },
            {
               "long_name" : "Singtam",
               "short_name" : "Singtam",
               "types" : [ "locality", "political" ]
            },
            {
               "long_name" : "East Sikkim",
               "short_name" : "East Sikkim",
               "types" : [ "administrative_area_level_2", "political" ]
            },
            {
               "long_name" : "Sikkim",
               "short_name" : "SK",
               "types" : [ "administrative_area_level_1", "political" ]
            },
            {
               "long_name" : "India",
               "short_name" : "IN",
               "types" : [ "country", "political" ]
            },
            {
               "long_name" : "737134",
               "short_name" : "737134",
               "types" : [ "postal_code" ]
            }
         ],
         "formatted_address" : "Old Iron Bridge, Singtam, Sikkim 737134, India",
         "geometry" : {
            "bounds" : {
               "northeast" : {
                  "lat" : 27.2310056,
                  "lng" : 88.4968535
               },
               "southwest" : {
                  "lat" : 27.2305739,
                  "lng" : 88.4968322
               }
            },
            "location" : {
               "lat" : 27.2310056,
               "lng" : 88.4968322
            },
            "location_type" : "GEOMETRIC_CENTER",
            "viewport" : {
               "northeast" : {
                  "lat" : 27.2321387302915,
                  "lng" : 88.4981918302915
               },
               "southwest" : {
                  "lat" : 27.2294407697085,
                  "lng" : 88.4954938697085
               }
            }
         },
         "partial_match" : true,
         "types" : [ "route" ]
      },
      {
         "address_components" : [
            {
               "long_name" : "Old Iron Mountain Road",
               "short_name" : "Old Iron Mountain Rd",
               "types" : [ "route" ]
            },
            {
               "long_name" : "Cherokee National Forest",
               "short_name" : "Cherokee National Forest",
               "types" : [ "establishment" ]
            },
            {
               "long_name" : "Unicoi",
               "short_name" : "Unicoi",
               "types" : [ "locality", "political" ]
            },
            {
               "long_name" : "Unicoi County",
               "short_name" : "Unicoi County",
               "types" : [ "administrative_area_level_2", "political" ]
            },
            {
               "long_name" : "Tennessee",
               "short_name" : "TN",
               "types" : [ "administrative_area_level_1", "political" ]
            },
            {
               "long_name" : "United States",
               "short_name" : "US",
               "types" : [ "country", "political" ]
            },
            {
               "long_name" : "37692",
               "short_name" : "37692",
               "types" : [ "postal_code" ]
            }
         ],
         "formatted_address" : "Cherokee National Forest, Old Iron Mountain Road, Unicoi, TN 37692, USA",
         "geometry" : {
            "bounds" : {
               "northeast" : {
                  "lat" : 36.1828289,
                  "lng" : -82.2386733
               },
               "southwest" : {
                  "lat" : 36.166086,
                  "lng" : -82.25743399999999
               }
            },
            "location" : {
               "lat" : 36.1740845,
               "lng" : -82.2478728
            },
            "location_type" : "GEOMETRIC_CENTER",
            "viewport" : {
               "northeast" : {
                  "lat" : 36.1828289,
                  "lng" : -82.2386733
               },
               "southwest" : {
                  "lat" : 36.166086,
                  "lng" : -82.25743399999999
               }
            }
         },
         "partial_match" : true,
         "types" : [ "route" ]
      },
      {
         "address_components" : [
            {
               "long_name" : "Old Iron Works Road",
               "short_name" : "Old Iron Works Rd",
               "types" : [ "route" ]
            },
            {
               "long_name" : "Spartanburg",
               "short_name" : "Spartanburg",
               "types" : [ "locality", "political" ]
            },
            {
               "long_name" : "Spartanburg County",
               "short_name" : "Spartanburg County",
               "types" : [ "administrative_area_level_2", "political" ]
            },
            {
               "long_name" : "South Carolina",
               "short_name" : "SC",
               "types" : [ "administrative_area_level_1", "political" ]
            },
            {
               "long_name" : "United States",
               "short_name" : "US",
               "types" : [ "country", "political" ]
            },
            {
               "long_name" : "29302",
               "short_name" : "29302",
               "types" : [ "postal_code" ]
            }
         ],
         "formatted_address" : "Old Iron Works Road, Spartanburg, SC 29302, USA",
         "geometry" : {
            "bounds" : {
               "northeast" : {
                  "lat" : 34.93931,
                  "lng" : -81.841534
               },
               "southwest" : {
                  "lat" : 34.931827,
                  "lng" : -81.85165900000001
               }
            },
            "location" : {
               "lat" : 34.9373178,
               "lng" : -81.8440775
            },
            "location_type" : "GEOMETRIC_CENTER",
            "viewport" : {
               "northeast" : {
                  "lat" : 34.93931,
                  "lng" : -81.841534
               },
               "southwest" : {
                  "lat" : 34.931827,
                  "lng" : -81.85165900000001
               }
            }
         },
         "partial_match" : true,
         "types" : [ "route" ]
      },
      {
         "address_components" : [
            {
               "long_name" : "Old Iron Mountain Road",
               "short_name" : "Old Iron Mountain Rd",
               "types" : [ "route" ]
            },
            {
               "long_name" : "Bloomfield",
               "short_name" : "Bloomfield",
               "types" : [ "locality", "political" ]
            },
            {
               "long_name" : "Greene County",
               "short_name" : "Greene County",
               "types" : [ "administrative_area_level_2", "political" ]
            },
            {
               "long_name" : "Indiana",
               "short_name" : "IN",
               "types" : [ "administrative_area_level_1", "political" ]
            },
            {
               "long_name" : "United States",
               "short_name" : "US",
               "types" : [ "country", "political" ]
            },
            {
               "long_name" : "47424",
               "short_name" : "47424",
               "types" : [ "postal_code" ]
            }
         ],
         "formatted_address" : "Old Iron Mountain Road, Bloomfield, IN 47424, USA",
         "geometry" : {
            "bounds" : {
               "northeast" : {
                  "lat" : 38.9951099,
                  "lng" : -86.90393739999999
               },
               "southwest" : {
                  "lat" : 38.984485,
                  "lng" : -86.915409
               }
            },
            "location" : {
               "lat" : 38.9896981,
               "lng" : -86.90847339999999
            },
            "location_type" : "GEOMETRIC_CENTER",
            "viewport" : {
               "northeast" : {
                  "lat" : 38.9951099,
                  "lng" : -86.90393739999999
               },
               "southwest" : {
                  "lat" : 38.984485,
                  "lng" : -86.915409
               }
            }
         },
         "partial_match" : true,
         "types" : [ "route" ]
      },
      {
         "address_components" : [
            {
               "long_name" : "Old Iron Bridge Lane",
               "short_name" : "Old Iron Bridge Ln",
               "types" : [ "route" ]
            },
            {
               "long_name" : "Newland",
               "short_name" : "Newland",
               "types" : [ "locality", "political" ]
            },
            {
               "long_name" : "Linville",
               "short_name" : "Linville",
               "types" : [ "administrative_area_level_3", "political" ]
            },
            {
               "long_name" : "Avery County",
               "short_name" : "Avery County",
               "types" : [ "administrative_area_level_2", "political" ]
            },
            {
               "long_name" : "North Carolina",
               "short_name" : "NC",
               "types" : [ "administrative_area_level_1", "political" ]
            },
            {
               "long_name" : "United States",
               "short_name" : "US",
               "types" : [ "country", "political" ]
            },
            {
               "long_name" : "28657",
               "short_name" : "28657",
               "types" : [ "postal_code" ]
            }
         ],
         "formatted_address" : "Old Iron Bridge Lane, Newland, NC 28657, USA",
         "geometry" : {
            "bounds" : {
               "northeast" : {
                  "lat" : 36.0685638,
                  "lng" : -81.885458
               },
               "southwest" : {
                  "lat" : 36.0672521,
                  "lng" : -81.88880899999999
               }
            },
            "location" : {
               "lat" : 36.0681094,
               "lng" : -81.8882634
            },
            "location_type" : "GEOMETRIC_CENTER",
            "viewport" : {
               "northeast" : {
                  "lat" : 36.0692569302915,
                  "lng" : -81.885458
               },
               "southwest" : {
                  "lat" : 36.0665589697085,
                  "lng" : -81.88880899999999
               }
            }
         },
         "partial_match" : true,
         "types" : [ "route" ]
      },
      {
         "address_components" : [
            {
               "long_name" : "Old Iron Ore Road",
               "short_name" : "Old Iron Ore Rd",
               "types" : [ "route" ]
            },
            {
               "long_name" : "Bloomfield",
               "short_name" : "Bloomfield",
               "types" : [ "locality", "political" ]
            },
            {
               "long_name" : "Hartford County",
               "short_name" : "Hartford County",
               "types" : [ "administrative_area_level_2", "political" ]
            },
            {
               "long_name" : "Connecticut",
               "short_name" : "CT",
               "types" : [ "administrative_area_level_1", "political" ]
            },
            {
               "long_name" : "United States",
               "short_name" : "US",
               "types" : [ "country", "political" ]
            },
            {
               "long_name" : "06002",
               "short_name" : "06002",
               "types" : [ "postal_code" ]
            }
         ],
         "formatted_address" : "Old Iron Ore Road, Bloomfield, CT 06002, USA",
         "geometry" : {
            "bounds" : {
               "northeast" : {
                  "lat" : 41.8632155,
                  "lng" : -72.7006002
               },
               "southwest" : {
                  "lat" : 41.852508,
                  "lng" : -72.7083238
               }
            },
            "location" : {
               "lat" : 41.8578748,
               "lng" : -72.702381
            },
            "location_type" : "GEOMETRIC_CENTER",
            "viewport" : {
               "northeast" : {
                  "lat" : 41.8632155,
                  "lng" : -72.7006002
               },
               "southwest" : {
                  "lat" : 41.852508,
                  "lng" : -72.7083238
               }
            }
         },
         "partial_match" : true,
         "types" : [ "route" ]
      },
      {
         "address_components" : [
            {
               "long_name" : "Old Iron Bridge",
               "short_name" : "Old Iron Bridge",
               "types" : [ "route" ]
            },
            {
               "long_name" : "Metro Vihar",
               "short_name" : "Metro Vihar",
               "types" : [ "sublocality_level_3", "sublocality", "political" ]
            },
            {
               "long_name" : "Shastri Park",
               "short_name" : "Shastri Park",
               "types" : [ "sublocality_level_2", "sublocality", "political" ]
            },
            {
               "long_name" : "Shahdara",
               "short_name" : "Shahdara",
               "types" : [ "sublocality_level_1", "sublocality", "political" ]
            },
            {
               "long_name" : "New Delhi",
               "short_name" : "New Delhi",
               "types" : [ "locality", "political" ]
            },
            {
               "long_name" : "North Delhi",
               "short_name" : "North Delhi",
               "types" : [ "administrative_area_level_2", "political" ]
            },
            {
               "long_name" : "Delhi",
               "short_name" : "DL",
               "types" : [ "administrative_area_level_1", "political" ]
            },
            {
               "long_name" : "India",
               "short_name" : "IN",
               "types" : [ "country", "political" ]
            },
            {
               "long_name" : "110002",
               "short_name" : "110002",
               "types" : [ "postal_code" ]
            }
         ],
         "formatted_address" : "Old Iron Bridge, Metro Vihar, Shastri Park, Shahdara, New Delhi, Delhi 110002",
         "geometry" : {
            "location" : {
               "lat" : 28.6621393,
               "lng" : 77.2448588
            },
            "location_type" : "GEOMETRIC_CENTER",
            "viewport" : {
               "northeast" : {
                  "lat" : 28.6634882802915,
                  "lng" : 77.2462077802915
               },
               "southwest" : {
                  "lat" : 28.6607903197085,
                  "lng" : 77.24350981970849
               }
            }
         },
         "partial_match" : true,
         "types" : [ "route" ]
      },
      {
         "address_components" : [
            {
               "long_name" : "Old Iron Point Road",
               "short_name" : "Old Iron Point Rd",
               "types" : [ "route" ]
            },
            {
               "long_name" : "Cobbs Creek",
               "short_name" : "Cobbs Creek",
               "types" : [ "locality", "political" ]
            },
            {
               "long_name" : "Piankatank",
               "short_name" : "Piankatank",
               "types" : [ "administrative_area_level_3", "political" ]
            },
            {
               "long_name" : "Mathews County",
               "short_name" : "Mathews County",
               "types" : [ "administrative_area_level_2", "political" ]
            },
            {
               "long_name" : "Virginia",
               "short_name" : "VA",
               "types" : [ "administrative_area_level_1", "political" ]
            },
            {
               "long_name" : "United States",
               "short_name" : "US",
               "types" : [ "country", "political" ]
            },
            {
               "long_name" : "23035",
               "short_name" : "23035",
               "types" : [ "postal_code" ]
            }
         ],
         "formatted_address" : "Old Iron Point Road, Cobbs Creek, VA 23035, USA",
         "geometry" : {
            "bounds" : {
               "northeast" : {
                  "lat" : 37.5221377,
                  "lng" : -76.3609822
               },
               "southwest" : {
                  "lat" : 37.518108,
                  "lng" : -76.3678669
               }
            },
            "location" : {
               "lat" : 37.520281,
               "lng" : -76.36534300000001
            },
            "location_type" : "GEOMETRIC_CENTER",
            "viewport" : {
               "northeast" : {
                  "lat" : 37.5221377,
                  "lng" : -76.3609822
               },
               "southwest" : {
                  "lat" : 37.518108,
                  "lng" : -76.3678669
               }
            }
         },
         "partial_match" : true,
         "types" : [ "route" ]
      },
      {
         "address_components" : [
            {
               "long_name" : "Old Iron Bridge Road",
               "short_name" : "Old Iron Bridge Rd",
               "types" : [ "route" ]
            },
            {
               "long_name" : "Pukaki",
               "short_name" : "Pukaki",
               "types" : [ "locality", "political" ]
            },
            {
               "long_name" : "Canterbury",
               "short_name" : "Canterbury",
               "types" : [ "administrative_area_level_1", "political" ]
            },
            {
               "long_name" : "New Zealand",
               "short_name" : "NZ",
               "types" : [ "country", "political" ]
            },
            {
               "long_name" : "7999",
               "short_name" : "7999",
               "types" : [ "postal_code" ]
            }
         ],
         "formatted_address" : "Old Iron Bridge Road, Pukaki 7999, New Zealand",
         "geometry" : {
            "bounds" : {
               "northeast" : {
                  "lat" : -44.2767312,
                  "lng" : 170.097603
               },
               "southwest" : {
                  "lat" : -44.2851711,
                  "lng" : 170.0898212
               }
            },
            "location" : {
               "lat" : -44.2820541,
               "lng" : 170.0955016
            },
            "location_type" : "GEOMETRIC_CENTER",
            "viewport" : {
               "northeast" : {
                  "lat" : -44.2767312,
                  "lng" : 170.097603
               },
               "southwest" : {
                  "lat" : -44.2851711,
                  "lng" : 170.0898212
               }
            }
         },
         "partial_match" : true,
         "types" : [ "route" ]
      },
      {
         "address_components" : [
            {
               "long_name" : "Old Iron Works Road",
               "short_name" : "Old Iron Works Rd",
               "types" : [ "route" ]
            },
            {
               "long_name" : "Lexington",
               "short_name" : "Lexington",
               "types" : [ "locality", "political" ]
            },
            {
               "long_name" : "Fayette County",
               "short_name" : "Fayette County",
               "types" : [ "administrative_area_level_2", "political" ]
            },
            {
               "long_name" : "Kentucky",
               "short_name" : "KY",
               "types" : [ "administrative_area_level_1", "political" ]
            },
            {
               "long_name" : "United States",
               "short_name" : "US",
               "types" : [ "country", "political" ]
            }
         ],
         "formatted_address" : "Old Iron Works Road, Lexington, KY, USA",
         "geometry" : {
            "bounds" : {
               "northeast" : {
                  "lat" : 38.155083,
                  "lng" : -84.53687169999999
               },
               "southwest" : {
                  "lat" : 38.15036389999999,
                  "lng" : -84.54886499999999
               }
            },
            "location" : {
               "lat" : 38.1526245,
               "lng" : -84.5434813
            },
            "location_type" : "GEOMETRIC_CENTER",
            "viewport" : {
               "northeast" : {
                  "lat" : 38.155083,
                  "lng" : -84.53687169999999
               },
               "southwest" : {
                  "lat" : 38.15036389999999,
                  "lng" : -84.54886499999999
               }
            }
         },
         "partial_match" : true,
         "types" : [ "route" ]
      },
      {
         "address_components" : [
            {
               "long_name" : "Old Iron Works Road",
               "short_name" : "Old Iron Works Rd",
               "types" : [ "route" ]
            },
            {
               "long_name" : "Mount Sterling",
               "short_name" : "Mt Sterling",
               "types" : [ "locality", "political" ]
            },
            {
               "long_name" : "Montgomery County",
               "short_name" : "Montgomery County",
               "types" : [ "administrative_area_level_2", "political" ]
            },
            {
               "long_name" : "Kentucky",
               "short_name" : "KY",
               "types" : [ "administrative_area_level_1", "political" ]
            },
            {
               "long_name" : "United States",
               "short_name" : "US",
               "types" : [ "country", "political" ]
            },
            {
               "long_name" : "40353",
               "short_name" : "40353",
               "types" : [ "postal_code" ]
            }
         ],
         "formatted_address" : "Old Iron Works Road, Mount Sterling, KY 40353, USA",
         "geometry" : {
            "bounds" : {
               "northeast" : {
                  "lat" : 38.13036719999999,
                  "lng" : -83.971232
               },
               "southwest" : {
                  "lat" : 38.1273899,
                  "lng" : -83.9872518
               }
            },
            "location" : {
               "lat" : 38.1290837,
               "lng" : -83.9791075
            },
            "location_type" : "GEOMETRIC_CENTER",
            "viewport" : {
               "northeast" : {
                  "lat" : 38.13036719999999,
                  "lng" : -83.971232
               },
               "southwest" : {
                  "lat" : 38.1273899,
                  "lng" : -83.9872518
               }
            }
         },
         "partial_match" : true,
         "types" : [ "route" ]
      }
   ],
   "status" : "OK"
}
