{
   "results" : [
      {
         "address_components" : [
            {
               "long_name" : "Palika Bazaar",
               "short_name" : "Palika Bazaar",
               "types" : [ "premise" ]
            },
            {
               "long_name" : "Nangal Road",
               "short_name" : "Nangal Rd",
               "types" : [ "route" ]
            },
            {
               "long_name" : "Professor Colony",
               "short_name" : "Professor Colony",
               "types" : [ "sublocality_level_1", "sublocality", "political" ]
            },
            {
               "long_name" : "Una",
               "short_name" : "Una",
               "types" : [ "locality", "political" ]
            },
            {
               "long_name" : "Una",
               "short_name" : "Una",
               "types" : [ "administrative_area_level_2", "political" ]
            },
            {
               "long_name" : "Himachal Pradesh",
               "short_name" : "HP",
               "types" : [ "administrative_area_level_1", "political" ]
            },
            {
               "long_name" : "India",
               "short_name" : "IN",
               "types" : [ "country", "political" ]
            },
            {
               "long_name" : "174303",
               "short_name" : "174303",
               "types" : [ "postal_code" ]
            }
         ],
         "formatted_address" : "Palika Bazaar, Nangal Road, Professor Colony, Una, Himachal Pradesh 174303, India",
         "geometry" : {
            "bounds" : {
               "northeast" : {
                  "lat" : 31.4649,
                  "lng" : 76.2792295
               },
               "southwest" : {
                  "lat" : 31.4643508,
                  "lng" : 76.2787144
               }
            },
            "location" : {
               "lat" : 31.4646254,
               "lng" : 76.278972
            },
            "location_type" : "ROOFTOP",
            "viewport" : {
               "northeast" : {
                  "lat" : 31.4659743802915,
                  "lng" : 76.2803209302915
               },
               "southwest" : {
                  "lat" : 31.4632764197085,
                  "lng" : 76.27762296970849
               }
            }
         },
         "types" : [ "premise" ]
      },
      {
         "address_components" : [
            {
               "long_name" : "Palika Bazaar",
               "short_name" : "Palika Bazaar",
               "types" : [ "establishment" ]
            },
            {
               "long_name" : "Rajiv Chowk",
               "short_name" : "Rajiv Chowk",
               "types" : [ "route" ]
            },
            {
               "long_name" : "Palika Bazar",
               "short_name" : "Palika Bazar",
               "types" : [ "sublocality_level_2", "sublocality", "political" ]
            },
            {
               "long_name" : "Connaught Place",
               "short_name" : "CP",
               "types" : [ "sublocality_level_1", "sublocality", "political" ]
            },
            {
               "long_name" : "New Delhi",
               "short_name" : "New Delhi",
               "types" : [ "locality", "political" ]
            },
            {
               "long_name" : "New Delhi",
               "short_name" : "New Delhi",
               "types" : [ "administrative_area_level_2", "political" ]
            },
            {
               "long_name" : "Delhi (state)",
               "short_name" : "Delhi (state)",
               "types" : [ "administrative_area_level_1", "political" ]
            },
            {
               "long_name" : "India",
               "short_name" : "IN",
               "types" : [ "country", "political" ]
            },
            {
               "long_name" : "110001",
               "short_name" : "110001",
               "types" : [ "postal_code" ]
            }
         ],
         "formatted_address" : "Palika Bazaar, Rajiv Chowk, Palika Bazar, Connaught Place, New Delhi, Delhi (state) 110001, India",
         "geometry" : {
            "bounds" : {
               "northeast" : {
                  "lat" : 28.6314062,
                  "lng" : 77.2195036
               },
               "southwest" : {
                  "lat" : 28.6299851,
                  "lng" : 77.21812849999999
               }
            },
            "location" : {
               "lat" : 28.6308464,
               "lng" : 77.21877979999999
            },
            "location_type" : "APPROXIMATE",
            "viewport" : {
               "northeast" : {
                  "lat" : 28.6320446302915,
                  "lng" : 77.22016503029151
               },
               "southwest" : {
                  "lat" : 28.6293466697085,
                  "lng" : 77.2174670697085
               }
            }
         },
         "types" : [ "establishment" ]
      },
      {
         "address_components" : [
            {
               "long_name" : "Palika Bazaar",
               "short_name" : "Palika Bazaar",
               "types" : [ "premise" ]
            },
            {
               "long_name" : "Shivaji Nagar",
               "short_name" : "Shivaji Nagar",
               "types" : [ "sublocality_level_1", "sublocality", "political" ]
            },
            {
               "long_name" : "Secunderabad",
               "short_name" : "SC",
               "types" : [ "locality", "political" ]
            },
            {
               "long_name" : "Hyderabad",
               "short_name" : "Hyderabad",
               "types" : [ "administrative_area_level_2", "political" ]
            },
            {
               "long_name" : "Telangana",
               "short_name" : "Telangana",
               "types" : [ "administrative_area_level_1", "political" ]
            },
            {
               "long_name" : "India",
               "short_name" : "IN",
               "types" : [ "country", "political" ]
            },
            {
               "long_name" : "500003",
               "short_name" : "500003",
               "types" : [ "postal_code" ]
            }
         ],
         "formatted_address" : "Palika Bazaar, Shivaji Nagar, Secunderabad, Telangana 500003, India",
         "geometry" : {
            "bounds" : {
               "northeast" : {
                  "lat" : 17.4352778,
                  "lng" : 78.49987969999999
               },
               "southwest" : {
                  "lat" : 17.4348187,
                  "lng" : 78.4993271
               }
            },
            "location" : {
               "lat" : 17.4350198,
               "lng" : 78.499656
            },
            "location_type" : "ROOFTOP",
            "viewport" : {
               "northeast" : {
                  "lat" : 17.4363972302915,
                  "lng" : 78.50095238029151
               },
               "southwest" : {
                  "lat" : 17.43369926970849,
                  "lng" : 78.4982544197085
               }
            }
         },
         "types" : [ "premise" ]
      },
      {
         "address_components" : [
            {
               "long_name" : "Palika Bazaar",
               "short_name" : "Palika Bazaar",
               "types" : [ "premise" ]
            },
            {
               "long_name" : "Model Colony",
               "short_name" : "Model Colony",
               "types" : [ "sublocality_level_2", "sublocality", "political" ]
            },
            {
               "long_name" : "East Bhatia Nagar",
               "short_name" : "East Bhatia Nagar",
               "types" : [ "sublocality_level_1", "sublocality", "political" ]
            },
            {
               "long_name" : "Jagadhri",
               "short_name" : "Jagadhri",
               "types" : [ "locality", "political" ]
            },
            {
               "long_name" : "Yamuna Nagar",
               "short_name" : "Yamuna Nagar",
               "types" : [ "administrative_area_level_2", "political" ]
            },
            {
               "long_name" : "Haryana",
               "short_name" : "HR",
               "types" : [ "administrative_area_level_1", "political" ]
            },
            {
               "long_name" : "India",
               "short_name" : "IN",
               "types" : [ "country", "political" ]
            },
            {
               "long_name" : "135001",
               "short_name" : "135001",
               "types" : [ "postal_code" ]
            }
         ],
         "formatted_address" : "Palika Bazaar, Model Colony, East Bhatia Nagar, Jagadhri, Haryana 135001, India",
         "geometry" : {
            "bounds" : {
               "northeast" : {
                  "lat" : 30.1387067,
                  "lng" : 77.2993379
               },
               "southwest" : {
                  "lat" : 30.1378625,
                  "lng" : 77.29843679999999
               }
            },
            "location" : {
               "lat" : 30.1383409,
               "lng" : 77.2989656
            },
            "location_type" : "ROOFTOP",
            "viewport" : {
               "northeast" : {
                  "lat" : 30.1396335802915,
                  "lng" : 77.3002363302915
               },
               "southwest" : {
                  "lat" : 30.13693561970851,
                  "lng" : 77.29753836970849
               }
            }
         },
         "types" : [ "premise" ]
      },
      {
         "address_components" : [
            {
               "long_name" : "Palika Bazaar",
               "short_name" : "Palika Bazaar",
               "types" : [ "premise" ]
            },
            {
               "long_name" : "Kothwali",
               "short_name" : "Kothwali",
               "types" : [ "sublocality_level_1", "sublocality", "political" ]
            },
            {
               "long_name" : "Barmer",
               "short_name" : "Barmer",
               "types" : [ "locality", "political" ]
            },
            {
               "long_name" : "Barmer",
               "short_name" : "Barmer",
               "types" : [ "administrative_area_level_2", "political" ]
            },
            {
               "long_name" : "Rajasthan",
               "short_name" : "RJ",
               "types" : [ "administrative_area_level_1", "political" ]
            },
            {
               "long_name" : "India",
               "short_name" : "IN",
               "types" : [ "country", "political" ]
            },
            {
               "long_name" : "344001",
               "short_name" : "344001",
               "types" : [ "postal_code" ]
            }
         ],
         "formatted_address" : "Palika Bazaar, Kothwali, Barmer, Rajasthan 344001, India",
         "geometry" : {
            "bounds" : {
               "northeast" : {
                  "lat" : 25.7466029,
                  "lng" : 71.3966167
               },
               "southwest" : {
                  "lat" : 25.7460616,
                  "lng" : 71.3958871
               }
            },
            "location" : {
               "lat" : 25.7462768,
               "lng" : 71.396261
            },
            "location_type" : "ROOFTOP",
            "viewport" : {
               "northeast" : {
                  "lat" : 25.7476812302915,
                  "lng" : 71.39760088029151
               },
               "southwest" : {
                  "lat" : 25.7449832697085,
                  "lng" : 71.3949029197085
               }
            }
         },
         "types" : [ "premise" ]
      },
      {
         "address_components" : [
            {
               "long_name" : "Palika Bazaar Road",
               "short_name" : "Palika Bazaar Rd",
               "types" : [ "route" ]
            },
            {
               "long_name" : "Palika Bazar",
               "short_name" : "Palika Bazar",
               "types" : [ "sublocality_level_2", "sublocality", "political" ]
            },
            {
               "long_name" : "Connaught Place",
               "short_name" : "CP",
               "types" : [ "sublocality_level_1", "sublocality", "political" ]
            },
            {
               "long_name" : "New Delhi",
               "short_name" : "New Delhi",
               "types" : [ "locality", "political" ]
            },
            {
               "long_name" : "New Delhi",
               "short_name" : "New Delhi",
               "types" : [ "administrative_area_level_2", "political" ]
            },
            {
               "long_name" : "Delhi",
               "short_name" : "DL",
               "types" : [ "administrative_area_level_1", "political" ]
            },
            {
               "long_name" : "India",
               "short_name" : "IN",
               "types" : [ "country", "political" ]
            },
            {
               "long_name" : "110001",
               "short_name" : "110001",
               "types" : [ "postal_code" ]
            }
         ],
         "formatted_address" : "Palika Bazaar Road, Palika Bazar, Connaught Place, New Delhi, Delhi 110001, India",
         "geometry" : {
            "bounds" : {
               "northeast" : {
                  "lat" : 28.6308775,
                  "lng" : 77.21959099999999
               },
               "southwest" : {
                  "lat" : 28.630146,
                  "lng" : 77.2188208
               }
            },
            "location" : {
               "lat" : 28.6305157,
               "lng" : 77.21924849999999
            },
            "location_type" : "GEOMETRIC_CENTER",
            "viewport" : {
               "northeast" : {
                  "lat" : 28.6318607302915,
                  "lng" : 77.2205548802915
               },
               "southwest" : {
                  "lat" : 28.6291627697085,
                  "lng" : 77.2178569197085
               }
            }
         },
         "partial_match" : true,
         "types" : [ "route" ]
      }
   ],
   "status" : "OK"
}
