{
   "results" : [
      {
         "address_components" : [
            {
               "long_name" : "Panchsheel Marg",
               "short_name" : "Panchsheel Marg",
               "types" : [ "route" ]
            },
            {
               "long_name" : "New Delhi",
               "short_name" : "New Delhi",
               "types" : [ "locality", "political" ]
            },
            {
               "long_name" : "New Delhi",
               "short_name" : "New Delhi",
               "types" : [ "administrative_area_level_2", "political" ]
            },
            {
               "long_name" : "Delhi",
               "short_name" : "DL",
               "types" : [ "administrative_area_level_1", "political" ]
            },
            {
               "long_name" : "India",
               "short_name" : "IN",
               "types" : [ "country", "political" ]
            },
            {
               "long_name" : "110021",
               "short_name" : "110021",
               "types" : [ "postal_code" ]
            }
         ],
         "formatted_address" : "Panchsheel Marg, New Delhi, Delhi 110021, India",
         "geometry" : {
            "bounds" : {
               "northeast" : {
                  "lat" : 28.6020716,
                  "lng" : 77.19826429999999
               },
               "southwest" : {
                  "lat" : 28.5954138,
                  "lng" : 77.18065009999999
               }
            },
            "location" : {
               "lat" : 28.5981641,
               "lng" : 77.1885662
            },
            "location_type" : "GEOMETRIC_CENTER",
            "viewport" : {
               "northeast" : {
                  "lat" : 28.6020716,
                  "lng" : 77.19826429999999
               },
               "southwest" : {
                  "lat" : 28.5954138,
                  "lng" : 77.18065009999999
               }
            }
         },
         "types" : [ "route" ]
      },
      {
         "address_components" : [
            {
               "long_name" : "Panchsheel Marg",
               "short_name" : "Panchsheel Marg",
               "types" : [ "route" ]
            },
            {
               "long_name" : "Anand Nagar",
               "short_name" : "Anand Nagar",
               "types" : [ "sublocality_level_1", "sublocality", "political" ]
            },
            {
               "long_name" : "Ambajogai",
               "short_name" : "Ambajogai",
               "types" : [ "locality", "political" ]
            },
            {
               "long_name" : "Beed",
               "short_name" : "Beed",
               "types" : [ "administrative_area_level_2", "political" ]
            },
            {
               "long_name" : "Maharashtra",
               "short_name" : "MH",
               "types" : [ "administrative_area_level_1", "political" ]
            },
            {
               "long_name" : "India",
               "short_name" : "IN",
               "types" : [ "country", "political" ]
            },
            {
               "long_name" : "431517",
               "short_name" : "431517",
               "types" : [ "postal_code" ]
            }
         ],
         "formatted_address" : "Panchsheel Marg, Anand Nagar, Ambajogai, Maharashtra 431517, India",
         "geometry" : {
            "bounds" : {
               "northeast" : {
                  "lat" : 18.7327702,
                  "lng" : 76.3947446
               },
               "southwest" : {
                  "lat" : 18.7252039,
                  "lng" : 76.3894741
               }
            },
            "location" : {
               "lat" : 18.7280305,
               "lng" : 76.3929464
            },
            "location_type" : "GEOMETRIC_CENTER",
            "viewport" : {
               "northeast" : {
                  "lat" : 18.7327702,
                  "lng" : 76.3947446
               },
               "southwest" : {
                  "lat" : 18.7252039,
                  "lng" : 76.3894741
               }
            }
         },
         "types" : [ "route" ]
      },
      {
         "address_components" : [
            {
               "long_name" : "Panchsheel Marg",
               "short_name" : "Panchsheel Marg",
               "types" : [ "route" ]
            },
            {
               "long_name" : "Burmese Colony",
               "short_name" : "Burmese Colony",
               "types" : [ "sublocality_level_1", "sublocality", "political" ]
            },
            {
               "long_name" : "Jaipur",
               "short_name" : "Jaipur",
               "types" : [ "locality", "political" ]
            },
            {
               "long_name" : "Jaipur",
               "short_name" : "Jaipur",
               "types" : [ "administrative_area_level_2", "political" ]
            },
            {
               "long_name" : "Rajasthan",
               "short_name" : "RJ",
               "types" : [ "administrative_area_level_1", "political" ]
            },
            {
               "long_name" : "India",
               "short_name" : "IN",
               "types" : [ "country", "political" ]
            },
            {
               "long_name" : "302004",
               "short_name" : "302004",
               "types" : [ "postal_code" ]
            }
         ],
         "formatted_address" : "Panchsheel Marg, Burmese Colony, Jaipur, Rajasthan 302004, India",
         "geometry" : {
            "bounds" : {
               "northeast" : {
                  "lat" : 26.901413,
                  "lng" : 75.84261599999999
               },
               "southwest" : {
                  "lat" : 26.8992177,
                  "lng" : 75.84117479999999
               }
            },
            "location" : {
               "lat" : 26.9003515,
               "lng" : 75.84204439999999
            },
            "location_type" : "GEOMETRIC_CENTER",
            "viewport" : {
               "northeast" : {
                  "lat" : 26.9016643302915,
                  "lng" : 75.84324438029149
               },
               "southwest" : {
                  "lat" : 26.8989663697085,
                  "lng" : 75.84054641970849
               }
            }
         },
         "types" : [ "route" ]
      },
      {
         "address_components" : [
            {
               "long_name" : "Panchsheel Marg",
               "short_name" : "Panchsheel Marg",
               "types" : [ "route" ]
            },
            {
               "long_name" : "C Scheme",
               "short_name" : "C Scheme",
               "types" : [ "sublocality_level_2", "sublocality", "political" ]
            },
            {
               "long_name" : "Ashok Nagar",
               "short_name" : "Ashok Nagar",
               "types" : [ "sublocality_level_1", "sublocality", "political" ]
            },
            {
               "long_name" : "Jaipur",
               "short_name" : "Jaipur",
               "types" : [ "locality", "political" ]
            },
            {
               "long_name" : "Jaipur",
               "short_name" : "Jaipur",
               "types" : [ "administrative_area_level_2", "political" ]
            },
            {
               "long_name" : "Rajasthan",
               "short_name" : "RJ",
               "types" : [ "administrative_area_level_1", "political" ]
            },
            {
               "long_name" : "India",
               "short_name" : "IN",
               "types" : [ "country", "political" ]
            },
            {
               "long_name" : "302001",
               "short_name" : "302001",
               "types" : [ "postal_code" ]
            }
         ],
         "formatted_address" : "Panchsheel Marg, C Scheme, Ashok Nagar, Jaipur, Rajasthan 302001, India",
         "geometry" : {
            "bounds" : {
               "northeast" : {
                  "lat" : 26.9097179,
                  "lng" : 75.7997889
               },
               "southwest" : {
                  "lat" : 26.908406,
                  "lng" : 75.79673
               }
            },
            "location" : {
               "lat" : 26.9090708,
               "lng" : 75.7982296
            },
            "location_type" : "GEOMETRIC_CENTER",
            "viewport" : {
               "northeast" : {
                  "lat" : 26.9104109302915,
                  "lng" : 75.7997889
               },
               "southwest" : {
                  "lat" : 26.9077129697085,
                  "lng" : 75.79673
               }
            }
         },
         "types" : [ "route" ]
      },
      {
         "address_components" : [
            {
               "long_name" : "Panchsheel Marg",
               "short_name" : "Panchsheel Marg",
               "types" : [ "route" ]
            },
            {
               "long_name" : "Sethi Colony",
               "short_name" : "Sethi Colony",
               "types" : [ "sublocality_level_1", "sublocality", "political" ]
            },
            {
               "long_name" : "Jaipur",
               "short_name" : "Jaipur",
               "types" : [ "locality", "political" ]
            },
            {
               "long_name" : "Jaipur",
               "short_name" : "Jaipur",
               "types" : [ "administrative_area_level_2", "political" ]
            },
            {
               "long_name" : "Rajasthan",
               "short_name" : "RJ",
               "types" : [ "administrative_area_level_1", "political" ]
            },
            {
               "long_name" : "India",
               "short_name" : "IN",
               "types" : [ "country", "political" ]
            },
            {
               "long_name" : "302004",
               "short_name" : "302004",
               "types" : [ "postal_code" ]
            }
         ],
         "formatted_address" : "Panchsheel Marg, Sethi Colony, Jaipur, Rajasthan 302004, India",
         "geometry" : {
            "location" : {
               "lat" : 26.900522,
               "lng" : 75.841988
            },
            "location_type" : "GEOMETRIC_CENTER",
            "viewport" : {
               "northeast" : {
                  "lat" : 26.9018709802915,
                  "lng" : 75.84333698029151
               },
               "southwest" : {
                  "lat" : 26.8991730197085,
                  "lng" : 75.84063901970849
               }
            }
         },
         "types" : [ "route" ]
      }
   ],
   "status" : "OK"
}
