{
   "results" : [
      {
         "address_components" : [
            {
               "long_name" : "Pratap Nagar",
               "short_name" : "Pratap Nagar",
               "types" : [ "sublocality_level_1", "sublocality", "political" ]
            },
            {
               "long_name" : "Jaipur",
               "short_name" : "Jaipur",
               "types" : [ "locality", "political" ]
            },
            {
               "long_name" : "Jaipur",
               "short_name" : "Jaipur",
               "types" : [ "administrative_area_level_2", "political" ]
            },
            {
               "long_name" : "Rajasthan",
               "short_name" : "RJ",
               "types" : [ "administrative_area_level_1", "political" ]
            },
            {
               "long_name" : "India",
               "short_name" : "IN",
               "types" : [ "country", "political" ]
            }
         ],
         "formatted_address" : "Pratap Nagar, Jaipur, Rajasthan, India",
         "geometry" : {
            "bounds" : {
               "northeast" : {
                  "lat" : 26.8173339,
                  "lng" : 75.857202
               },
               "southwest" : {
                  "lat" : 26.7896877,
                  "lng" : 75.79850789999999
               }
            },
            "location" : {
               "lat" : 26.8070234,
               "lng" : 75.8097867
            },
            "location_type" : "APPROXIMATE",
            "viewport" : {
               "northeast" : {
                  "lat" : 26.8173339,
                  "lng" : 75.857202
               },
               "southwest" : {
                  "lat" : 26.7896877,
                  "lng" : 75.79850789999999
               }
            }
         },
         "types" : [ "sublocality_level_1", "sublocality", "political" ]
      },
      {
         "address_components" : [
            {
               "long_name" : "Pratap Nagar",
               "short_name" : "Pratap Nagar",
               "types" : [ "sublocality_level_1", "sublocality", "political" ]
            },
            {
               "long_name" : "Nagpur",
               "short_name" : "Nagpur",
               "types" : [ "locality", "political" ]
            },
            {
               "long_name" : "Nagpur",
               "short_name" : "Nagpur",
               "types" : [ "administrative_area_level_2", "political" ]
            },
            {
               "long_name" : "Maharashtra",
               "short_name" : "MH",
               "types" : [ "administrative_area_level_1", "political" ]
            },
            {
               "long_name" : "India",
               "short_name" : "IN",
               "types" : [ "country", "political" ]
            }
         ],
         "formatted_address" : "Pratap Nagar, Nagpur, Maharashtra, India",
         "geometry" : {
            "bounds" : {
               "northeast" : {
                  "lat" : 21.122011,
                  "lng" : 79.06499389999999
               },
               "southwest" : {
                  "lat" : 21.112181,
                  "lng" : 79.045756
               }
            },
            "location" : {
               "lat" : 21.1169805,
               "lng" : 79.0541319
            },
            "location_type" : "APPROXIMATE",
            "viewport" : {
               "northeast" : {
                  "lat" : 21.122011,
                  "lng" : 79.06499389999999
               },
               "southwest" : {
                  "lat" : 21.112181,
                  "lng" : 79.045756
               }
            }
         },
         "types" : [ "sublocality_level_1", "sublocality", "political" ]
      },
      {
         "address_components" : [
            {
               "long_name" : "Pratap Nagar",
               "short_name" : "Pratap Nagar",
               "types" : [ "sublocality_level_1", "sublocality", "political" ]
            },
            {
               "long_name" : "Jodhpur",
               "short_name" : "Jodhpur",
               "types" : [ "locality", "political" ]
            },
            {
               "long_name" : "Jodhpur",
               "short_name" : "Jodhpur",
               "types" : [ "administrative_area_level_2", "political" ]
            },
            {
               "long_name" : "Rajasthan",
               "short_name" : "RJ",
               "types" : [ "administrative_area_level_1", "political" ]
            },
            {
               "long_name" : "India",
               "short_name" : "IN",
               "types" : [ "country", "political" ]
            }
         ],
         "formatted_address" : "Pratap Nagar, Jodhpur, Rajasthan, India",
         "geometry" : {
            "bounds" : {
               "northeast" : {
                  "lat" : 26.2967314,
                  "lng" : 73.01226699999999
               },
               "southwest" : {
                  "lat" : 26.277201,
                  "lng" : 72.99009839999999
               }
            },
            "location" : {
               "lat" : 26.2837293,
               "lng" : 72.9981564
            },
            "location_type" : "APPROXIMATE",
            "viewport" : {
               "northeast" : {
                  "lat" : 26.2967314,
                  "lng" : 73.01226699999999
               },
               "southwest" : {
                  "lat" : 26.277201,
                  "lng" : 72.99009839999999
               }
            }
         },
         "types" : [ "sublocality_level_1", "sublocality", "political" ]
      },
      {
         "address_components" : [
            {
               "long_name" : "Pratap Nagar Metro Station",
               "short_name" : "Pratap Nagar Metro Station",
               "types" : [ "subway_station", "train_station", "transit_station", "establishment" ]
            },
            {
               "long_name" : "Vir Banda Bairagi Marg",
               "short_name" : "Vir Banda Bairagi Marg",
               "types" : [ "route" ]
            },
            {
               "long_name" : "Azad Nagar",
               "short_name" : "Azad Nagar",
               "types" : [ "sublocality_level_2", "sublocality", "political" ]
            },
            {
               "long_name" : "Gulabi Bagh",
               "short_name" : "Gulabi Bagh",
               "types" : [ "sublocality_level_1", "sublocality", "political" ]
            },
            {
               "long_name" : "New Delhi",
               "short_name" : "New Delhi",
               "types" : [ "locality", "political" ]
            },
            {
               "long_name" : "North Delhi",
               "short_name" : "North Delhi",
               "types" : [ "administrative_area_level_2", "political" ]
            },
            {
               "long_name" : "Delhi",
               "short_name" : "DL",
               "types" : [ "administrative_area_level_1", "political" ]
            },
            {
               "long_name" : "India",
               "short_name" : "IN",
               "types" : [ "country", "political" ]
            },
            {
               "long_name" : "110007",
               "short_name" : "110007",
               "types" : [ "postal_code" ]
            }
         ],
         "formatted_address" : "Pratap Nagar Metro Station, Vir Banda Bairagi Marg, Azad Nagar, Gulabi Bagh, New Delhi, Delhi 110007, India",
         "geometry" : {
            "bounds" : {
               "northeast" : {
                  "lat" : 28.6670167,
                  "lng" : 77.1999146
               },
               "southwest" : {
                  "lat" : 28.6662873,
                  "lng" : 77.19800649999999
               }
            },
            "location" : {
               "lat" : 28.66663369999999,
               "lng" : 77.1990617
            },
            "location_type" : "APPROXIMATE",
            "viewport" : {
               "northeast" : {
                  "lat" : 28.6680009802915,
                  "lng" : 77.20030953029149
               },
               "southwest" : {
                  "lat" : 28.6653030197085,
                  "lng" : 77.19761156970849
               }
            }
         },
         "types" : [ "subway_station", "train_station", "transit_station", "establishment" ]
      },
      {
         "address_components" : [
            {
               "long_name" : "Pratap Nagar",
               "short_name" : "Pratap Nagar",
               "types" : [ "sublocality_level_1", "sublocality", "political" ]
            },
            {
               "long_name" : "Jalgaon",
               "short_name" : "Jalgaon",
               "types" : [ "locality", "political" ]
            },
            {
               "long_name" : "Jalgaon",
               "short_name" : "Jalgaon",
               "types" : [ "administrative_area_level_2", "political" ]
            },
            {
               "long_name" : "Maharashtra",
               "short_name" : "MH",
               "types" : [ "administrative_area_level_1", "political" ]
            },
            {
               "long_name" : "India",
               "short_name" : "IN",
               "types" : [ "country", "political" ]
            }
         ],
         "formatted_address" : "Pratap Nagar, Jalgaon, Maharashtra, India",
         "geometry" : {
            "bounds" : {
               "northeast" : {
                  "lat" : 21.0194601,
                  "lng" : 75.5664725
               },
               "southwest" : {
                  "lat" : 20.9991279,
                  "lng" : 75.554585
               }
            },
            "location" : {
               "lat" : 21.0116488,
               "lng" : 75.5582376
            },
            "location_type" : "APPROXIMATE",
            "viewport" : {
               "northeast" : {
                  "lat" : 21.0194601,
                  "lng" : 75.5664725
               },
               "southwest" : {
                  "lat" : 20.9991279,
                  "lng" : 75.554585
               }
            }
         },
         "types" : [ "sublocality_level_1", "sublocality", "political" ]
      },
      {
         "address_components" : [
            {
               "long_name" : "Pratap Nagar",
               "short_name" : "Pratap Nagar",
               "types" : [ "sublocality_level_1", "sublocality", "political" ]
            },
            {
               "long_name" : "Udaipur",
               "short_name" : "Udaipur",
               "types" : [ "locality", "political" ]
            },
            {
               "long_name" : "Udaipur",
               "short_name" : "Udaipur",
               "types" : [ "administrative_area_level_2", "political" ]
            },
            {
               "long_name" : "Rajasthan",
               "short_name" : "RJ",
               "types" : [ "administrative_area_level_1", "political" ]
            },
            {
               "long_name" : "India",
               "short_name" : "IN",
               "types" : [ "country", "political" ]
            }
         ],
         "formatted_address" : "Pratap Nagar, Udaipur, Rajasthan, India",
         "geometry" : {
            "bounds" : {
               "northeast" : {
                  "lat" : 24.6069061,
                  "lng" : 73.75770159999999
               },
               "southwest" : {
                  "lat" : 24.587614,
                  "lng" : 73.741112
               }
            },
            "location" : {
               "lat" : 24.5978121,
               "lng" : 73.7466761
            },
            "location_type" : "APPROXIMATE",
            "viewport" : {
               "northeast" : {
                  "lat" : 24.6069061,
                  "lng" : 73.75770159999999
               },
               "southwest" : {
                  "lat" : 24.587614,
                  "lng" : 73.741112
               }
            }
         },
         "types" : [ "sublocality_level_1", "sublocality", "political" ]
      },
      {
         "address_components" : [
            {
               "long_name" : "Pratap Nagar",
               "short_name" : "Pratap Nagar",
               "types" : [ "sublocality_level_2", "sublocality", "political" ]
            },
            {
               "long_name" : "Kothapet",
               "short_name" : "Kothapet",
               "types" : [ "sublocality_level_1", "sublocality", "political" ]
            },
            {
               "long_name" : "Hyderabad",
               "short_name" : "Hyderabad",
               "types" : [ "locality", "political" ]
            },
            {
               "long_name" : "Ranga Reddy",
               "short_name" : "R.R. District",
               "types" : [ "administrative_area_level_2", "political" ]
            },
            {
               "long_name" : "Telangana",
               "short_name" : "Telangana",
               "types" : [ "administrative_area_level_1", "political" ]
            },
            {
               "long_name" : "India",
               "short_name" : "IN",
               "types" : [ "country", "political" ]
            }
         ],
         "formatted_address" : "Pratap Nagar, Kothapet, Hyderabad, Telangana, India",
         "geometry" : {
            "bounds" : {
               "northeast" : {
                  "lat" : 17.373932,
                  "lng" : 78.54140799999999
               },
               "southwest" : {
                  "lat" : 17.368096,
                  "lng" : 78.53158499999999
               }
            },
            "location" : {
               "lat" : 17.3721435,
               "lng" : 78.5398204
            },
            "location_type" : "APPROXIMATE",
            "viewport" : {
               "northeast" : {
                  "lat" : 17.373932,
                  "lng" : 78.54140799999999
               },
               "southwest" : {
                  "lat" : 17.368096,
                  "lng" : 78.53158499999999
               }
            }
         },
         "types" : [ "sublocality_level_2", "sublocality", "political" ]
      },
      {
         "address_components" : [
            {
               "long_name" : "Pratap Nagar",
               "short_name" : "Pratap Nagar",
               "types" : [ "sublocality_level_2", "sublocality", "political" ]
            },
            {
               "long_name" : "Jahangirabad",
               "short_name" : "Jahangirabad",
               "types" : [ "sublocality_level_1", "sublocality", "political" ]
            },
            {
               "long_name" : "Bhopal",
               "short_name" : "Bhopal",
               "types" : [ "locality", "political" ]
            },
            {
               "long_name" : "Bhopal",
               "short_name" : "Bhopal",
               "types" : [ "administrative_area_level_2", "political" ]
            },
            {
               "long_name" : "Madhya Pradesh",
               "short_name" : "MP",
               "types" : [ "administrative_area_level_1", "political" ]
            },
            {
               "long_name" : "India",
               "short_name" : "IN",
               "types" : [ "country", "political" ]
            },
            {
               "long_name" : "462008",
               "short_name" : "462008",
               "types" : [ "postal_code" ]
            }
         ],
         "formatted_address" : "Pratap Nagar, Jahangirabad, Bhopal, Madhya Pradesh 462008, India",
         "geometry" : {
            "bounds" : {
               "northeast" : {
                  "lat" : 23.252285,
                  "lng" : 77.422254
               },
               "southwest" : {
                  "lat" : 23.247792,
                  "lng" : 77.41268599999999
               }
            },
            "location" : {
               "lat" : 23.2500815,
               "lng" : 77.41640629999999
            },
            "location_type" : "APPROXIMATE",
            "viewport" : {
               "northeast" : {
                  "lat" : 23.252285,
                  "lng" : 77.422254
               },
               "southwest" : {
                  "lat" : 23.247792,
                  "lng" : 77.41268599999999
               }
            }
         },
         "types" : [ "sublocality_level_2", "sublocality", "political" ]
      },
      {
         "address_components" : [
            {
               "long_name" : "Pratap Nagar",
               "short_name" : "Pratap Nagar",
               "types" : [ "sublocality_level_2", "sublocality", "political" ]
            },
            {
               "long_name" : "Sector 8",
               "short_name" : "Sector 8",
               "types" : [ "sublocality_level_1", "sublocality", "political" ]
            },
            {
               "long_name" : "Gurgaon",
               "short_name" : "Gurgaon",
               "types" : [ "locality", "political" ]
            },
            {
               "long_name" : "Gurgaon",
               "short_name" : "Gurgaon",
               "types" : [ "administrative_area_level_2", "political" ]
            },
            {
               "long_name" : "Haryana",
               "short_name" : "HR",
               "types" : [ "administrative_area_level_1", "political" ]
            },
            {
               "long_name" : "India",
               "short_name" : "IN",
               "types" : [ "country", "political" ]
            },
            {
               "long_name" : "122001",
               "short_name" : "122001",
               "types" : [ "postal_code" ]
            }
         ],
         "formatted_address" : "Pratap Nagar, Sector 8, Gurgaon, Haryana 122001, India",
         "geometry" : {
            "bounds" : {
               "northeast" : {
                  "lat" : 28.467127,
                  "lng" : 77.02361499999999
               },
               "southwest" : {
                  "lat" : 28.4610411,
                  "lng" : 77.018821
               }
            },
            "location" : {
               "lat" : 28.4632916,
               "lng" : 77.02118220000001
            },
            "location_type" : "APPROXIMATE",
            "viewport" : {
               "northeast" : {
                  "lat" : 28.467127,
                  "lng" : 77.02361499999999
               },
               "southwest" : {
                  "lat" : 28.4610411,
                  "lng" : 77.018821
               }
            }
         },
         "types" : [ "sublocality_level_2", "sublocality", "political" ]
      },
      {
         "address_components" : [
            {
               "long_name" : "Pratapnagar",
               "short_name" : "Pratapnagar",
               "types" : [ "sublocality_level_1", "sublocality", "political" ]
            },
            {
               "long_name" : "Wardha",
               "short_name" : "Wardha",
               "types" : [ "locality", "political" ]
            },
            {
               "long_name" : "Wardha",
               "short_name" : "Wardha",
               "types" : [ "administrative_area_level_2", "political" ]
            },
            {
               "long_name" : "Maharashtra",
               "short_name" : "MH",
               "types" : [ "administrative_area_level_1", "political" ]
            },
            {
               "long_name" : "India",
               "short_name" : "IN",
               "types" : [ "country", "political" ]
            },
            {
               "long_name" : "442001",
               "short_name" : "442001",
               "types" : [ "postal_code" ]
            }
         ],
         "formatted_address" : "Pratapnagar, Wardha, Maharashtra 442001, India",
         "geometry" : {
            "bounds" : {
               "northeast" : {
                  "lat" : 20.760979,
                  "lng" : 78.60192099999999
               },
               "southwest" : {
                  "lat" : 20.748257,
                  "lng" : 78.58159409999999
               }
            },
            "location" : {
               "lat" : 20.7563197,
               "lng" : 78.5859566
            },
            "location_type" : "APPROXIMATE",
            "viewport" : {
               "northeast" : {
                  "lat" : 20.760979,
                  "lng" : 78.60192099999999
               },
               "southwest" : {
                  "lat" : 20.748257,
                  "lng" : 78.58159409999999
               }
            }
         },
         "types" : [ "sublocality_level_1", "sublocality", "political" ]
      },
      {
         "address_components" : [
            {
               "long_name" : "Pratap Nagar",
               "short_name" : "Pratap Nagar",
               "types" : [ "sublocality_level_2", "sublocality", "political" ]
            },
            {
               "long_name" : "Mayur Vihar Phase 1",
               "short_name" : "Mayur Vihar Phase 1",
               "types" : [ "sublocality_level_1", "sublocality", "political" ]
            },
            {
               "long_name" : "New Delhi",
               "short_name" : "New Delhi",
               "types" : [ "locality", "political" ]
            },
            {
               "long_name" : "East Delhi",
               "short_name" : "East Delhi",
               "types" : [ "administrative_area_level_2", "political" ]
            },
            {
               "long_name" : "Delhi",
               "short_name" : "DL",
               "types" : [ "administrative_area_level_1", "political" ]
            },
            {
               "long_name" : "India",
               "short_name" : "IN",
               "types" : [ "country", "political" ]
            },
            {
               "long_name" : "110091",
               "short_name" : "110091",
               "types" : [ "postal_code" ]
            }
         ],
         "formatted_address" : "Pratap Nagar, Mayur Vihar Phase 1, New Delhi, Delhi 110091, India",
         "geometry" : {
            "bounds" : {
               "northeast" : {
                  "lat" : 28.607293,
                  "lng" : 77.29646300000002
               },
               "southwest" : {
                  "lat" : 28.604072,
                  "lng" : 77.2921041
               }
            },
            "location" : {
               "lat" : 28.6056799,
               "lng" : 77.29423009999999
            },
            "location_type" : "APPROXIMATE",
            "viewport" : {
               "northeast" : {
                  "lat" : 28.607293,
                  "lng" : 77.29646300000002
               },
               "southwest" : {
                  "lat" : 28.604072,
                  "lng" : 77.2921041
               }
            }
         },
         "types" : [ "sublocality_level_2", "sublocality", "political" ]
      },
      {
         "address_components" : [
            {
               "long_name" : "Pratap Nagar",
               "short_name" : "Pratap Nagar",
               "types" : [ "sublocality_level_1", "sublocality", "political" ]
            },
            {
               "long_name" : "Amritsar",
               "short_name" : "Amritsar",
               "types" : [ "locality", "political" ]
            },
            {
               "long_name" : "Amritsar",
               "short_name" : "Amritsar",
               "types" : [ "administrative_area_level_2", "political" ]
            },
            {
               "long_name" : "Punjab",
               "short_name" : "PB",
               "types" : [ "administrative_area_level_1", "political" ]
            },
            {
               "long_name" : "India",
               "short_name" : "IN",
               "types" : [ "country", "political" ]
            }
         ],
         "formatted_address" : "Pratap Nagar, Amritsar, Punjab, India",
         "geometry" : {
            "bounds" : {
               "northeast" : {
                  "lat" : 31.622798,
                  "lng" : 74.90454299999999
               },
               "southwest" : {
                  "lat" : 31.6112442,
                  "lng" : 74.89414909999999
               }
            },
            "location" : {
               "lat" : 31.6176997,
               "lng" : 74.9021336
            },
            "location_type" : "APPROXIMATE",
            "viewport" : {
               "northeast" : {
                  "lat" : 31.622798,
                  "lng" : 74.90454299999999
               },
               "southwest" : {
                  "lat" : 31.6112442,
                  "lng" : 74.89414909999999
               }
            }
         },
         "types" : [ "sublocality_level_1", "sublocality", "political" ]
      },
      {
         "address_components" : [
            {
               "long_name" : "Street Number 4",
               "short_name" : "Street Number 4",
               "types" : [ "route" ]
            },
            {
               "long_name" : "Sahibjada Ajit singh Nagar",
               "short_name" : "Sahibjada Ajit singh Nagar",
               "types" : [ "sublocality_level_1", "sublocality", "political" ]
            },
            {
               "long_name" : "Ludhiana",
               "short_name" : "Ludhiana",
               "types" : [ "locality", "political" ]
            },
            {
               "long_name" : "Ludhiana",
               "short_name" : "Ludhiana",
               "types" : [ "administrative_area_level_2", "political" ]
            },
            {
               "long_name" : "Punjab",
               "short_name" : "PB",
               "types" : [ "administrative_area_level_1", "political" ]
            },
            {
               "long_name" : "India",
               "short_name" : "IN",
               "types" : [ "country", "political" ]
            },
            {
               "long_name" : "141003",
               "short_name" : "141003",
               "types" : [ "postal_code" ]
            }
         ],
         "formatted_address" : "Street Number 4, Sahibjada Ajit singh Nagar, Ludhiana, Punjab 141003, India",
         "geometry" : {
            "bounds" : {
               "northeast" : {
                  "lat" : 30.886913,
                  "lng" : 75.8704176
               },
               "southwest" : {
                  "lat" : 30.88198,
                  "lng" : 75.86403
               }
            },
            "location" : {
               "lat" : 30.8860418,
               "lng" : 75.86788129999999
            },
            "location_type" : "GEOMETRIC_CENTER",
            "viewport" : {
               "northeast" : {
                  "lat" : 30.886913,
                  "lng" : 75.8704176
               },
               "southwest" : {
                  "lat" : 30.88198,
                  "lng" : 75.86403
               }
            }
         },
         "types" : [ "route" ]
      },
      {
         "address_components" : [
            {
               "long_name" : "Pratap Nagar",
               "short_name" : "Pratap Nagar",
               "types" : [ "locality", "political" ]
            },
            {
               "long_name" : "Narmada",
               "short_name" : "Narmada",
               "types" : [ "administrative_area_level_2", "political" ]
            },
            {
               "long_name" : "Gujarat",
               "short_name" : "GJ",
               "types" : [ "administrative_area_level_1", "political" ]
            },
            {
               "long_name" : "India",
               "short_name" : "IN",
               "types" : [ "country", "political" ]
            },
            {
               "long_name" : "393140",
               "short_name" : "393140",
               "types" : [ "postal_code" ]
            }
         ],
         "formatted_address" : "Pratap Nagar, Gujarat 393140, India",
         "geometry" : {
            "bounds" : {
               "northeast" : {
                  "lat" : 21.8210565,
                  "lng" : 73.36113089999999
               },
               "southwest" : {
                  "lat" : 21.8129305,
                  "lng" : 73.3565176
               }
            },
            "location" : {
               "lat" : 21.8163273,
               "lng" : 73.35864769999999
            },
            "location_type" : "APPROXIMATE",
            "viewport" : {
               "northeast" : {
                  "lat" : 21.8210565,
                  "lng" : 73.36113089999999
               },
               "southwest" : {
                  "lat" : 21.8129305,
                  "lng" : 73.3565176
               }
            }
         },
         "types" : [ "locality", "political" ]
      },
      {
         "address_components" : [
            {
               "long_name" : "Pratap Nagar",
               "short_name" : "Pratap Nagar",
               "types" : [ "route" ]
            },
            {
               "long_name" : "Patna",
               "short_name" : "Patna",
               "types" : [ "locality", "political" ]
            },
            {
               "long_name" : "Patna",
               "short_name" : "Patna",
               "types" : [ "administrative_area_level_2", "political" ]
            },
            {
               "long_name" : "Bihar",
               "short_name" : "BR",
               "types" : [ "administrative_area_level_1", "political" ]
            },
            {
               "long_name" : "India",
               "short_name" : "IN",
               "types" : [ "country", "political" ]
            },
            {
               "long_name" : "800002",
               "short_name" : "800002",
               "types" : [ "postal_code" ]
            }
         ],
         "formatted_address" : "Pratap Nagar, Patna, Bihar 800002, India",
         "geometry" : {
            "bounds" : {
               "northeast" : {
                  "lat" : 25.580729,
                  "lng" : 85.1073483
               },
               "southwest" : {
                  "lat" : 25.5771288,
                  "lng" : 85.10579729999999
               }
            },
            "location" : {
               "lat" : 25.5787938,
               "lng" : 85.1060718
            },
            "location_type" : "GEOMETRIC_CENTER",
            "viewport" : {
               "northeast" : {
                  "lat" : 25.580729,
                  "lng" : 85.10792178029149
               },
               "southwest" : {
                  "lat" : 25.5771288,
                  "lng" : 85.10522381970848
               }
            }
         },
         "types" : [ "route" ]
      },
      {
         "address_components" : [
            {
               "long_name" : "Pratap Nagar",
               "short_name" : "Pratap Nagar",
               "types" : [ "sublocality_level_1", "sublocality", "political" ]
            },
            {
               "long_name" : "Chittorgarh",
               "short_name" : "Chittorgarh",
               "types" : [ "locality", "political" ]
            },
            {
               "long_name" : "Chittaurgarh",
               "short_name" : "Chittaurgarh",
               "types" : [ "administrative_area_level_2", "political" ]
            },
            {
               "long_name" : "Rajasthan",
               "short_name" : "RJ",
               "types" : [ "administrative_area_level_1", "political" ]
            },
            {
               "long_name" : "India",
               "short_name" : "IN",
               "types" : [ "country", "political" ]
            },
            {
               "long_name" : "312001",
               "short_name" : "312001",
               "types" : [ "postal_code" ]
            }
         ],
         "formatted_address" : "Pratap Nagar, Chittorgarh, Rajasthan 312001, India",
         "geometry" : {
            "bounds" : {
               "northeast" : {
                  "lat" : 24.881557,
                  "lng" : 74.62288099999999
               },
               "southwest" : {
                  "lat" : 24.870896,
                  "lng" : 74.6127001
               }
            },
            "location" : {
               "lat" : 24.8751019,
               "lng" : 74.6180833
            },
            "location_type" : "APPROXIMATE",
            "viewport" : {
               "northeast" : {
                  "lat" : 24.881557,
                  "lng" : 74.62288099999999
               },
               "southwest" : {
                  "lat" : 24.870896,
                  "lng" : 74.6127001
               }
            }
         },
         "types" : [ "sublocality_level_1", "sublocality", "political" ]
      },
      {
         "address_components" : [
            {
               "long_name" : "Prathap Nagar",
               "short_name" : "Prathap Nagar",
               "types" : [ "sublocality_level_1", "sublocality", "political" ]
            },
            {
               "long_name" : "Warangal",
               "short_name" : "Warangal",
               "types" : [ "locality", "political" ]
            },
            {
               "long_name" : "Warangal",
               "short_name" : "Warangal",
               "types" : [ "administrative_area_level_2", "political" ]
            },
            {
               "long_name" : "Telangana",
               "short_name" : "Telangana",
               "types" : [ "administrative_area_level_1", "political" ]
            },
            {
               "long_name" : "India",
               "short_name" : "IN",
               "types" : [ "country", "political" ]
            },
            {
               "long_name" : "506002",
               "short_name" : "506002",
               "types" : [ "postal_code" ]
            }
         ],
         "formatted_address" : "Prathap Nagar, Warangal, Telangana 506002, India",
         "geometry" : {
            "bounds" : {
               "northeast" : {
                  "lat" : 17.9840689,
                  "lng" : 79.6189028
               },
               "southwest" : {
                  "lat" : 17.9710365,
                  "lng" : 79.60750899999999
               }
            },
            "location" : {
               "lat" : 17.9787386,
               "lng" : 79.61371299999999
            },
            "location_type" : "APPROXIMATE",
            "viewport" : {
               "northeast" : {
                  "lat" : 17.9840689,
                  "lng" : 79.6189028
               },
               "southwest" : {
                  "lat" : 17.9710365,
                  "lng" : 79.60750899999999
               }
            }
         },
         "types" : [ "sublocality_level_1", "sublocality", "political" ]
      },
      {
         "address_components" : [
            {
               "long_name" : "Pratap Nagar",
               "short_name" : "Pratap Nagar",
               "types" : [ "sublocality_level_1", "sublocality", "political" ]
            },
            {
               "long_name" : "Kakinada",
               "short_name" : "Kakinada",
               "types" : [ "locality", "political" ]
            },
            {
               "long_name" : "East Godavari",
               "short_name" : "East Godavari",
               "types" : [ "administrative_area_level_2", "political" ]
            },
            {
               "long_name" : "Andhra Pradesh",
               "short_name" : "AP",
               "types" : [ "administrative_area_level_1", "political" ]
            },
            {
               "long_name" : "India",
               "short_name" : "IN",
               "types" : [ "country", "political" ]
            }
         ],
         "formatted_address" : "Pratap Nagar, Kakinada, Andhra Pradesh, India",
         "geometry" : {
            "bounds" : {
               "northeast" : {
                  "lat" : 16.9813249,
                  "lng" : 82.229558
               },
               "southwest" : {
                  "lat" : 16.967917,
                  "lng" : 82.215828
               }
            },
            "location" : {
               "lat" : 16.9748908,
               "lng" : 82.2216538
            },
            "location_type" : "APPROXIMATE",
            "viewport" : {
               "northeast" : {
                  "lat" : 16.9813249,
                  "lng" : 82.229558
               },
               "southwest" : {
                  "lat" : 16.967917,
                  "lng" : 82.215828
               }
            }
         },
         "types" : [ "sublocality_level_1", "sublocality", "political" ]
      },
      {
         "address_components" : [
            {
               "long_name" : "Pratap Nagar",
               "short_name" : "Pratap Nagar",
               "types" : [ "locality", "political" ]
            },
            {
               "long_name" : "Gandhinagar",
               "short_name" : "Gandhinagar",
               "types" : [ "administrative_area_level_2", "political" ]
            },
            {
               "long_name" : "Gujarat",
               "short_name" : "GJ",
               "types" : [ "administrative_area_level_1", "political" ]
            },
            {
               "long_name" : "India",
               "short_name" : "IN",
               "types" : [ "country", "political" ]
            }
         ],
         "formatted_address" : "Pratap Nagar, Gujarat, India",
         "geometry" : {
            "bounds" : {
               "northeast" : {
                  "lat" : 23.4239917,
                  "lng" : 72.7004063
               },
               "southwest" : {
                  "lat" : 23.4197584,
                  "lng" : 72.69718759999999
               }
            },
            "location" : {
               "lat" : 23.4220988,
               "lng" : 72.69826259999999
            },
            "location_type" : "APPROXIMATE",
            "viewport" : {
               "northeast" : {
                  "lat" : 23.4239917,
                  "lng" : 72.7004063
               },
               "southwest" : {
                  "lat" : 23.4197584,
                  "lng" : 72.69718759999999
               }
            }
         },
         "types" : [ "locality", "political" ]
      },
      {
         "address_components" : [
            {
               "long_name" : "Pratap Nagar",
               "short_name" : "Pratap Nagar",
               "types" : [ "sublocality_level_3", "sublocality", "political" ]
            },
            {
               "long_name" : "Kanjurmarg West",
               "short_name" : "Kanjurmarg West",
               "types" : [ "sublocality_level_2", "sublocality", "political" ]
            },
            {
               "long_name" : "Bhandup West",
               "short_name" : "Bhandup West",
               "types" : [ "sublocality_level_1", "sublocality", "political" ]
            },
            {
               "long_name" : "Mumbai",
               "short_name" : "Mumbai",
               "types" : [ "locality", "political" ]
            },
            {
               "long_name" : "Mumbai Suburban",
               "short_name" : "Mumbai Suburban",
               "types" : [ "administrative_area_level_2", "political" ]
            },
            {
               "long_name" : "Maharashtra",
               "short_name" : "MH",
               "types" : [ "administrative_area_level_1", "political" ]
            },
            {
               "long_name" : "India",
               "short_name" : "IN",
               "types" : [ "country", "political" ]
            },
            {
               "long_name" : "400078",
               "short_name" : "400078",
               "types" : [ "postal_code" ]
            }
         ],
         "formatted_address" : "Pratap Nagar, Kanjurmarg West, Bhandup West, Mumbai, Maharashtra 400078, India",
         "geometry" : {
            "bounds" : {
               "northeast" : {
                  "lat" : 19.1401141,
                  "lng" : 72.92854699999999
               },
               "southwest" : {
                  "lat" : 19.1373951,
                  "lng" : 72.920439
               }
            },
            "location" : {
               "lat" : 19.1389505,
               "lng" : 72.9264934
            },
            "location_type" : "APPROXIMATE",
            "viewport" : {
               "northeast" : {
                  "lat" : 19.1401141,
                  "lng" : 72.92854699999999
               },
               "southwest" : {
                  "lat" : 19.1373951,
                  "lng" : 72.920439
               }
            }
         },
         "types" : [ "sublocality_level_3", "sublocality", "political" ]
      },
      {
         "address_components" : [
            {
               "long_name" : "Pratap Nagar",
               "short_name" : "Pratap Nagar",
               "types" : [ "sublocality_level_1", "sublocality", "political" ]
            },
            {
               "long_name" : "Purnea",
               "short_name" : "Purnea",
               "types" : [ "locality", "political" ]
            },
            {
               "long_name" : "Purnia",
               "short_name" : "Purnia",
               "types" : [ "administrative_area_level_2", "political" ]
            },
            {
               "long_name" : "Bihar",
               "short_name" : "BR",
               "types" : [ "administrative_area_level_1", "political" ]
            },
            {
               "long_name" : "India",
               "short_name" : "IN",
               "types" : [ "country", "political" ]
            }
         ],
         "formatted_address" : "Pratap Nagar, Purnea, Bihar, India",
         "geometry" : {
            "bounds" : {
               "northeast" : {
                  "lat" : 25.7971306,
                  "lng" : 87.48014429999999
               },
               "southwest" : {
                  "lat" : 25.7796316,
                  "lng" : 87.44438769999999
               }
            },
            "location" : {
               "lat" : 25.7857935,
               "lng" : 87.46287359999999
            },
            "location_type" : "APPROXIMATE",
            "viewport" : {
               "northeast" : {
                  "lat" : 25.7971306,
                  "lng" : 87.48014429999999
               },
               "southwest" : {
                  "lat" : 25.7796316,
                  "lng" : 87.44438769999999
               }
            }
         },
         "types" : [ "sublocality_level_1", "sublocality", "political" ]
      },
      {
         "address_components" : [
            {
               "long_name" : "Pratap Nagar",
               "short_name" : "Pratap Nagar",
               "types" : [ "sublocality_level_2", "sublocality", "political" ]
            },
            {
               "long_name" : "Malad East",
               "short_name" : "Malad East",
               "types" : [ "sublocality_level_1", "sublocality", "political" ]
            },
            {
               "long_name" : "Mumbai",
               "short_name" : "Mumbai",
               "types" : [ "locality", "political" ]
            },
            {
               "long_name" : "Mumbai Suburban",
               "short_name" : "Mumbai Suburban",
               "types" : [ "administrative_area_level_2", "political" ]
            },
            {
               "long_name" : "Maharashtra",
               "short_name" : "MH",
               "types" : [ "administrative_area_level_1", "political" ]
            },
            {
               "long_name" : "India",
               "short_name" : "IN",
               "types" : [ "country", "political" ]
            },
            {
               "long_name" : "400097",
               "short_name" : "400097",
               "types" : [ "postal_code" ]
            }
         ],
         "formatted_address" : "Pratap Nagar, Malad East, Mumbai, Maharashtra 400097, India",
         "geometry" : {
            "bounds" : {
               "northeast" : {
                  "lat" : 19.1886811,
                  "lng" : 72.8583361
               },
               "southwest" : {
                  "lat" : 19.184486,
                  "lng" : 72.85428
               }
            },
            "location" : {
               "lat" : 19.1872704,
               "lng" : 72.8567173
            },
            "location_type" : "APPROXIMATE",
            "viewport" : {
               "northeast" : {
                  "lat" : 19.1886811,
                  "lng" : 72.8583361
               },
               "southwest" : {
                  "lat" : 19.184486,
                  "lng" : 72.85428
               }
            }
         },
         "types" : [ "sublocality_level_2", "sublocality", "political" ]
      },
      {
         "address_components" : [
            {
               "long_name" : "Pratap Nagar",
               "short_name" : "Pratap Nagar",
               "types" : [ "sublocality_level_1", "sublocality", "political" ]
            },
            {
               "long_name" : "Bhilwara",
               "short_name" : "Bhilwara",
               "types" : [ "locality", "political" ]
            },
            {
               "long_name" : "Bhilwara",
               "short_name" : "Bhilwara",
               "types" : [ "administrative_area_level_2", "political" ]
            },
            {
               "long_name" : "Rajasthan",
               "short_name" : "RJ",
               "types" : [ "administrative_area_level_1", "political" ]
            },
            {
               "long_name" : "India",
               "short_name" : "IN",
               "types" : [ "country", "political" ]
            },
            {
               "long_name" : "311001",
               "short_name" : "311001",
               "types" : [ "postal_code" ]
            }
         ],
         "formatted_address" : "Pratap Nagar, Bhilwara, Rajasthan 311001, India",
         "geometry" : {
            "bounds" : {
               "northeast" : {
                  "lat" : 25.3437781,
                  "lng" : 74.631356
               },
               "southwest" : {
                  "lat" : 25.3337639,
                  "lng" : 74.61335800000001
               }
            },
            "location" : {
               "lat" : 25.3406487,
               "lng" : 74.62101149999999
            },
            "location_type" : "APPROXIMATE",
            "viewport" : {
               "northeast" : {
                  "lat" : 25.3437781,
                  "lng" : 74.631356
               },
               "southwest" : {
                  "lat" : 25.3337639,
                  "lng" : 74.61335800000001
               }
            }
         },
         "types" : [ "sublocality_level_1", "sublocality", "political" ]
      },
      {
         "address_components" : [
            {
               "long_name" : "Pratap Nagar",
               "short_name" : "Pratap Nagar",
               "types" : [ "sublocality_level_2", "sublocality", "political" ]
            },
            {
               "long_name" : "Soma Talav",
               "short_name" : "Soma Talav",
               "types" : [ "sublocality_level_1", "sublocality", "political" ]
            },
            {
               "long_name" : "Vadodara",
               "short_name" : "Vadodara",
               "types" : [ "locality", "political" ]
            },
            {
               "long_name" : "Vadodara",
               "short_name" : "Vadodara",
               "types" : [ "administrative_area_level_2", "political" ]
            },
            {
               "long_name" : "Gujarat",
               "short_name" : "GJ",
               "types" : [ "administrative_area_level_1", "political" ]
            },
            {
               "long_name" : "India",
               "short_name" : "IN",
               "types" : [ "country", "political" ]
            }
         ],
         "formatted_address" : "Pratap Nagar, Soma Talav, Vadodara, Gujarat, India",
         "geometry" : {
            "bounds" : {
               "northeast" : {
                  "lat" : 22.2793001,
                  "lng" : 73.23380499999999
               },
               "southwest" : {
                  "lat" : 22.2743889,
                  "lng" : 73.22754789999999
               }
            },
            "location" : {
               "lat" : 22.2769138,
               "lng" : 73.2304601
            },
            "location_type" : "APPROXIMATE",
            "viewport" : {
               "northeast" : {
                  "lat" : 22.2793001,
                  "lng" : 73.23380499999999
               },
               "southwest" : {
                  "lat" : 22.2743889,
                  "lng" : 73.22754789999999
               }
            }
         },
         "types" : [ "sublocality_level_2", "sublocality", "political" ]
      },
      {
         "address_components" : [
            {
               "long_name" : "Prathap Nagar",
               "short_name" : "Prathap Nagar",
               "types" : [ "sublocality_level_2", "sublocality", "political" ]
            },
            {
               "long_name" : "Bhavani Nagar",
               "short_name" : "Bhavani Nagar",
               "types" : [ "sublocality_level_1", "sublocality", "political" ]
            },
            {
               "long_name" : "Surat",
               "short_name" : "Surat",
               "types" : [ "locality", "political" ]
            },
            {
               "long_name" : "Surat",
               "short_name" : "Surat",
               "types" : [ "administrative_area_level_2", "political" ]
            },
            {
               "long_name" : "Gujarat",
               "short_name" : "GJ",
               "types" : [ "administrative_area_level_1", "political" ]
            },
            {
               "long_name" : "India",
               "short_name" : "IN",
               "types" : [ "country", "political" ]
            },
            {
               "long_name" : "394210",
               "short_name" : "394210",
               "types" : [ "postal_code" ]
            }
         ],
         "formatted_address" : "Prathap Nagar, Bhavani Nagar, Surat, Gujarat 394210, India",
         "geometry" : {
            "bounds" : {
               "northeast" : {
                  "lat" : 21.1788551,
                  "lng" : 72.8562101
               },
               "southwest" : {
                  "lat" : 21.17654,
                  "lng" : 72.85351589999999
               }
            },
            "location" : {
               "lat" : 21.1775166,
               "lng" : 72.8548711
            },
            "location_type" : "APPROXIMATE",
            "viewport" : {
               "northeast" : {
                  "lat" : 21.1790465302915,
                  "lng" : 72.85621198029149
               },
               "southwest" : {
                  "lat" : 21.1763485697085,
                  "lng" : 72.85351401970848
               }
            }
         },
         "types" : [ "sublocality_level_2", "sublocality", "political" ]
      },
      {
         "address_components" : [
            {
               "long_name" : "Pratap Nagar",
               "short_name" : "Pratap Nagar",
               "types" : [ "sublocality_level_3", "sublocality", "political" ]
            },
            {
               "long_name" : "Ghosha Mahal North",
               "short_name" : "Ghosha Mahal North",
               "types" : [ "sublocality_level_2", "sublocality", "political" ]
            },
            {
               "long_name" : "Nampally",
               "short_name" : "Nampally",
               "types" : [ "sublocality_level_1", "sublocality", "political" ]
            },
            {
               "long_name" : "Hyderabad",
               "short_name" : "Hyderabad",
               "types" : [ "locality", "political" ]
            },
            {
               "long_name" : "Hyderabad",
               "short_name" : "Hyderabad",
               "types" : [ "administrative_area_level_2", "political" ]
            },
            {
               "long_name" : "Telangana",
               "short_name" : "Telangana",
               "types" : [ "administrative_area_level_1", "political" ]
            },
            {
               "long_name" : "India",
               "short_name" : "IN",
               "types" : [ "country", "political" ]
            }
         ],
         "formatted_address" : "Pratap Nagar, Ghosha Mahal North, Nampally, Hyderabad, Telangana, India",
         "geometry" : {
            "bounds" : {
               "northeast" : {
                  "lat" : 17.3846719,
                  "lng" : 78.473264
               },
               "southwest" : {
                  "lat" : 17.3819601,
                  "lng" : 78.469745
               }
            },
            "location" : {
               "lat" : 17.3830937,
               "lng" : 78.47128719999999
            },
            "location_type" : "APPROXIMATE",
            "viewport" : {
               "northeast" : {
                  "lat" : 17.3846719,
                  "lng" : 78.473264
               },
               "southwest" : {
                  "lat" : 17.3819601,
                  "lng" : 78.469745
               }
            }
         },
         "types" : [ "sublocality_level_3", "sublocality", "political" ]
      },
      {
         "address_components" : [
            {
               "long_name" : "Pratap Nagar",
               "short_name" : "Pratap Nagar",
               "types" : [ "sublocality_level_2", "sublocality", "political" ]
            },
            {
               "long_name" : "Housing Board",
               "short_name" : "Housing Board",
               "types" : [ "sublocality_level_1", "sublocality", "political" ]
            },
            {
               "long_name" : "Banswara",
               "short_name" : "Banswara",
               "types" : [ "locality", "political" ]
            },
            {
               "long_name" : "Banswara",
               "short_name" : "Banswara",
               "types" : [ "administrative_area_level_2", "political" ]
            },
            {
               "long_name" : "Rajasthan",
               "short_name" : "RJ",
               "types" : [ "administrative_area_level_1", "political" ]
            },
            {
               "long_name" : "India",
               "short_name" : "IN",
               "types" : [ "country", "political" ]
            },
            {
               "long_name" : "327001",
               "short_name" : "327001",
               "types" : [ "postal_code" ]
            }
         ],
         "formatted_address" : "Pratap Nagar, Housing Board, Banswara, Rajasthan 327001, India",
         "geometry" : {
            "bounds" : {
               "northeast" : {
                  "lat" : 23.56242,
                  "lng" : 74.43156200000001
               },
               "southwest" : {
                  "lat" : 23.560555,
                  "lng" : 74.429802
               }
            },
            "location" : {
               "lat" : 23.5614657,
               "lng" : 74.43076239999999
            },
            "location_type" : "APPROXIMATE",
            "viewport" : {
               "northeast" : {
                  "lat" : 23.5628364802915,
                  "lng" : 74.4320309802915
               },
               "southwest" : {
                  "lat" : 23.5601385197085,
                  "lng" : 74.42933301970849
               }
            }
         },
         "types" : [ "sublocality_level_2", "sublocality", "political" ]
      },
      {
         "address_components" : [
            {
               "long_name" : "Pratap Nagar",
               "short_name" : "Pratap Nagar",
               "types" : [ "sublocality_level_2", "sublocality", "political" ]
            },
            {
               "long_name" : "Jogeshwari East",
               "short_name" : "Jogeshwari East",
               "types" : [ "sublocality_level_1", "sublocality", "political" ]
            },
            {
               "long_name" : "Mumbai",
               "short_name" : "Mumbai",
               "types" : [ "locality", "political" ]
            },
            {
               "long_name" : "Mumbai Suburban",
               "short_name" : "Mumbai Suburban",
               "types" : [ "administrative_area_level_2", "political" ]
            },
            {
               "long_name" : "Maharashtra",
               "short_name" : "MH",
               "types" : [ "administrative_area_level_1", "political" ]
            },
            {
               "long_name" : "India",
               "short_name" : "IN",
               "types" : [ "country", "political" ]
            }
         ],
         "formatted_address" : "Pratap Nagar, Jogeshwari East, Mumbai, Maharashtra, India",
         "geometry" : {
            "bounds" : {
               "northeast" : {
                  "lat" : 19.142169,
                  "lng" : 72.85885999999999
               },
               "southwest" : {
                  "lat" : 19.1393911,
                  "lng" : 72.854624
               }
            },
            "location" : {
               "lat" : 19.1405146,
               "lng" : 72.85705419999999
            },
            "location_type" : "APPROXIMATE",
            "viewport" : {
               "northeast" : {
                  "lat" : 19.142169,
                  "lng" : 72.85885999999999
               },
               "southwest" : {
                  "lat" : 19.1393911,
                  "lng" : 72.854624
               }
            }
         },
         "types" : [ "sublocality_level_2", "sublocality", "political" ]
      },
      {
         "address_components" : [
            {
               "long_name" : "Pratap Nagar",
               "short_name" : "Pratap Nagar",
               "types" : [ "sublocality_level_1", "sublocality", "political" ]
            },
            {
               "long_name" : "Beawar",
               "short_name" : "Beawar",
               "types" : [ "locality", "political" ]
            },
            {
               "long_name" : "Ajmer",
               "short_name" : "Ajmer",
               "types" : [ "administrative_area_level_2", "political" ]
            },
            {
               "long_name" : "Rajasthan",
               "short_name" : "RJ",
               "types" : [ "administrative_area_level_1", "political" ]
            },
            {
               "long_name" : "India",
               "short_name" : "IN",
               "types" : [ "country", "political" ]
            },
            {
               "long_name" : "305901",
               "short_name" : "305901",
               "types" : [ "postal_code" ]
            }
         ],
         "formatted_address" : "Pratap Nagar, Beawar, Rajasthan 305901, India",
         "geometry" : {
            "bounds" : {
               "northeast" : {
                  "lat" : 26.095184,
                  "lng" : 74.3183399
               },
               "southwest" : {
                  "lat" : 26.086741,
                  "lng" : 74.308892
               }
            },
            "location" : {
               "lat" : 26.090644,
               "lng" : 74.3140212
            },
            "location_type" : "APPROXIMATE",
            "viewport" : {
               "northeast" : {
                  "lat" : 26.095184,
                  "lng" : 74.3183399
               },
               "southwest" : {
                  "lat" : 26.086741,
                  "lng" : 74.308892
               }
            }
         },
         "types" : [ "sublocality_level_1", "sublocality", "political" ]
      },
      {
         "address_components" : [
            {
               "long_name" : "Pratap Nagar",
               "short_name" : "Pratap Nagar",
               "types" : [ "sublocality_level_2", "sublocality", "political" ]
            },
            {
               "long_name" : "Mandoli",
               "short_name" : "Mandoli",
               "types" : [ "sublocality_level_1", "sublocality", "political" ]
            },
            {
               "long_name" : "New Delhi",
               "short_name" : "New Delhi",
               "types" : [ "locality", "political" ]
            },
            {
               "long_name" : "North East Delhi",
               "short_name" : "North East Delhi",
               "types" : [ "administrative_area_level_2", "political" ]
            },
            {
               "long_name" : "Delhi",
               "short_name" : "DL",
               "types" : [ "administrative_area_level_1", "political" ]
            },
            {
               "long_name" : "India",
               "short_name" : "IN",
               "types" : [ "country", "political" ]
            }
         ],
         "formatted_address" : "Pratap Nagar, Mandoli, New Delhi, Delhi, India",
         "geometry" : {
            "bounds" : {
               "northeast" : {
                  "lat" : 28.71272,
                  "lng" : 77.31187299999999
               },
               "southwest" : {
                  "lat" : 28.706702,
                  "lng" : 77.3021351
               }
            },
            "location" : {
               "lat" : 28.7086109,
               "lng" : 77.30731329999999
            },
            "location_type" : "APPROXIMATE",
            "viewport" : {
               "northeast" : {
                  "lat" : 28.71272,
                  "lng" : 77.31187299999999
               },
               "southwest" : {
                  "lat" : 28.706702,
                  "lng" : 77.3021351
               }
            }
         },
         "types" : [ "sublocality_level_2", "sublocality", "political" ]
      }
   ],
   "status" : "OK"
}
