{
   "results" : [
      {
         "address_components" : [
            {
               "long_name" : "Rajeev Chowk",
               "short_name" : "Rajeev Chowk",
               "types" : [ "sublocality_level_2", "sublocality", "political" ]
            },
            {
               "long_name" : "Connaught Place",
               "short_name" : "CP",
               "types" : [ "sublocality_level_1", "sublocality", "political" ]
            },
            {
               "long_name" : "New Delhi",
               "short_name" : "New Delhi",
               "types" : [ "locality", "political" ]
            },
            {
               "long_name" : "New Delhi",
               "short_name" : "New Delhi",
               "types" : [ "administrative_area_level_2", "political" ]
            },
            {
               "long_name" : "Delhi",
               "short_name" : "DL",
               "types" : [ "administrative_area_level_1", "political" ]
            },
            {
               "long_name" : "India",
               "short_name" : "IN",
               "types" : [ "country", "political" ]
            },
            {
               "long_name" : "110001",
               "short_name" : "110001",
               "types" : [ "postal_code" ]
            }
         ],
         "formatted_address" : "Rajeev Chowk, Connaught Place, New Delhi, Delhi 110001, India",
         "geometry" : {
            "bounds" : {
               "northeast" : {
                  "lat" : 28.633914,
                  "lng" : 77.221003
               },
               "southwest" : {
                  "lat" : 28.6316329,
                  "lng" : 77.2184101
               }
            },
            "location" : {
               "lat" : 28.6329032,
               "lng" : 77.219678
            },
            "location_type" : "APPROXIMATE",
            "viewport" : {
               "northeast" : {
                  "lat" : 28.6341224302915,
                  "lng" : 77.22105553029151
               },
               "southwest" : {
                  "lat" : 28.6314244697085,
                  "lng" : 77.2183575697085
               }
            }
         },
         "types" : [ "sublocality_level_2", "sublocality", "political" ]
      }
   ],
   "status" : "OK"
}
