{
   "results" : [
      {
         "address_components" : [
            {
               "long_name" : "Vikas Marg",
               "short_name" : "Vikas Marg",
               "types" : [ "route" ]
            },
            {
               "long_name" : "New Delhi",
               "short_name" : "New Delhi",
               "types" : [ "locality", "political" ]
            },
            {
               "long_name" : "Delhi",
               "short_name" : "DL",
               "types" : [ "administrative_area_level_1", "political" ]
            },
            {
               "long_name" : "India",
               "short_name" : "IN",
               "types" : [ "country", "political" ]
            }
         ],
         "formatted_address" : "Vikas Marg, New Delhi, Delhi, India",
         "geometry" : {
            "bounds" : {
               "northeast" : {
                  "lat" : 28.6442734,
                  "lng" : 77.2988306
               },
               "southwest" : {
                  "lat" : 28.6279141,
                  "lng" : 77.24991469999999
               }
            },
            "location" : {
               "lat" : 28.6312239,
               "lng" : 77.27834539999999
            },
            "location_type" : "GEOMETRIC_CENTER",
            "viewport" : {
               "northeast" : {
                  "lat" : 28.6442734,
                  "lng" : 77.2988306
               },
               "southwest" : {
                  "lat" : 28.6279141,
                  "lng" : 77.24991469999999
               }
            }
         },
         "types" : [ "route" ]
      },
      {
         "address_components" : [
            {
               "long_name" : "Vikas Marg",
               "short_name" : "Vikas Marg",
               "types" : [ "route" ]
            },
            {
               "long_name" : "IG Indoor Stadium",
               "short_name" : "IG Indoor Stadium",
               "types" : [ "sublocality_level_3", "sublocality", "political" ]
            },
            {
               "long_name" : "ITO",
               "short_name" : "ITO",
               "types" : [ "sublocality_level_2", "sublocality", "political" ]
            },
            {
               "long_name" : "Vikram Nagar",
               "short_name" : "Vikram Nagar",
               "types" : [ "sublocality_level_1", "sublocality", "political" ]
            },
            {
               "long_name" : "New Delhi",
               "short_name" : "New Delhi",
               "types" : [ "locality", "political" ]
            },
            {
               "long_name" : "East Delhi",
               "short_name" : "East Delhi",
               "types" : [ "administrative_area_level_2", "political" ]
            },
            {
               "long_name" : "Delhi",
               "short_name" : "DL",
               "types" : [ "administrative_area_level_1", "political" ]
            },
            {
               "long_name" : "India",
               "short_name" : "IN",
               "types" : [ "country", "political" ]
            },
            {
               "long_name" : "110002",
               "short_name" : "110002",
               "types" : [ "postal_code" ]
            }
         ],
         "formatted_address" : "Vikas Marg, IG Indoor Stadium, ITO, Vikram Nagar, New Delhi, Delhi 110002, India",
         "geometry" : {
            "bounds" : {
               "northeast" : {
                  "lat" : 28.6282739,
                  "lng" : 77.2602679
               },
               "southwest" : {
                  "lat" : 28.6282038,
                  "lng" : 77.24991469999999
               }
            },
            "location" : {
               "lat" : 28.6282635,
               "lng" : 77.2548748
            },
            "location_type" : "GEOMETRIC_CENTER",
            "viewport" : {
               "northeast" : {
                  "lat" : 28.6295878302915,
                  "lng" : 77.2602679
               },
               "southwest" : {
                  "lat" : 28.6268898697085,
                  "lng" : 77.24991469999999
               }
            }
         },
         "types" : [ "route" ]
      },
      {
         "address_components" : [
            {
               "long_name" : "Vikas Marg",
               "short_name" : "Vikas Marg",
               "types" : [ "route" ]
            },
            {
               "long_name" : "Gas Turbine Power Station",
               "short_name" : "Gas Turbine Power Station",
               "types" : [ "sublocality_level_2", "sublocality", "political" ]
            },
            {
               "long_name" : "IP Estate",
               "short_name" : "IP Estate",
               "types" : [ "sublocality_level_1", "sublocality", "political" ]
            },
            {
               "long_name" : "New Delhi",
               "short_name" : "New Delhi",
               "types" : [ "locality", "political" ]
            },
            {
               "long_name" : "Central Delhi",
               "short_name" : "Central Delhi",
               "types" : [ "administrative_area_level_2", "political" ]
            },
            {
               "long_name" : "Delhi",
               "short_name" : "DL",
               "types" : [ "administrative_area_level_1", "political" ]
            },
            {
               "long_name" : "India",
               "short_name" : "IN",
               "types" : [ "country", "political" ]
            },
            {
               "long_name" : "110002",
               "short_name" : "110002",
               "types" : [ "postal_code" ]
            }
         ],
         "formatted_address" : "Vikas Marg, Gas Turbine Power Station, IP Estate, New Delhi, Delhi 110002, India",
         "geometry" : {
            "bounds" : {
               "northeast" : {
                  "lat" : 28.6281218,
                  "lng" : 77.2495091
               },
               "southwest" : {
                  "lat" : 28.6280937,
                  "lng" : 77.2467573
               }
            },
            "location" : {
               "lat" : 28.628112,
               "lng" : 77.2478874
            },
            "location_type" : "GEOMETRIC_CENTER",
            "viewport" : {
               "northeast" : {
                  "lat" : 28.6294567302915,
                  "lng" : 77.2495091
               },
               "southwest" : {
                  "lat" : 28.6267587697085,
                  "lng" : 77.2467573
               }
            }
         },
         "types" : [ "route" ]
      },
      {
         "address_components" : [
            {
               "long_name" : "Vikas Marg",
               "short_name" : "Vikas Marg",
               "types" : [ "route" ]
            },
            {
               "long_name" : "Neemuch",
               "short_name" : "Neemuch",
               "types" : [ "locality", "political" ]
            },
            {
               "long_name" : "Neemuch",
               "short_name" : "Neemuch",
               "types" : [ "administrative_area_level_2", "political" ]
            },
            {
               "long_name" : "Madhya Pradesh",
               "short_name" : "MP",
               "types" : [ "administrative_area_level_1", "political" ]
            },
            {
               "long_name" : "India",
               "short_name" : "IN",
               "types" : [ "country", "political" ]
            },
            {
               "long_name" : "458441",
               "short_name" : "458441",
               "types" : [ "postal_code" ]
            }
         ],
         "formatted_address" : "Vikas Marg, Neemuch, Madhya Pradesh 458441, India",
         "geometry" : {
            "bounds" : {
               "northeast" : {
                  "lat" : 24.4737951,
                  "lng" : 74.872626
               },
               "southwest" : {
                  "lat" : 24.4639567,
                  "lng" : 74.8640413
               }
            },
            "location" : {
               "lat" : 24.4691109,
               "lng" : 74.86849169999999
            },
            "location_type" : "GEOMETRIC_CENTER",
            "viewport" : {
               "northeast" : {
                  "lat" : 24.4737951,
                  "lng" : 74.872626
               },
               "southwest" : {
                  "lat" : 24.4639567,
                  "lng" : 74.8640413
               }
            }
         },
         "types" : [ "route" ]
      },
      {
         "address_components" : [
            {
               "long_name" : "Vikas Marg",
               "short_name" : "Vikas Marg",
               "types" : [ "route" ]
            },
            {
               "long_name" : "Gurgaon",
               "short_name" : "Gurgaon",
               "types" : [ "locality", "political" ]
            },
            {
               "long_name" : "Gurgaon",
               "short_name" : "Gurgaon",
               "types" : [ "administrative_area_level_2", "political" ]
            },
            {
               "long_name" : "Haryana",
               "short_name" : "HR",
               "types" : [ "administrative_area_level_1", "political" ]
            },
            {
               "long_name" : "India",
               "short_name" : "IN",
               "types" : [ "country", "political" ]
            },
            {
               "long_name" : "122003",
               "short_name" : "122003",
               "types" : [ "postal_code" ]
            }
         ],
         "formatted_address" : "Vikas Marg, Gurgaon, Haryana 122003, India",
         "geometry" : {
            "bounds" : {
               "northeast" : {
                  "lat" : 28.4459463,
                  "lng" : 77.0760265
               },
               "southwest" : {
                  "lat" : 28.4345998,
                  "lng" : 77.0632399
               }
            },
            "location" : {
               "lat" : 28.4396392,
               "lng" : 77.06973789999999
            },
            "location_type" : "GEOMETRIC_CENTER",
            "viewport" : {
               "northeast" : {
                  "lat" : 28.4459463,
                  "lng" : 77.0760265
               },
               "southwest" : {
                  "lat" : 28.4345998,
                  "lng" : 77.0632399
               }
            }
         },
         "types" : [ "route" ]
      },
      {
         "address_components" : [
            {
               "long_name" : "Vikas Marg",
               "short_name" : "Vikas Marg",
               "types" : [ "route" ]
            },
            {
               "long_name" : "Rohini",
               "short_name" : "Rohini",
               "types" : [ "sublocality_level_1", "sublocality", "political" ]
            },
            {
               "long_name" : "New Delhi",
               "short_name" : "New Delhi",
               "types" : [ "locality", "political" ]
            },
            {
               "long_name" : "North West Delhi",
               "short_name" : "North West Delhi",
               "types" : [ "administrative_area_level_2", "political" ]
            },
            {
               "long_name" : "Delhi",
               "short_name" : "DL",
               "types" : [ "administrative_area_level_1", "political" ]
            },
            {
               "long_name" : "India",
               "short_name" : "IN",
               "types" : [ "country", "political" ]
            },
            {
               "long_name" : "110085",
               "short_name" : "110085",
               "types" : [ "postal_code" ]
            }
         ],
         "formatted_address" : "Vikas Marg, Rohini, New Delhi, Delhi 110085, India",
         "geometry" : {
            "bounds" : {
               "northeast" : {
                  "lat" : 28.7346234,
                  "lng" : 77.0877582
               },
               "southwest" : {
                  "lat" : 28.7266546,
                  "lng" : 77.0806393
               }
            },
            "location" : {
               "lat" : 28.7306433,
               "lng" : 77.08424549999999
            },
            "location_type" : "GEOMETRIC_CENTER",
            "viewport" : {
               "northeast" : {
                  "lat" : 28.7346234,
                  "lng" : 77.0877582
               },
               "southwest" : {
                  "lat" : 28.7266546,
                  "lng" : 77.0806393
               }
            }
         },
         "types" : [ "route" ]
      },
      {
         "address_components" : [
            {
               "long_name" : "Vikash Marg Road",
               "short_name" : "Vikash Marg Rd",
               "types" : [ "route" ]
            },
            {
               "long_name" : "C Block",
               "short_name" : "C Block",
               "types" : [ "sublocality_level_2", "sublocality", "political" ]
            },
            {
               "long_name" : "Preet Vihar",
               "short_name" : "Preet Vihar",
               "types" : [ "sublocality_level_1", "sublocality", "political" ]
            },
            {
               "long_name" : "New Delhi",
               "short_name" : "New Delhi",
               "types" : [ "locality", "political" ]
            },
            {
               "long_name" : "East Delhi",
               "short_name" : "East Delhi",
               "types" : [ "administrative_area_level_2", "political" ]
            },
            {
               "long_name" : "Delhi",
               "short_name" : "DL",
               "types" : [ "administrative_area_level_1", "political" ]
            },
            {
               "long_name" : "India",
               "short_name" : "IN",
               "types" : [ "country", "political" ]
            },
            {
               "long_name" : "110092",
               "short_name" : "110092",
               "types" : [ "postal_code" ]
            }
         ],
         "formatted_address" : "Vikash Marg Road, C Block, Preet Vihar, New Delhi, Delhi 110092, India",
         "geometry" : {
            "bounds" : {
               "northeast" : {
                  "lat" : 28.6385135,
                  "lng" : 77.2927962
               },
               "southwest" : {
                  "lat" : 28.6364064,
                  "lng" : 77.2907146
               }
            },
            "location" : {
               "lat" : 28.6369708,
               "lng" : 77.29221509999999
            },
            "location_type" : "GEOMETRIC_CENTER",
            "viewport" : {
               "northeast" : {
                  "lat" : 28.6388089302915,
                  "lng" : 77.29310438029151
               },
               "southwest" : {
                  "lat" : 28.6361109697085,
                  "lng" : 77.29040641970849
               }
            }
         },
         "types" : [ "route" ]
      },
      {
         "address_components" : [
            {
               "long_name" : "Vikas Marg",
               "short_name" : "Vikas Marg",
               "types" : [ "route" ]
            },
            {
               "long_name" : "Sethi Colony",
               "short_name" : "Sethi Colony",
               "types" : [ "sublocality_level_1", "sublocality", "political" ]
            },
            {
               "long_name" : "Jaipur",
               "short_name" : "Jaipur",
               "types" : [ "locality", "political" ]
            },
            {
               "long_name" : "Jaipur",
               "short_name" : "Jaipur",
               "types" : [ "administrative_area_level_2", "political" ]
            },
            {
               "long_name" : "Rajasthan",
               "short_name" : "RJ",
               "types" : [ "administrative_area_level_1", "political" ]
            },
            {
               "long_name" : "India",
               "short_name" : "IN",
               "types" : [ "country", "political" ]
            },
            {
               "long_name" : "302004",
               "short_name" : "302004",
               "types" : [ "postal_code" ]
            }
         ],
         "formatted_address" : "Vikas Marg, Sethi Colony, Jaipur, Rajasthan 302004, India",
         "geometry" : {
            "bounds" : {
               "northeast" : {
                  "lat" : 26.9054427,
                  "lng" : 75.841522
               },
               "southwest" : {
                  "lat" : 26.90427,
                  "lng" : 75.840152
               }
            },
            "location" : {
               "lat" : 26.9046993,
               "lng" : 75.8407904
            },
            "location_type" : "GEOMETRIC_CENTER",
            "viewport" : {
               "northeast" : {
                  "lat" : 26.9062053302915,
                  "lng" : 75.8421859802915
               },
               "southwest" : {
                  "lat" : 26.9035073697085,
                  "lng" : 75.8394880197085
               }
            }
         },
         "types" : [ "route" ]
      }
   ],
   "status" : "OK"
}
