{
   "results" : [
      {
         "address_components" : [
            {
               "long_name" : "Windsor Place",
               "short_name" : "Windsor Pl",
               "types" : [ "route" ]
            },
            {
               "long_name" : "Central Islip",
               "short_name" : "Central Islip",
               "types" : [ "locality", "political" ]
            },
            {
               "long_name" : "Islip",
               "short_name" : "Islip",
               "types" : [ "administrative_area_level_3", "political" ]
            },
            {
               "long_name" : "Suffolk County",
               "short_name" : "Suffolk County",
               "types" : [ "administrative_area_level_2", "political" ]
            },
            {
               "long_name" : "New York",
               "short_name" : "NY",
               "types" : [ "administrative_area_level_1", "political" ]
            },
            {
               "long_name" : "United States",
               "short_name" : "US",
               "types" : [ "country", "political" ]
            },
            {
               "long_name" : "11722",
               "short_name" : "11722",
               "types" : [ "postal_code" ]
            }
         ],
         "formatted_address" : "Windsor Place, Central Islip, NY 11722, USA",
         "geometry" : {
            "bounds" : {
               "northeast" : {
                  "lat" : 40.7962183,
                  "lng" : -73.1675662
               },
               "southwest" : {
                  "lat" : 40.7895759,
                  "lng" : -73.17977370000001
               }
            },
            "location" : {
               "lat" : 40.7948431,
               "lng" : -73.1711081
            },
            "location_type" : "GEOMETRIC_CENTER",
            "viewport" : {
               "northeast" : {
                  "lat" : 40.7962183,
                  "lng" : -73.1675662
               },
               "southwest" : {
                  "lat" : 40.7895759,
                  "lng" : -73.17977370000001
               }
            }
         },
         "types" : [ "route" ]
      },
      {
         "address_components" : [
            {
               "long_name" : "Windsor Place",
               "short_name" : "Windsor Pl",
               "types" : [ "route" ]
            },
            {
               "long_name" : "Brooklyn",
               "short_name" : "Brooklyn",
               "types" : [ "sublocality_level_1", "sublocality", "political" ]
            },
            {
               "long_name" : "New York",
               "short_name" : "NY",
               "types" : [ "locality", "political" ]
            },
            {
               "long_name" : "Kings County",
               "short_name" : "Kings County",
               "types" : [ "administrative_area_level_2", "political" ]
            },
            {
               "long_name" : "New York",
               "short_name" : "NY",
               "types" : [ "administrative_area_level_1", "political" ]
            },
            {
               "long_name" : "United States",
               "short_name" : "US",
               "types" : [ "country", "political" ]
            },
            {
               "long_name" : "11215",
               "short_name" : "11215",
               "types" : [ "postal_code" ]
            }
         ],
         "formatted_address" : "Windsor Place, Brooklyn, NY 11215, USA",
         "geometry" : {
            "bounds" : {
               "northeast" : {
                  "lat" : 40.6620824,
                  "lng" : -73.9737342
               },
               "southwest" : {
                  "lat" : 40.656415,
                  "lng" : -73.9856108
               }
            },
            "location" : {
               "lat" : 40.65905,
               "lng" : -73.97933999999999
            },
            "location_type" : "GEOMETRIC_CENTER",
            "viewport" : {
               "northeast" : {
                  "lat" : 40.6620824,
                  "lng" : -73.9737342
               },
               "southwest" : {
                  "lat" : 40.656415,
                  "lng" : -73.9856108
               }
            }
         },
         "types" : [ "route" ]
      },
      {
         "address_components" : [
            {
               "long_name" : "Windsor Place",
               "short_name" : "Windsor Pl",
               "types" : [ "route" ]
            },
            {
               "long_name" : "Findlay",
               "short_name" : "Findlay",
               "types" : [ "locality", "political" ]
            },
            {
               "long_name" : "Hancock County",
               "short_name" : "Hancock County",
               "types" : [ "administrative_area_level_2", "political" ]
            },
            {
               "long_name" : "Ohio",
               "short_name" : "OH",
               "types" : [ "administrative_area_level_1", "political" ]
            },
            {
               "long_name" : "United States",
               "short_name" : "US",
               "types" : [ "country", "political" ]
            },
            {
               "long_name" : "45840",
               "short_name" : "45840",
               "types" : [ "postal_code" ]
            }
         ],
         "formatted_address" : "Windsor Place, Findlay, OH 45840, USA",
         "geometry" : {
            "bounds" : {
               "northeast" : {
                  "lat" : 41.04590260000001,
                  "lng" : -83.6078239
               },
               "southwest" : {
                  "lat" : 41.0408954,
                  "lng" : -83.61686999999999
               }
            },
            "location" : {
               "lat" : 41.0449792,
               "lng" : -83.6125248
            },
            "location_type" : "GEOMETRIC_CENTER",
            "viewport" : {
               "northeast" : {
                  "lat" : 41.04590260000001,
                  "lng" : -83.6078239
               },
               "southwest" : {
                  "lat" : 41.0408954,
                  "lng" : -83.61686999999999
               }
            }
         },
         "types" : [ "route" ]
      },
      {
         "address_components" : [
            {
               "long_name" : "Windsor Place",
               "short_name" : "Windsor Pl",
               "types" : [ "route" ]
            },
            {
               "long_name" : "Palmdale",
               "short_name" : "Palmdale",
               "types" : [ "locality", "political" ]
            },
            {
               "long_name" : "Los Angeles County",
               "short_name" : "Los Angeles County",
               "types" : [ "administrative_area_level_2", "political" ]
            },
            {
               "long_name" : "California",
               "short_name" : "CA",
               "types" : [ "administrative_area_level_1", "political" ]
            },
            {
               "long_name" : "United States",
               "short_name" : "US",
               "types" : [ "country", "political" ]
            },
            {
               "long_name" : "93551",
               "short_name" : "93551",
               "types" : [ "postal_code" ]
            }
         ],
         "formatted_address" : "Windsor Place, Palmdale, CA 93551, USA",
         "geometry" : {
            "bounds" : {
               "northeast" : {
                  "lat" : 34.60151200000001,
                  "lng" : -118.153346
               },
               "southwest" : {
                  "lat" : 34.601,
                  "lng" : -118.164977
               }
            },
            "location" : {
               "lat" : 34.601234,
               "lng" : -118.159782
            },
            "location_type" : "GEOMETRIC_CENTER",
            "viewport" : {
               "northeast" : {
                  "lat" : 34.6026049802915,
                  "lng" : -118.153346
               },
               "southwest" : {
                  "lat" : 34.5999070197085,
                  "lng" : -118.164977
               }
            }
         },
         "types" : [ "route" ]
      },
      {
         "address_components" : [
            {
               "long_name" : "Windsor Place",
               "short_name" : "Windsor Pl",
               "types" : [ "route" ]
            },
            {
               "long_name" : "Pierre",
               "short_name" : "Pierre",
               "types" : [ "locality", "political" ]
            },
            {
               "long_name" : "West Hughes",
               "short_name" : "West Hughes",
               "types" : [ "administrative_area_level_3", "political" ]
            },
            {
               "long_name" : "Hughes County",
               "short_name" : "Hughes County",
               "types" : [ "administrative_area_level_2", "political" ]
            },
            {
               "long_name" : "South Dakota",
               "short_name" : "SD",
               "types" : [ "administrative_area_level_1", "political" ]
            },
            {
               "long_name" : "United States",
               "short_name" : "US",
               "types" : [ "country", "political" ]
            },
            {
               "long_name" : "57501",
               "short_name" : "57501",
               "types" : [ "postal_code" ]
            }
         ],
         "formatted_address" : "Windsor Place, Pierre, SD 57501, USA",
         "geometry" : {
            "bounds" : {
               "northeast" : {
                  "lat" : 44.402802,
                  "lng" : -100.2999656
               },
               "southwest" : {
                  "lat" : 44.3996056,
                  "lng" : -100.3048766
               }
            },
            "location" : {
               "lat" : 44.40018269999999,
               "lng" : -100.3034587
            },
            "location_type" : "GEOMETRIC_CENTER",
            "viewport" : {
               "northeast" : {
                  "lat" : 44.402802,
                  "lng" : -100.2999656
               },
               "southwest" : {
                  "lat" : 44.3996056,
                  "lng" : -100.3048766
               }
            }
         },
         "types" : [ "route" ]
      },
      {
         "address_components" : [
            {
               "long_name" : "Windsor Place",
               "short_name" : "Windsor Pl",
               "types" : [ "route" ]
            },
            {
               "long_name" : "Fort Worth",
               "short_name" : "Fort Worth",
               "types" : [ "locality", "political" ]
            },
            {
               "long_name" : "Tarrant County",
               "short_name" : "Tarrant County",
               "types" : [ "administrative_area_level_2", "political" ]
            },
            {
               "long_name" : "Texas",
               "short_name" : "TX",
               "types" : [ "administrative_area_level_1", "political" ]
            },
            {
               "long_name" : "United States",
               "short_name" : "US",
               "types" : [ "country", "political" ]
            },
            {
               "long_name" : "76110",
               "short_name" : "76110",
               "types" : [ "postal_code" ]
            }
         ],
         "formatted_address" : "Windsor Place, Fort Worth, TX 76110, USA",
         "geometry" : {
            "bounds" : {
               "northeast" : {
                  "lat" : 32.722478,
                  "lng" : -97.343754
               },
               "southwest" : {
                  "lat" : 32.721307,
                  "lng" : -97.3518601
               }
            },
            "location" : {
               "lat" : 32.7221539,
               "lng" : -97.34714989999999
            },
            "location_type" : "GEOMETRIC_CENTER",
            "viewport" : {
               "northeast" : {
                  "lat" : 32.7232414802915,
                  "lng" : -97.343754
               },
               "southwest" : {
                  "lat" : 32.7205435197085,
                  "lng" : -97.3518601
               }
            }
         },
         "types" : [ "route" ]
      },
      {
         "address_components" : [
            {
               "long_name" : "Windsor Place",
               "short_name" : "Windsor Pl",
               "types" : [ "route" ]
            },
            {
               "long_name" : "Las Cruces",
               "short_name" : "Las Cruces",
               "types" : [ "locality", "political" ]
            },
            {
               "long_name" : "Doña Ana County",
               "short_name" : "Doña Ana County",
               "types" : [ "administrative_area_level_2", "political" ]
            },
            {
               "long_name" : "New Mexico",
               "short_name" : "NM",
               "types" : [ "administrative_area_level_1", "political" ]
            },
            {
               "long_name" : "United States",
               "short_name" : "US",
               "types" : [ "country", "political" ]
            },
            {
               "long_name" : "88005",
               "short_name" : "88005",
               "types" : [ "postal_code" ]
            }
         ],
         "formatted_address" : "Windsor Place, Las Cruces, NM 88005, USA",
         "geometry" : {
            "bounds" : {
               "northeast" : {
                  "lat" : 32.3298282,
                  "lng" : -106.7968481
               },
               "southwest" : {
                  "lat" : 32.3242,
                  "lng" : -106.8
               }
            },
            "location" : {
               "lat" : 32.3270128,
               "lng" : -106.7981475
            },
            "location_type" : "GEOMETRIC_CENTER",
            "viewport" : {
               "northeast" : {
                  "lat" : 32.3298282,
                  "lng" : -106.7968481
               },
               "southwest" : {
                  "lat" : 32.3242,
                  "lng" : -106.8
               }
            }
         },
         "types" : [ "route" ]
      },
      {
         "address_components" : [
            {
               "long_name" : "Windsor Place",
               "short_name" : "Windsor Pl",
               "types" : [ "route" ]
            },
            {
               "long_name" : "Grand Center",
               "short_name" : "Grand Center",
               "types" : [ "neighborhood", "political" ]
            },
            {
               "long_name" : "Saint Louis",
               "short_name" : "St Louis",
               "types" : [ "locality", "political" ]
            },
            {
               "long_name" : "Missouri",
               "short_name" : "MO",
               "types" : [ "administrative_area_level_1", "political" ]
            },
            {
               "long_name" : "United States",
               "short_name" : "US",
               "types" : [ "country", "political" ]
            }
         ],
         "formatted_address" : "Windsor Place, Saint Louis, MO, USA",
         "geometry" : {
            "bounds" : {
               "northeast" : {
                  "lat" : 38.6458875,
                  "lng" : -90.2290172
               },
               "southwest" : {
                  "lat" : 38.642881,
                  "lng" : -90.23595630000001
               }
            },
            "location" : {
               "lat" : 38.6444652,
               "lng" : -90.23263799999999
            },
            "location_type" : "GEOMETRIC_CENTER",
            "viewport" : {
               "northeast" : {
                  "lat" : 38.6458875,
                  "lng" : -90.2290172
               },
               "southwest" : {
                  "lat" : 38.642881,
                  "lng" : -90.23595630000001
               }
            }
         },
         "types" : [ "route" ]
      },
      {
         "address_components" : [
            {
               "long_name" : "Windsor Place",
               "short_name" : "Windsor Pl",
               "types" : [ "route" ]
            },
            {
               "long_name" : "Cloisters",
               "short_name" : "Cloisters",
               "types" : [ "neighborhood", "political" ]
            },
            {
               "long_name" : "Plano",
               "short_name" : "Plano",
               "types" : [ "locality", "political" ]
            },
            {
               "long_name" : "Collin County",
               "short_name" : "Collin County",
               "types" : [ "administrative_area_level_2", "political" ]
            },
            {
               "long_name" : "Texas",
               "short_name" : "TX",
               "types" : [ "administrative_area_level_1", "political" ]
            },
            {
               "long_name" : "United States",
               "short_name" : "US",
               "types" : [ "country", "political" ]
            },
            {
               "long_name" : "75075",
               "short_name" : "75075",
               "types" : [ "postal_code" ]
            }
         ],
         "formatted_address" : "Windsor Place, Plano, TX 75075, USA",
         "geometry" : {
            "bounds" : {
               "northeast" : {
                  "lat" : 33.021074,
                  "lng" : -96.73950029999999
               },
               "southwest" : {
                  "lat" : 33.0205858,
                  "lng" : -96.74570729999999
               }
            },
            "location" : {
               "lat" : 33.020832,
               "lng" : -96.74357900000001
            },
            "location_type" : "GEOMETRIC_CENTER",
            "viewport" : {
               "northeast" : {
                  "lat" : 33.0221788802915,
                  "lng" : -96.73950029999999
               },
               "southwest" : {
                  "lat" : 33.0194809197085,
                  "lng" : -96.74570729999999
               }
            }
         },
         "types" : [ "route" ]
      },
      {
         "address_components" : [
            {
               "long_name" : "Windsor Place",
               "short_name" : "Windsor Pl",
               "types" : [ "route" ]
            },
            {
               "long_name" : "Brownsville",
               "short_name" : "Brownsville",
               "types" : [ "locality", "political" ]
            },
            {
               "long_name" : "Cameron County",
               "short_name" : "Cameron County",
               "types" : [ "administrative_area_level_2", "political" ]
            },
            {
               "long_name" : "Texas",
               "short_name" : "TX",
               "types" : [ "administrative_area_level_1", "political" ]
            },
            {
               "long_name" : "United States",
               "short_name" : "US",
               "types" : [ "country", "political" ]
            },
            {
               "long_name" : "78520",
               "short_name" : "78520",
               "types" : [ "postal_code" ]
            }
         ],
         "formatted_address" : "Windsor Place, Brownsville, TX 78520, USA",
         "geometry" : {
            "bounds" : {
               "northeast" : {
                  "lat" : 25.9724201,
                  "lng" : -97.52457099999999
               },
               "southwest" : {
                  "lat" : 25.9695239,
                  "lng" : -97.526747
               }
            },
            "location" : {
               "lat" : 25.9710114,
               "lng" : -97.5261295
            },
            "location_type" : "GEOMETRIC_CENTER",
            "viewport" : {
               "northeast" : {
                  "lat" : 25.9724201,
                  "lng" : -97.52431001970849
               },
               "southwest" : {
                  "lat" : 25.9695239,
                  "lng" : -97.5270079802915
               }
            }
         },
         "types" : [ "route" ]
      },
      {
         "address_components" : [
            {
               "long_name" : "Windsor Place",
               "short_name" : "Windsor Pl",
               "types" : [ "route" ]
            },
            {
               "long_name" : "Maple Lane Hills",
               "short_name" : "Maple Lane Hills",
               "types" : [ "neighborhood", "political" ]
            },
            {
               "long_name" : "Waukesha",
               "short_name" : "Waukesha",
               "types" : [ "locality", "political" ]
            },
            {
               "long_name" : "Waukesha County",
               "short_name" : "Waukesha County",
               "types" : [ "administrative_area_level_2", "political" ]
            },
            {
               "long_name" : "Wisconsin",
               "short_name" : "WI",
               "types" : [ "administrative_area_level_1", "political" ]
            },
            {
               "long_name" : "United States",
               "short_name" : "US",
               "types" : [ "country", "political" ]
            },
            {
               "long_name" : "53188",
               "short_name" : "53188",
               "types" : [ "postal_code" ]
            }
         ],
         "formatted_address" : "Windsor Place, Waukesha, WI 53188, USA",
         "geometry" : {
            "bounds" : {
               "northeast" : {
                  "lat" : 43.023086,
                  "lng" : -88.270377
               },
               "southwest" : {
                  "lat" : 43.02200500000001,
                  "lng" : -88.27575879999999
               }
            },
            "location" : {
               "lat" : 43.0225975,
               "lng" : -88.27309559999999
            },
            "location_type" : "GEOMETRIC_CENTER",
            "viewport" : {
               "northeast" : {
                  "lat" : 43.0238944802915,
                  "lng" : -88.270377
               },
               "southwest" : {
                  "lat" : 43.0211965197085,
                  "lng" : -88.27575879999999
               }
            }
         },
         "types" : [ "route" ]
      },
      {
         "address_components" : [
            {
               "long_name" : "Windsor Place",
               "short_name" : "Windsor Pl",
               "types" : [ "route" ]
            },
            {
               "long_name" : "Farrior Hills",
               "short_name" : "Farrior Hills",
               "types" : [ "neighborhood", "political" ]
            },
            {
               "long_name" : "Raleigh",
               "short_name" : "Raleigh",
               "types" : [ "locality", "political" ]
            },
            {
               "long_name" : "Raleigh",
               "short_name" : "Raleigh",
               "types" : [ "administrative_area_level_3", "political" ]
            },
            {
               "long_name" : "Wake County",
               "short_name" : "Wake County",
               "types" : [ "administrative_area_level_2", "political" ]
            },
            {
               "long_name" : "North Carolina",
               "short_name" : "NC",
               "types" : [ "administrative_area_level_1", "political" ]
            },
            {
               "long_name" : "United States",
               "short_name" : "US",
               "types" : [ "country", "political" ]
            },
            {
               "long_name" : "27609",
               "short_name" : "27609",
               "types" : [ "postal_code" ]
            }
         ],
         "formatted_address" : "Windsor Place, Raleigh, NC 27609, USA",
         "geometry" : {
            "bounds" : {
               "northeast" : {
                  "lat" : 35.8410298,
                  "lng" : -78.63094
               },
               "southwest" : {
                  "lat" : 35.835581,
                  "lng" : -78.6318
               }
            },
            "location" : {
               "lat" : 35.8384376,
               "lng" : -78.63138630000002
            },
            "location_type" : "GEOMETRIC_CENTER",
            "viewport" : {
               "northeast" : {
                  "lat" : 35.8410298,
                  "lng" : -78.63002101970848
               },
               "southwest" : {
                  "lat" : 35.835581,
                  "lng" : -78.6327189802915
               }
            }
         },
         "types" : [ "route" ]
      },
      {
         "address_components" : [
            {
               "long_name" : "Windsor Place",
               "short_name" : "Windsor Pl",
               "types" : [ "route" ]
            },
            {
               "long_name" : "Oceanside",
               "short_name" : "Oceanside",
               "types" : [ "locality", "political" ]
            },
            {
               "long_name" : "Hempstead",
               "short_name" : "Hempstead",
               "types" : [ "administrative_area_level_3", "political" ]
            },
            {
               "long_name" : "Nassau County",
               "short_name" : "Nassau County",
               "types" : [ "administrative_area_level_2", "political" ]
            },
            {
               "long_name" : "New York",
               "short_name" : "NY",
               "types" : [ "administrative_area_level_1", "political" ]
            },
            {
               "long_name" : "United States",
               "short_name" : "US",
               "types" : [ "country", "political" ]
            },
            {
               "long_name" : "11572",
               "short_name" : "11572",
               "types" : [ "postal_code" ]
            }
         ],
         "formatted_address" : "Windsor Place, Oceanside, NY 11572, USA",
         "geometry" : {
            "bounds" : {
               "northeast" : {
                  "lat" : 40.645795,
                  "lng" : -73.647882
               },
               "southwest" : {
                  "lat" : 40.643749,
                  "lng" : -73.6520318
               }
            },
            "location" : {
               "lat" : 40.64483999999999,
               "lng" : -73.650274
            },
            "location_type" : "GEOMETRIC_CENTER",
            "viewport" : {
               "northeast" : {
                  "lat" : 40.6461209802915,
                  "lng" : -73.647882
               },
               "southwest" : {
                  "lat" : 40.6434230197085,
                  "lng" : -73.6520318
               }
            }
         },
         "types" : [ "route" ]
      },
      {
         "address_components" : [
            {
               "long_name" : "Windsor Place",
               "short_name" : "Windsor Pl",
               "types" : [ "route" ]
            },
            {
               "long_name" : "Concord",
               "short_name" : "Concord",
               "types" : [ "locality", "political" ]
            },
            {
               "long_name" : "Contra Costa County",
               "short_name" : "Contra Costa County",
               "types" : [ "administrative_area_level_2", "political" ]
            },
            {
               "long_name" : "California",
               "short_name" : "CA",
               "types" : [ "administrative_area_level_1", "political" ]
            },
            {
               "long_name" : "United States",
               "short_name" : "US",
               "types" : [ "country", "political" ]
            },
            {
               "long_name" : "94518",
               "short_name" : "94518",
               "types" : [ "postal_code" ]
            }
         ],
         "formatted_address" : "Windsor Place, Concord, CA 94518, USA",
         "geometry" : {
            "bounds" : {
               "northeast" : {
                  "lat" : 37.968044,
                  "lng" : -122.020971
               },
               "southwest" : {
                  "lat" : 37.966685,
                  "lng" : -122.024984
               }
            },
            "location" : {
               "lat" : 37.9672996,
               "lng" : -122.0227742
            },
            "location_type" : "GEOMETRIC_CENTER",
            "viewport" : {
               "northeast" : {
                  "lat" : 37.96871348029151,
                  "lng" : -122.020971
               },
               "southwest" : {
                  "lat" : 37.96601551970851,
                  "lng" : -122.024984
               }
            }
         },
         "types" : [ "route" ]
      },
      {
         "address_components" : [
            {
               "long_name" : "Windsor Place",
               "short_name" : "Windsor Pl",
               "types" : [ "route" ]
            },
            {
               "long_name" : "Mechanicsburg",
               "short_name" : "Mechanicsburg",
               "types" : [ "locality", "political" ]
            },
            {
               "long_name" : "Lower Allen",
               "short_name" : "Lower Allen",
               "types" : [ "administrative_area_level_3", "political" ]
            },
            {
               "long_name" : "Cumberland County",
               "short_name" : "Cumberland County",
               "types" : [ "administrative_area_level_2", "political" ]
            },
            {
               "long_name" : "Pennsylvania",
               "short_name" : "PA",
               "types" : [ "administrative_area_level_1", "political" ]
            },
            {
               "long_name" : "United States",
               "short_name" : "US",
               "types" : [ "country", "political" ]
            },
            {
               "long_name" : "17055",
               "short_name" : "17055",
               "types" : [ "postal_code" ]
            }
         ],
         "formatted_address" : "Windsor Place, Mechanicsburg, PA 17055, USA",
         "geometry" : {
            "bounds" : {
               "northeast" : {
                  "lat" : 40.2153748,
                  "lng" : -76.956604
               },
               "southwest" : {
                  "lat" : 40.2133369,
                  "lng" : -76.95812339999999
               }
            },
            "location" : {
               "lat" : 40.214357,
               "lng" : -76.957358
            },
            "location_type" : "GEOMETRIC_CENTER",
            "viewport" : {
               "northeast" : {
                  "lat" : 40.2157048302915,
                  "lng" : -76.95601471970849
               },
               "southwest" : {
                  "lat" : 40.2130068697085,
                  "lng" : -76.9587126802915
               }
            }
         },
         "types" : [ "route" ]
      },
      {
         "address_components" : [
            {
               "long_name" : "Windsor Place",
               "short_name" : "Windsor Pl",
               "types" : [ "route" ]
            },
            {
               "long_name" : "Grand Prairie",
               "short_name" : "Grand Prairie",
               "types" : [ "locality", "political" ]
            },
            {
               "long_name" : "Dallas County",
               "short_name" : "Dallas County",
               "types" : [ "administrative_area_level_2", "political" ]
            },
            {
               "long_name" : "Texas",
               "short_name" : "TX",
               "types" : [ "administrative_area_level_1", "political" ]
            },
            {
               "long_name" : "United States",
               "short_name" : "US",
               "types" : [ "country", "political" ]
            },
            {
               "long_name" : "75051",
               "short_name" : "75051",
               "types" : [ "postal_code" ]
            }
         ],
         "formatted_address" : "Windsor Place, Grand Prairie, TX 75051, USA",
         "geometry" : {
            "bounds" : {
               "northeast" : {
                  "lat" : 32.718093,
                  "lng" : -97.0148442
               },
               "southwest" : {
                  "lat" : 32.717641,
                  "lng" : -97.01800229999999
               }
            },
            "location" : {
               "lat" : 32.7177577,
               "lng" : -97.0165676
            },
            "location_type" : "GEOMETRIC_CENTER",
            "viewport" : {
               "northeast" : {
                  "lat" : 32.7192159802915,
                  "lng" : -97.0148442
               },
               "southwest" : {
                  "lat" : 32.7165180197085,
                  "lng" : -97.01800229999999
               }
            }
         },
         "types" : [ "route" ]
      },
      {
         "address_components" : [
            {
               "long_name" : "Windsor Place",
               "short_name" : "Windsor Pl",
               "types" : [ "route" ]
            },
            {
               "long_name" : "Tyler Park",
               "short_name" : "Tyler Park",
               "types" : [ "neighborhood", "political" ]
            },
            {
               "long_name" : "Louisville",
               "short_name" : "Louisville",
               "types" : [ "locality", "political" ]
            },
            {
               "long_name" : "Jefferson County",
               "short_name" : "Jefferson County",
               "types" : [ "administrative_area_level_2", "political" ]
            },
            {
               "long_name" : "Kentucky",
               "short_name" : "KY",
               "types" : [ "administrative_area_level_1", "political" ]
            },
            {
               "long_name" : "United States",
               "short_name" : "US",
               "types" : [ "country", "political" ]
            },
            {
               "long_name" : "40204",
               "short_name" : "40204",
               "types" : [ "postal_code" ]
            }
         ],
         "formatted_address" : "Windsor Place, Louisville, KY 40204, USA",
         "geometry" : {
            "bounds" : {
               "northeast" : {
                  "lat" : 38.234255,
                  "lng" : -85.7133546
               },
               "southwest" : {
                  "lat" : 38.23196859999999,
                  "lng" : -85.717688
               }
            },
            "location" : {
               "lat" : 38.232833,
               "lng" : -85.715977
            },
            "location_type" : "GEOMETRIC_CENTER",
            "viewport" : {
               "northeast" : {
                  "lat" : 38.23446078029149,
                  "lng" : -85.7133546
               },
               "southwest" : {
                  "lat" : 38.23176281970849,
                  "lng" : -85.717688
               }
            }
         },
         "types" : [ "route" ]
      },
      {
         "address_components" : [
            {
               "long_name" : "Windsor Place",
               "short_name" : "Windsor Pl",
               "types" : [ "route" ]
            },
            {
               "long_name" : "Westwood",
               "short_name" : "Westwood",
               "types" : [ "locality", "political" ]
            },
            {
               "long_name" : "Bergen County",
               "short_name" : "Bergen County",
               "types" : [ "administrative_area_level_2", "political" ]
            },
            {
               "long_name" : "New Jersey",
               "short_name" : "NJ",
               "types" : [ "administrative_area_level_1", "political" ]
            },
            {
               "long_name" : "United States",
               "short_name" : "US",
               "types" : [ "country", "political" ]
            },
            {
               "long_name" : "07675",
               "short_name" : "07675",
               "types" : [ "postal_code" ]
            }
         ],
         "formatted_address" : "Windsor Place, Westwood, NJ 07675, USA",
         "geometry" : {
            "bounds" : {
               "northeast" : {
                  "lat" : 41.009359,
                  "lng" : -73.993971
               },
               "southwest" : {
                  "lat" : 41.007446,
                  "lng" : -73.998087
               }
            },
            "location" : {
               "lat" : 41.0078188,
               "lng" : -73.9959848
            },
            "location_type" : "GEOMETRIC_CENTER",
            "viewport" : {
               "northeast" : {
                  "lat" : 41.0097514802915,
                  "lng" : -73.993971
               },
               "southwest" : {
                  "lat" : 41.0070535197085,
                  "lng" : -73.998087
               }
            }
         },
         "types" : [ "route" ]
      },
      {
         "address_components" : [
            {
               "long_name" : "Windsor Place",
               "short_name" : "Windsor Pl",
               "types" : [ "route" ]
            },
            {
               "long_name" : "Sand Lake",
               "short_name" : "Sand Lake",
               "types" : [ "neighborhood", "political" ]
            },
            {
               "long_name" : "Anchorage",
               "short_name" : "Anchorage",
               "types" : [ "locality", "political" ]
            },
            {
               "long_name" : "Anchorage",
               "short_name" : "Anchorage",
               "types" : [ "administrative_area_level_2", "political" ]
            },
            {
               "long_name" : "Alaska",
               "short_name" : "AK",
               "types" : [ "administrative_area_level_1", "political" ]
            },
            {
               "long_name" : "United States",
               "short_name" : "US",
               "types" : [ "country", "political" ]
            },
            {
               "long_name" : "99502",
               "short_name" : "99502",
               "types" : [ "postal_code" ]
            }
         ],
         "formatted_address" : "Windsor Place, Anchorage, AK 99502, USA",
         "geometry" : {
            "bounds" : {
               "northeast" : {
                  "lat" : 61.1591362,
                  "lng" : -149.9445571
               },
               "southwest" : {
                  "lat" : 61.1567251,
                  "lng" : -149.945617
               }
            },
            "location" : {
               "lat" : 61.1587059,
               "lng" : -149.9451386
            },
            "location_type" : "GEOMETRIC_CENTER",
            "viewport" : {
               "northeast" : {
                  "lat" : 61.15927963029151,
                  "lng" : -149.9437380697085
               },
               "southwest" : {
                  "lat" : 61.1565816697085,
                  "lng" : -149.9464360302915
               }
            }
         },
         "types" : [ "route" ]
      },
      {
         "address_components" : [
            {
               "long_name" : "Windsor Place",
               "short_name" : "Windsor Pl",
               "types" : [ "route" ]
            },
            {
               "long_name" : "Riverside",
               "short_name" : "Riverside",
               "types" : [ "neighborhood", "political" ]
            },
            {
               "long_name" : "Jacksonville",
               "short_name" : "Jacksonville",
               "types" : [ "locality", "political" ]
            },
            {
               "long_name" : "Duval County",
               "short_name" : "Duval County",
               "types" : [ "administrative_area_level_2", "political" ]
            },
            {
               "long_name" : "Florida",
               "short_name" : "FL",
               "types" : [ "administrative_area_level_1", "political" ]
            },
            {
               "long_name" : "United States",
               "short_name" : "US",
               "types" : [ "country", "political" ]
            },
            {
               "long_name" : "32205",
               "short_name" : "32205",
               "types" : [ "postal_code" ]
            }
         ],
         "formatted_address" : "Windsor Place, Jacksonville, FL 32205, USA",
         "geometry" : {
            "bounds" : {
               "northeast" : {
                  "lat" : 30.305666,
                  "lng" : -81.7012434
               },
               "southwest" : {
                  "lat" : 30.303851,
                  "lng" : -81.70369099999999
               }
            },
            "location" : {
               "lat" : 30.3048054,
               "lng" : -81.7024388
            },
            "location_type" : "GEOMETRIC_CENTER",
            "viewport" : {
               "northeast" : {
                  "lat" : 30.30610748029149,
                  "lng" : -81.70111821970849
               },
               "southwest" : {
                  "lat" : 30.3034095197085,
                  "lng" : -81.70381618029151
               }
            }
         },
         "types" : [ "route" ]
      },
      {
         "address_components" : [
            {
               "long_name" : "Windsor Place",
               "short_name" : "Windsor Pl",
               "types" : [ "route" ]
            },
            {
               "long_name" : "Madison",
               "short_name" : "Madison",
               "types" : [ "locality", "political" ]
            },
            {
               "long_name" : "Morris County",
               "short_name" : "Morris County",
               "types" : [ "administrative_area_level_2", "political" ]
            },
            {
               "long_name" : "New Jersey",
               "short_name" : "NJ",
               "types" : [ "administrative_area_level_1", "political" ]
            },
            {
               "long_name" : "United States",
               "short_name" : "US",
               "types" : [ "country", "political" ]
            },
            {
               "long_name" : "07940",
               "short_name" : "07940",
               "types" : [ "postal_code" ]
            }
         ],
         "formatted_address" : "Windsor Place, Madison, NJ 07940, USA",
         "geometry" : {
            "bounds" : {
               "northeast" : {
                  "lat" : 40.771235,
                  "lng" : -74.413191
               },
               "southwest" : {
                  "lat" : 40.77056779999999,
                  "lng" : -74.4145449
               }
            },
            "location" : {
               "lat" : 40.77107,
               "lng" : -74.4133279
            },
            "location_type" : "GEOMETRIC_CENTER",
            "viewport" : {
               "northeast" : {
                  "lat" : 40.7722503802915,
                  "lng" : -74.4125189697085
               },
               "southwest" : {
                  "lat" : 40.7695524197085,
                  "lng" : -74.41521693029151
               }
            }
         },
         "types" : [ "route" ]
      },
      {
         "address_components" : [
            {
               "long_name" : "Windsor Place",
               "short_name" : "Windsor Pl",
               "types" : [ "route" ]
            },
            {
               "long_name" : "Longmeadow",
               "short_name" : "Longmeadow",
               "types" : [ "locality", "political" ]
            },
            {
               "long_name" : "Hampden County",
               "short_name" : "Hampden County",
               "types" : [ "administrative_area_level_2", "political" ]
            },
            {
               "long_name" : "Massachusetts",
               "short_name" : "MA",
               "types" : [ "administrative_area_level_1", "political" ]
            },
            {
               "long_name" : "United States",
               "short_name" : "US",
               "types" : [ "country", "political" ]
            },
            {
               "long_name" : "01106",
               "short_name" : "01106",
               "types" : [ "postal_code" ]
            }
         ],
         "formatted_address" : "Windsor Place, Longmeadow, MA 01106, USA",
         "geometry" : {
            "bounds" : {
               "northeast" : {
                  "lat" : 42.0697374,
                  "lng" : -72.5814202
               },
               "southwest" : {
                  "lat" : 42.0669604,
                  "lng" : -72.58219869999999
               }
            },
            "location" : {
               "lat" : 42.0680524,
               "lng" : -72.58218500000001
            },
            "location_type" : "GEOMETRIC_CENTER",
            "viewport" : {
               "northeast" : {
                  "lat" : 42.0697374,
                  "lng" : -72.58046046970848
               },
               "southwest" : {
                  "lat" : 42.0669604,
                  "lng" : -72.5831584302915
               }
            }
         },
         "types" : [ "route" ]
      },
      {
         "address_components" : [
            {
               "long_name" : "Windsor Place",
               "short_name" : "Windsor Pl",
               "types" : [ "route" ]
            },
            {
               "long_name" : "Lynbrook",
               "short_name" : "Lynbrook",
               "types" : [ "locality", "political" ]
            },
            {
               "long_name" : "Hempstead",
               "short_name" : "Hempstead",
               "types" : [ "administrative_area_level_3", "political" ]
            },
            {
               "long_name" : "Nassau County",
               "short_name" : "Nassau County",
               "types" : [ "administrative_area_level_2", "political" ]
            },
            {
               "long_name" : "New York",
               "short_name" : "NY",
               "types" : [ "administrative_area_level_1", "political" ]
            },
            {
               "long_name" : "United States",
               "short_name" : "US",
               "types" : [ "country", "political" ]
            },
            {
               "long_name" : "11563",
               "short_name" : "11563",
               "types" : [ "postal_code" ]
            }
         ],
         "formatted_address" : "Windsor Place, Lynbrook, NY 11563, USA",
         "geometry" : {
            "bounds" : {
               "northeast" : {
                  "lat" : 40.654441,
                  "lng" : -73.65813199999999
               },
               "southwest" : {
                  "lat" : 40.653965,
                  "lng" : -73.66123899999999
               }
            },
            "location" : {
               "lat" : 40.654267,
               "lng" : -73.659744
            },
            "location_type" : "GEOMETRIC_CENTER",
            "viewport" : {
               "northeast" : {
                  "lat" : 40.6555519802915,
                  "lng" : -73.65813199999999
               },
               "southwest" : {
                  "lat" : 40.6528540197085,
                  "lng" : -73.66123899999999
               }
            }
         },
         "types" : [ "route" ]
      },
      {
         "address_components" : [
            {
               "long_name" : "Windsor Place",
               "short_name" : "Windsor Pl",
               "types" : [ "route" ]
            },
            {
               "long_name" : "Central Oklahoma City",
               "short_name" : "Central Oklahoma City",
               "types" : [ "neighborhood", "political" ]
            },
            {
               "long_name" : "Nichols Hills",
               "short_name" : "Nichols Hills",
               "types" : [ "locality", "political" ]
            },
            {
               "long_name" : "Oklahoma County",
               "short_name" : "Oklahoma County",
               "types" : [ "administrative_area_level_2", "political" ]
            },
            {
               "long_name" : "Oklahoma",
               "short_name" : "OK",
               "types" : [ "administrative_area_level_1", "political" ]
            },
            {
               "long_name" : "United States",
               "short_name" : "US",
               "types" : [ "country", "political" ]
            },
            {
               "long_name" : "73116",
               "short_name" : "73116",
               "types" : [ "postal_code" ]
            }
         ],
         "formatted_address" : "Windsor Place, Nichols Hills, OK 73116, USA",
         "geometry" : {
            "bounds" : {
               "northeast" : {
                  "lat" : 35.5391208,
                  "lng" : -97.5475371
               },
               "southwest" : {
                  "lat" : 35.537733,
                  "lng" : -97.5512705
               }
            },
            "location" : {
               "lat" : 35.5380872,
               "lng" : -97.54949669999999
            },
            "location_type" : "GEOMETRIC_CENTER",
            "viewport" : {
               "northeast" : {
                  "lat" : 35.53977588029149,
                  "lng" : -97.5475371
               },
               "southwest" : {
                  "lat" : 35.53707791970849,
                  "lng" : -97.5512705
               }
            }
         },
         "types" : [ "route" ]
      },
      {
         "address_components" : [
            {
               "long_name" : "Windsor Place",
               "short_name" : "Windsor Pl",
               "types" : [ "route" ]
            },
            {
               "long_name" : "Shawnee",
               "short_name" : "Shawnee",
               "types" : [ "locality", "political" ]
            },
            {
               "long_name" : "Pottawatomie County",
               "short_name" : "Pottawatomie County",
               "types" : [ "administrative_area_level_2", "political" ]
            },
            {
               "long_name" : "Oklahoma",
               "short_name" : "OK",
               "types" : [ "administrative_area_level_1", "political" ]
            },
            {
               "long_name" : "United States",
               "short_name" : "US",
               "types" : [ "country", "political" ]
            },
            {
               "long_name" : "74804",
               "short_name" : "74804",
               "types" : [ "postal_code" ]
            }
         ],
         "formatted_address" : "Windsor Place, Shawnee, OK 74804, USA",
         "geometry" : {
            "bounds" : {
               "northeast" : {
                  "lat" : 35.36332,
                  "lng" : -96.9050479
               },
               "southwest" : {
                  "lat" : 35.362725,
                  "lng" : -96.90922399999999
               }
            },
            "location" : {
               "lat" : 35.3631366,
               "lng" : -96.90740579999999
            },
            "location_type" : "GEOMETRIC_CENTER",
            "viewport" : {
               "northeast" : {
                  "lat" : 35.3643714802915,
                  "lng" : -96.9050479
               },
               "southwest" : {
                  "lat" : 35.3616735197085,
                  "lng" : -96.90922399999999
               }
            }
         },
         "types" : [ "route" ]
      },
      {
         "address_components" : [
            {
               "long_name" : "Windsor Place",
               "short_name" : "Windsor Pl",
               "types" : [ "route" ]
            },
            {
               "long_name" : "Montclair",
               "short_name" : "Montclair",
               "types" : [ "locality", "political" ]
            },
            {
               "long_name" : "Essex County",
               "short_name" : "Essex County",
               "types" : [ "administrative_area_level_2", "political" ]
            },
            {
               "long_name" : "New Jersey",
               "short_name" : "NJ",
               "types" : [ "administrative_area_level_1", "political" ]
            },
            {
               "long_name" : "United States",
               "short_name" : "US",
               "types" : [ "country", "political" ]
            },
            {
               "long_name" : "07043",
               "short_name" : "07043",
               "types" : [ "postal_code" ]
            }
         ],
         "formatted_address" : "Windsor Place, Montclair, NJ 07043, USA",
         "geometry" : {
            "bounds" : {
               "northeast" : {
                  "lat" : 40.849945,
                  "lng" : -74.2061355
               },
               "southwest" : {
                  "lat" : 40.84845290000001,
                  "lng" : -74.20926729999999
               }
            },
            "location" : {
               "lat" : 40.8494529,
               "lng" : -74.2083394
            },
            "location_type" : "GEOMETRIC_CENTER",
            "viewport" : {
               "northeast" : {
                  "lat" : 40.8505479302915,
                  "lng" : -74.2061355
               },
               "southwest" : {
                  "lat" : 40.84784996970851,
                  "lng" : -74.20926729999999
               }
            }
         },
         "types" : [ "route" ]
      },
      {
         "address_components" : [
            {
               "long_name" : "Windsor Place",
               "short_name" : "Windsor Pl",
               "types" : [ "route" ]
            },
            {
               "long_name" : "Manteca",
               "short_name" : "Manteca",
               "types" : [ "locality", "political" ]
            },
            {
               "long_name" : "San Joaquin County",
               "short_name" : "San Joaquin County",
               "types" : [ "administrative_area_level_2", "political" ]
            },
            {
               "long_name" : "California",
               "short_name" : "CA",
               "types" : [ "administrative_area_level_1", "political" ]
            },
            {
               "long_name" : "United States",
               "short_name" : "US",
               "types" : [ "country", "political" ]
            },
            {
               "long_name" : "95336",
               "short_name" : "95336",
               "types" : [ "postal_code" ]
            }
         ],
         "formatted_address" : "Windsor Place, Manteca, CA 95336, USA",
         "geometry" : {
            "bounds" : {
               "northeast" : {
                  "lat" : 37.815135,
                  "lng" : -121.237164
               },
               "southwest" : {
                  "lat" : 37.8121719,
                  "lng" : -121.238059
               }
            },
            "location" : {
               "lat" : 37.813581,
               "lng" : -121.237757
            },
            "location_type" : "GEOMETRIC_CENTER",
            "viewport" : {
               "northeast" : {
                  "lat" : 37.815135,
                  "lng" : -121.2362625197085
               },
               "southwest" : {
                  "lat" : 37.8121719,
                  "lng" : -121.2389604802915
               }
            }
         },
         "types" : [ "route" ]
      },
      {
         "address_components" : [
            {
               "long_name" : "Windsor Place",
               "short_name" : "Windsor Pl",
               "types" : [ "route" ]
            },
            {
               "long_name" : "Belmond",
               "short_name" : "Belmond",
               "types" : [ "locality", "political" ]
            },
            {
               "long_name" : "Pleasant",
               "short_name" : "Pleasant",
               "types" : [ "administrative_area_level_3", "political" ]
            },
            {
               "long_name" : "Wright County",
               "short_name" : "Wright County",
               "types" : [ "administrative_area_level_2", "political" ]
            },
            {
               "long_name" : "Iowa",
               "short_name" : "IA",
               "types" : [ "administrative_area_level_1", "political" ]
            },
            {
               "long_name" : "United States",
               "short_name" : "US",
               "types" : [ "country", "political" ]
            },
            {
               "long_name" : "50421",
               "short_name" : "50421",
               "types" : [ "postal_code" ]
            }
         ],
         "formatted_address" : "Windsor Place, Belmond, IA 50421, USA",
         "geometry" : {
            "bounds" : {
               "northeast" : {
                  "lat" : 42.8434235,
                  "lng" : -93.60232649999999
               },
               "southwest" : {
                  "lat" : 42.843035,
                  "lng" : -93.6058931
               }
            },
            "location" : {
               "lat" : 42.8432217,
               "lng" : -93.6046549
            },
            "location_type" : "GEOMETRIC_CENTER",
            "viewport" : {
               "northeast" : {
                  "lat" : 42.8445782302915,
                  "lng" : -93.60232649999999
               },
               "southwest" : {
                  "lat" : 42.8418802697085,
                  "lng" : -93.6058931
               }
            }
         },
         "types" : [ "route" ]
      },
      {
         "address_components" : [
            {
               "long_name" : "Windsor Place",
               "short_name" : "Windsor Pl",
               "types" : [ "route" ]
            },
            {
               "long_name" : "Forked River",
               "short_name" : "Forked River",
               "types" : [ "neighborhood", "political" ]
            },
            {
               "long_name" : "Lacey Township",
               "short_name" : "Lacey Township",
               "types" : [ "locality", "political" ]
            },
            {
               "long_name" : "Ocean County",
               "short_name" : "Ocean County",
               "types" : [ "administrative_area_level_2", "political" ]
            },
            {
               "long_name" : "New Jersey",
               "short_name" : "NJ",
               "types" : [ "administrative_area_level_1", "political" ]
            },
            {
               "long_name" : "United States",
               "short_name" : "US",
               "types" : [ "country", "political" ]
            },
            {
               "long_name" : "08731",
               "short_name" : "08731",
               "types" : [ "postal_code" ]
            }
         ],
         "formatted_address" : "Windsor Place, Forked River, NJ 08731, USA",
         "geometry" : {
            "bounds" : {
               "northeast" : {
                  "lat" : 39.854776,
                  "lng" : -74.20685929999999
               },
               "southwest" : {
                  "lat" : 39.853673,
                  "lng" : -74.20982189999999
               }
            },
            "location" : {
               "lat" : 39.8542748,
               "lng" : -74.2087329
            },
            "location_type" : "GEOMETRIC_CENTER",
            "viewport" : {
               "northeast" : {
                  "lat" : 39.8555734802915,
                  "lng" : -74.20685929999999
               },
               "southwest" : {
                  "lat" : 39.8528755197085,
                  "lng" : -74.20982189999999
               }
            }
         },
         "types" : [ "route" ]
      },
      {
         "address_components" : [
            {
               "long_name" : "Windsor Place",
               "short_name" : "Windsor Pl",
               "types" : [ "route" ]
            },
            {
               "long_name" : "Tarboro",
               "short_name" : "Tarboro",
               "types" : [ "locality", "political" ]
            },
            {
               "long_name" : "1, Tarboro",
               "short_name" : "1, Tarboro",
               "types" : [ "administrative_area_level_3", "political" ]
            },
            {
               "long_name" : "Edgecombe County",
               "short_name" : "Edgecombe County",
               "types" : [ "administrative_area_level_2", "political" ]
            },
            {
               "long_name" : "North Carolina",
               "short_name" : "NC",
               "types" : [ "administrative_area_level_1", "political" ]
            },
            {
               "long_name" : "United States",
               "short_name" : "US",
               "types" : [ "country", "political" ]
            },
            {
               "long_name" : "27886",
               "short_name" : "27886",
               "types" : [ "postal_code" ]
            }
         ],
         "formatted_address" : "Windsor Place, Tarboro, NC 27886, USA",
         "geometry" : {
            "bounds" : {
               "northeast" : {
                  "lat" : 35.9219785,
                  "lng" : -77.55009299999999
               },
               "southwest" : {
                  "lat" : 35.9208997,
                  "lng" : -77.55085819999999
               }
            },
            "location" : {
               "lat" : 35.920944,
               "lng" : -77.55085819999999
            },
            "location_type" : "GEOMETRIC_CENTER",
            "viewport" : {
               "northeast" : {
                  "lat" : 35.9227880802915,
                  "lng" : -77.54912661970849
               },
               "southwest" : {
                  "lat" : 35.9200901197085,
                  "lng" : -77.55182458029149
               }
            }
         },
         "types" : [ "route" ]
      }
   ],
   "status" : "OK"
}
