{
   "results" : [
      {
         "address_components" : [
            {
               "long_name" : "Hosur Road",
               "short_name" : "Hosur Rd",
               "types" : [ "route" ]
            },
            {
               "long_name" : "Bommanahalli",
               "short_name" : "Bommanahalli",
               "types" : [ "sublocality_level_1", "sublocality", "political" ]
            },
            {
               "long_name" : "Bengaluru",
               "short_name" : "Bengaluru",
               "types" : [ "locality", "political" ]
            },
            {
               "long_name" : "Bangalore Urban",
               "short_name" : "Bangalore Urban",
               "types" : [ "administrative_area_level_2", "political" ]
            },
            {
               "long_name" : "Karnataka",
               "short_name" : "KA",
               "types" : [ "administrative_area_level_1", "political" ]
            },
            {
               "long_name" : "India",
               "short_name" : "IN",
               "types" : [ "country", "political" ]
            },
            {
               "long_name" : "560068",
               "short_name" : "560068",
               "types" : [ "postal_code" ]
            }
         ],
         "formatted_address" : "Hosur Road, Bommanahalli, Bengaluru, Karnataka 560068, India",
         "geometry" : {
            "bounds" : {
               "northeast" : {
                  "lat" : 12.912138,
                  "lng" : 77.6308818
               },
               "southwest" : {
                  "lat" : 12.9038307,
                  "lng" : 77.62531899999999
               }
            },
            "location" : {
               "lat" : 12.9081537,
               "lng" : 77.6282975
            },
            "location_type" : "GEOMETRIC_CENTER",
            "viewport" : {
               "northeast" : {
                  "lat" : 12.912138,
                  "lng" : 77.6308818
               },
               "southwest" : {
                  "lat" : 12.9038307,
                  "lng" : 77.62531899999999
               }
            }
         },
         "partial_match" : true,
         "types" : [ "route" ]
      },
      {
         "address_components" : [
            {
               "long_name" : "Hosur Main Road",
               "short_name" : "Hosur Main Road",
               "types" : [ "route" ]
            },
            {
               "long_name" : "India",
               "short_name" : "IN",
               "types" : [ "country", "political" ]
            }
         ],
         "formatted_address" : "Hosur Main Road, India",
         "geometry" : {
            "bounds" : {
               "northeast" : {
                  "lat" : 12.9450368,
                  "lng" : 77.61402900000002
               },
               "southwest" : {
                  "lat" : 12.9312882,
                  "lng" : 77.5968929
               }
            },
            "location" : {
               "lat" : 12.9366421,
               "lng" : 77.6053273
            },
            "location_type" : "GEOMETRIC_CENTER",
            "viewport" : {
               "northeast" : {
                  "lat" : 12.9450368,
                  "lng" : 77.61402900000002
               },
               "southwest" : {
                  "lat" : 12.9312882,
                  "lng" : 77.5968929
               }
            }
         },
         "partial_match" : true,
         "types" : [ "route" ]
      },
      {
         "address_components" : [
            {
               "long_name" : "Hosur - Gendla - Banavasi Road",
               "short_name" : "Hosur - Gendla - Banavasi Rd",
               "types" : [ "route" ]
            },
            {
               "long_name" : "Shimoga",
               "short_name" : "Shimoga",
               "types" : [ "administrative_area_level_2", "political" ]
            },
            {
               "long_name" : "Karnataka",
               "short_name" : "KA",
               "types" : [ "administrative_area_level_1", "political" ]
            },
            {
               "long_name" : "India",
               "short_name" : "IN",
               "types" : [ "country", "political" ]
            }
         ],
         "formatted_address" : "Hosur - Gendla - Banavasi Road, Karnataka, India",
         "geometry" : {
            "bounds" : {
               "northeast" : {
                  "lat" : 14.5047537,
                  "lng" : 75.1047998
               },
               "southwest" : {
                  "lat" : 14.4989849,
                  "lng" : 75.07643929999999
               }
            },
            "location" : {
               "lat" : 14.5002993,
               "lng" : 75.0894047
            },
            "location_type" : "GEOMETRIC_CENTER",
            "viewport" : {
               "northeast" : {
                  "lat" : 14.5047537,
                  "lng" : 75.1047998
               },
               "southwest" : {
                  "lat" : 14.4989849,
                  "lng" : 75.07643929999999
               }
            }
         },
         "partial_match" : true,
         "types" : [ "route" ]
      },
      {
         "address_components" : [
            {
               "long_name" : "Hosur Main Road",
               "short_name" : "Hosur Main Rd",
               "types" : [ "route" ]
            },
            {
               "long_name" : "Kudlu Gate",
               "short_name" : "Kudlu Gate",
               "types" : [ "neighborhood", "political" ]
            },
            {
               "long_name" : "Industrial Layout",
               "short_name" : "Industrial Layout",
               "types" : [ "sublocality_level_2", "sublocality", "political" ]
            },
            {
               "long_name" : "Begur",
               "short_name" : "Begur",
               "types" : [ "sublocality_level_1", "sublocality", "political" ]
            },
            {
               "long_name" : "Bengaluru",
               "short_name" : "Bengaluru",
               "types" : [ "locality", "political" ]
            },
            {
               "long_name" : "Bangalore Urban",
               "short_name" : "Bangalore Urban",
               "types" : [ "administrative_area_level_2", "political" ]
            },
            {
               "long_name" : "Karnataka",
               "short_name" : "KA",
               "types" : [ "administrative_area_level_1", "political" ]
            },
            {
               "long_name" : "India",
               "short_name" : "IN",
               "types" : [ "country", "political" ]
            },
            {
               "long_name" : "560068",
               "short_name" : "560068",
               "types" : [ "postal_code" ]
            }
         ],
         "formatted_address" : "Hosur Main Road, Kudlu Gate, Industrial Layout, Begur, Bengaluru, Karnataka 560068, India",
         "geometry" : {
            "bounds" : {
               "northeast" : {
                  "lat" : 12.8880105,
                  "lng" : 77.6403601
               },
               "southwest" : {
                  "lat" : 12.8878025,
                  "lng" : 77.6395572
               }
            },
            "location" : {
               "lat" : 12.8879799,
               "lng" : 77.63987270000001
            },
            "location_type" : "GEOMETRIC_CENTER",
            "viewport" : {
               "northeast" : {
                  "lat" : 12.8892554802915,
                  "lng" : 77.64130763029151
               },
               "southwest" : {
                  "lat" : 12.8865575197085,
                  "lng" : 77.6386096697085
               }
            }
         },
         "partial_match" : true,
         "types" : [ "route" ]
      }
   ],
   "status" : "OK"
}
