{
   "results" : [
      {
         "address_components" : [
            {
               "long_name" : "City Drive",
               "short_name" : "City Dr",
               "types" : [ "route" ]
            },
            {
               "long_name" : "Slidell",
               "short_name" : "Slidell",
               "types" : [ "locality", "political" ]
            },
            {
               "long_name" : "St. Tammany Parish",
               "short_name" : "St Tammany Parish",
               "types" : [ "administrative_area_level_2", "political" ]
            },
            {
               "long_name" : "Louisiana",
               "short_name" : "LA",
               "types" : [ "administrative_area_level_1", "political" ]
            },
            {
               "long_name" : "United States",
               "short_name" : "US",
               "types" : [ "country", "political" ]
            },
            {
               "long_name" : "70458",
               "short_name" : "70458",
               "types" : [ "postal_code" ]
            }
         ],
         "formatted_address" : "City Drive, Slidell, LA 70458, USA",
         "geometry" : {
            "bounds" : {
               "northeast" : {
                  "lat" : 30.2597809,
                  "lng" : -89.776034
               },
               "southwest" : {
                  "lat" : 30.2499912,
                  "lng" : -89.7773629
               }
            },
            "location" : {
               "lat" : 30.2548106,
               "lng" : -89.7765297
            },
            "location_type" : "GEOMETRIC_CENTER",
            "viewport" : {
               "northeast" : {
                  "lat" : 30.2597809,
                  "lng" : -89.7753494697085
               },
               "southwest" : {
                  "lat" : 30.2499912,
                  "lng" : -89.77804743029151
               }
            }
         },
         "types" : [ "route" ]
      },
      {
         "address_components" : [
            {
               "long_name" : "City Drive",
               "short_name" : "City Dr",
               "types" : [ "route" ]
            },
            {
               "long_name" : "Bean Station",
               "short_name" : "Bean Station",
               "types" : [ "locality", "political" ]
            },
            {
               "long_name" : "Grainger County",
               "short_name" : "Grainger County",
               "types" : [ "administrative_area_level_2", "political" ]
            },
            {
               "long_name" : "Tennessee",
               "short_name" : "TN",
               "types" : [ "administrative_area_level_1", "political" ]
            },
            {
               "long_name" : "United States",
               "short_name" : "US",
               "types" : [ "country", "political" ]
            },
            {
               "long_name" : "37708",
               "short_name" : "37708",
               "types" : [ "postal_code" ]
            }
         ],
         "formatted_address" : "City Drive, Bean Station, TN 37708, USA",
         "geometry" : {
            "bounds" : {
               "northeast" : {
                  "lat" : 36.35049679999999,
                  "lng" : -83.28346999999999
               },
               "southwest" : {
                  "lat" : 36.3427285,
                  "lng" : -83.286681
               }
            },
            "location" : {
               "lat" : 36.3464492,
               "lng" : -83.2845763
            },
            "location_type" : "GEOMETRIC_CENTER",
            "viewport" : {
               "northeast" : {
                  "lat" : 36.35049679999999,
                  "lng" : -83.28346999999999
               },
               "southwest" : {
                  "lat" : 36.3427285,
                  "lng" : -83.286681
               }
            }
         },
         "types" : [ "route" ]
      },
      {
         "address_components" : [
            {
               "long_name" : "City Drive",
               "short_name" : "City Dr",
               "types" : [ "route" ]
            },
            {
               "long_name" : "Chesterfield",
               "short_name" : "Chesterfield",
               "types" : [ "locality", "political" ]
            },
            {
               "long_name" : "Chesterfield",
               "short_name" : "Chesterfield",
               "types" : [ "administrative_area_level_3", "political" ]
            },
            {
               "long_name" : "St. Louis County",
               "short_name" : "St Louis County",
               "types" : [ "administrative_area_level_2", "political" ]
            },
            {
               "long_name" : "Missouri",
               "short_name" : "MO",
               "types" : [ "administrative_area_level_1", "political" ]
            },
            {
               "long_name" : "United States",
               "short_name" : "US",
               "types" : [ "country", "political" ]
            },
            {
               "long_name" : "63017",
               "short_name" : "63017",
               "types" : [ "postal_code" ]
            }
         ],
         "formatted_address" : "City Drive, Chesterfield, MO 63017, USA",
         "geometry" : {
            "bounds" : {
               "northeast" : {
                  "lat" : 38.6633869,
                  "lng" : -90.56261950000001
               },
               "southwest" : {
                  "lat" : 38.6623592,
                  "lng" : -90.5642922
               }
            },
            "location" : {
               "lat" : 38.6629438,
               "lng" : -90.5634355
            },
            "location_type" : "GEOMETRIC_CENTER",
            "viewport" : {
               "northeast" : {
                  "lat" : 38.6642220302915,
                  "lng" : -90.5621068697085
               },
               "southwest" : {
                  "lat" : 38.6615240697085,
                  "lng" : -90.56480483029151
               }
            }
         },
         "types" : [ "route" ]
      },
      {
         "address_components" : [
            {
               "long_name" : "City Drive",
               "short_name" : "City Dr",
               "types" : [ "route" ]
            },
            {
               "long_name" : "Lower Rattlesnake",
               "short_name" : "Lower Rattlesnake",
               "types" : [ "neighborhood", "political" ]
            },
            {
               "long_name" : "Missoula",
               "short_name" : "Missoula",
               "types" : [ "locality", "political" ]
            },
            {
               "long_name" : "Missoula County",
               "short_name" : "Missoula County",
               "types" : [ "administrative_area_level_2", "political" ]
            },
            {
               "long_name" : "Montana",
               "short_name" : "MT",
               "types" : [ "administrative_area_level_1", "political" ]
            },
            {
               "long_name" : "United States",
               "short_name" : "US",
               "types" : [ "country", "political" ]
            },
            {
               "long_name" : "59802",
               "short_name" : "59802",
               "types" : [ "postal_code" ]
            }
         ],
         "formatted_address" : "City Drive, Missoula, MT 59802, USA",
         "geometry" : {
            "bounds" : {
               "northeast" : {
                  "lat" : 46.879976,
                  "lng" : -113.9724469
               },
               "southwest" : {
                  "lat" : 46.873465,
                  "lng" : -113.9830644
               }
            },
            "location" : {
               "lat" : 46.87571450000001,
               "lng" : -113.9794377
            },
            "location_type" : "GEOMETRIC_CENTER",
            "viewport" : {
               "northeast" : {
                  "lat" : 46.879976,
                  "lng" : -113.9724469
               },
               "southwest" : {
                  "lat" : 46.873465,
                  "lng" : -113.9830644
               }
            }
         },
         "types" : [ "route" ]
      },
      {
         "address_components" : [
            {
               "long_name" : "West City Drive",
               "short_name" : "W City Dr",
               "types" : [ "route" ]
            },
            {
               "long_name" : "Elizabeth City",
               "short_name" : "Elizabeth City",
               "types" : [ "locality", "political" ]
            },
            {
               "long_name" : "Mount Hermon",
               "short_name" : "Mt Hermon",
               "types" : [ "administrative_area_level_3", "political" ]
            },
            {
               "long_name" : "Pasquotank County",
               "short_name" : "Pasquotank County",
               "types" : [ "administrative_area_level_2", "political" ]
            },
            {
               "long_name" : "North Carolina",
               "short_name" : "NC",
               "types" : [ "administrative_area_level_1", "political" ]
            },
            {
               "long_name" : "United States",
               "short_name" : "US",
               "types" : [ "country", "political" ]
            },
            {
               "long_name" : "27909",
               "short_name" : "27909",
               "types" : [ "postal_code" ]
            }
         ],
         "formatted_address" : "West City Drive, Elizabeth City, NC 27909, USA",
         "geometry" : {
            "bounds" : {
               "northeast" : {
                  "lat" : 36.2993827,
                  "lng" : -76.2590951
               },
               "southwest" : {
                  "lat" : 36.2977054,
                  "lng" : -76.26333699999999
               }
            },
            "location" : {
               "lat" : 36.2987614,
               "lng" : -76.25941949999999
            },
            "location_type" : "GEOMETRIC_CENTER",
            "viewport" : {
               "northeast" : {
                  "lat" : 36.2998930302915,
                  "lng" : -76.2590951
               },
               "southwest" : {
                  "lat" : 36.2971950697085,
                  "lng" : -76.26333699999999
               }
            }
         },
         "partial_match" : true,
         "types" : [ "route" ]
      },
      {
         "address_components" : [
            {
               "long_name" : "South City Drive",
               "short_name" : "South City Drive",
               "types" : [ "route" ]
            },
            {
               "long_name" : "Binãn",
               "short_name" : "Binãn",
               "types" : [ "locality", "political" ]
            },
            {
               "long_name" : "Laguna",
               "short_name" : "Laguna",
               "types" : [ "administrative_area_level_2", "political" ]
            },
            {
               "long_name" : "Calabarzon",
               "short_name" : "Calabarzon",
               "types" : [ "administrative_area_level_1", "political" ]
            },
            {
               "long_name" : "Philippines",
               "short_name" : "PH",
               "types" : [ "country", "political" ]
            }
         ],
         "formatted_address" : "South City Drive, Binãn, Laguna, Philippines",
         "geometry" : {
            "bounds" : {
               "northeast" : {
                  "lat" : 14.3243723,
                  "lng" : 121.0779126
               },
               "southwest" : {
                  "lat" : 14.318788,
                  "lng" : 121.0734509
               }
            },
            "location" : {
               "lat" : 14.3213677,
               "lng" : 121.0756876
            },
            "location_type" : "GEOMETRIC_CENTER",
            "viewport" : {
               "northeast" : {
                  "lat" : 14.3243723,
                  "lng" : 121.0779126
               },
               "southwest" : {
                  "lat" : 14.318788,
                  "lng" : 121.0734509
               }
            }
         },
         "partial_match" : true,
         "types" : [ "route" ]
      },
      {
         "address_components" : [
            {
               "long_name" : "The City Drive South",
               "short_name" : "The City Dr S",
               "types" : [ "route" ]
            },
            {
               "long_name" : "Orange",
               "short_name" : "Orange",
               "types" : [ "locality", "political" ]
            },
            {
               "long_name" : "Orange County",
               "short_name" : "Orange County",
               "types" : [ "administrative_area_level_2", "political" ]
            },
            {
               "long_name" : "California",
               "short_name" : "CA",
               "types" : [ "administrative_area_level_1", "political" ]
            },
            {
               "long_name" : "United States",
               "short_name" : "US",
               "types" : [ "country", "political" ]
            },
            {
               "long_name" : "92868",
               "short_name" : "92868",
               "types" : [ "postal_code" ]
            }
         ],
         "formatted_address" : "The City Drive South, Orange, CA 92868, USA",
         "geometry" : {
            "bounds" : {
               "northeast" : {
                  "lat" : 33.789031,
                  "lng" : -117.8856602
               },
               "southwest" : {
                  "lat" : 33.7743091,
                  "lng" : -117.8930095
               }
            },
            "location" : {
               "lat" : 33.781698,
               "lng" : -117.8889286
            },
            "location_type" : "GEOMETRIC_CENTER",
            "viewport" : {
               "northeast" : {
                  "lat" : 33.789031,
                  "lng" : -117.8856602
               },
               "southwest" : {
                  "lat" : 33.7743091,
                  "lng" : -117.8930095
               }
            }
         },
         "partial_match" : true,
         "types" : [ "route" ]
      },
      {
         "address_components" : [
            {
               "long_name" : "Crimson",
               "short_name" : "Crimson",
               "types" : [ "route" ]
            },
            {
               "long_name" : "Pittsburgh",
               "short_name" : "Pitts",
               "types" : [ "locality", "political" ]
            },
            {
               "long_name" : "Ohio",
               "short_name" : "Ohio",
               "types" : [ "administrative_area_level_3", "political" ]
            },
            {
               "long_name" : "Allegheny County",
               "short_name" : "Allegheny County",
               "types" : [ "administrative_area_level_2", "political" ]
            },
            {
               "long_name" : "Pennsylvania",
               "short_name" : "PA",
               "types" : [ "administrative_area_level_1", "political" ]
            },
            {
               "long_name" : "United States",
               "short_name" : "US",
               "types" : [ "country", "political" ]
            },
            {
               "long_name" : "15237",
               "short_name" : "15237",
               "types" : [ "postal_code" ]
            }
         ],
         "formatted_address" : "Crimson, Pittsburgh, PA 15237, USA",
         "geometry" : {
            "bounds" : {
               "northeast" : {
                  "lat" : 40.5490005,
                  "lng" : -80.0906098
               },
               "southwest" : {
                  "lat" : 40.54704530000001,
                  "lng" : -80.0946287
               }
            },
            "location" : {
               "lat" : 40.5485886,
               "lng" : -80.09285149999999
            },
            "location_type" : "GEOMETRIC_CENTER",
            "viewport" : {
               "northeast" : {
                  "lat" : 40.5493718802915,
                  "lng" : -80.0906098
               },
               "southwest" : {
                  "lat" : 40.54667391970851,
                  "lng" : -80.0946287
               }
            }
         },
         "partial_match" : true,
         "types" : [ "route" ]
      },
      {
         "address_components" : [
            {
               "long_name" : "The City Drive North",
               "short_name" : "The City Dr N",
               "types" : [ "route" ]
            },
            {
               "long_name" : "Orange",
               "short_name" : "Orange",
               "types" : [ "locality", "political" ]
            },
            {
               "long_name" : "Orange County",
               "short_name" : "Orange County",
               "types" : [ "administrative_area_level_2", "political" ]
            },
            {
               "long_name" : "California",
               "short_name" : "CA",
               "types" : [ "administrative_area_level_1", "political" ]
            },
            {
               "long_name" : "United States",
               "short_name" : "US",
               "types" : [ "country", "political" ]
            },
            {
               "long_name" : "92868",
               "short_name" : "92868",
               "types" : [ "postal_code" ]
            }
         ],
         "formatted_address" : "The City Drive North, Orange, CA 92868, USA",
         "geometry" : {
            "bounds" : {
               "northeast" : {
                  "lat" : 33.7974103,
                  "lng" : -117.886882
               },
               "southwest" : {
                  "lat" : 33.7890294,
                  "lng" : -117.896576
               }
            },
            "location" : {
               "lat" : 33.792691,
               "lng" : -117.8898988
            },
            "location_type" : "GEOMETRIC_CENTER",
            "viewport" : {
               "northeast" : {
                  "lat" : 33.7974103,
                  "lng" : -117.886882
               },
               "southwest" : {
                  "lat" : 33.7890294,
                  "lng" : -117.896576
               }
            }
         },
         "partial_match" : true,
         "types" : [ "route" ]
      },
      {
         "address_components" : [
            {
               "long_name" : "City Avenue",
               "short_name" : "City Ave",
               "types" : [ "route" ]
            },
            {
               "long_name" : "Pennsylvania",
               "short_name" : "PA",
               "types" : [ "administrative_area_level_1", "political" ]
            },
            {
               "long_name" : "United States",
               "short_name" : "US",
               "types" : [ "country", "political" ]
            }
         ],
         "formatted_address" : "City Avenue, Pennsylvania, USA",
         "geometry" : {
            "bounds" : {
               "northeast" : {
                  "lat" : 40.0125464,
                  "lng" : -75.2045366
               },
               "southwest" : {
                  "lat" : 39.9763114,
                  "lng" : -75.27842389999999
               }
            },
            "location" : {
               "lat" : 39.9943106,
               "lng" : -75.2412185
            },
            "location_type" : "GEOMETRIC_CENTER",
            "viewport" : {
               "northeast" : {
                  "lat" : 40.0125464,
                  "lng" : -75.2045366
               },
               "southwest" : {
                  "lat" : 39.9763114,
                  "lng" : -75.27842389999999
               }
            }
         },
         "partial_match" : true,
         "types" : [ "route" ]
      },
      {
         "address_components" : [
            {
               "long_name" : "City Road",
               "short_name" : "City Rd",
               "types" : [ "route" ]
            },
            {
               "long_name" : "Newcastle",
               "short_name" : "Newcastle",
               "types" : [ "colloquial_area", "locality", "political" ]
            },
            {
               "long_name" : "New South Wales",
               "short_name" : "NSW",
               "types" : [ "administrative_area_level_1", "political" ]
            },
            {
               "long_name" : "Australia",
               "short_name" : "AU",
               "types" : [ "country", "political" ]
            }
         ],
         "formatted_address" : "City Road, Newcastle NSW, Australia",
         "geometry" : {
            "bounds" : {
               "northeast" : {
                  "lat" : -32.9378043,
                  "lng" : 151.7487376
               },
               "southwest" : {
                  "lat" : -32.9531045,
                  "lng" : 151.7114208
               }
            },
            "location" : {
               "lat" : -32.9448144,
               "lng" : 151.7291869
            },
            "location_type" : "GEOMETRIC_CENTER",
            "viewport" : {
               "northeast" : {
                  "lat" : -32.9378043,
                  "lng" : 151.7487376
               },
               "southwest" : {
                  "lat" : -32.9531045,
                  "lng" : 151.7114208
               }
            }
         },
         "partial_match" : true,
         "types" : [ "route" ]
      },
      {
         "address_components" : [
            {
               "long_name" : "City Road",
               "short_name" : "City Rd",
               "types" : [ "route" ]
            },
            {
               "long_name" : "Manchester",
               "short_name" : "Manchester",
               "types" : [ "locality", "political" ]
            },
            {
               "long_name" : "Manchester",
               "short_name" : "Manchester",
               "types" : [ "administrative_area_level_3", "political" ]
            },
            {
               "long_name" : "Washtenaw County",
               "short_name" : "Washtenaw County",
               "types" : [ "administrative_area_level_2", "political" ]
            },
            {
               "long_name" : "Michigan",
               "short_name" : "MI",
               "types" : [ "administrative_area_level_1", "political" ]
            },
            {
               "long_name" : "United States",
               "short_name" : "US",
               "types" : [ "country", "political" ]
            },
            {
               "long_name" : "48158",
               "short_name" : "48158",
               "types" : [ "postal_code" ]
            }
         ],
         "formatted_address" : "City Road, Manchester, MI 48158, USA",
         "geometry" : {
            "bounds" : {
               "northeast" : {
                  "lat" : 42.150242,
                  "lng" : -84.0192507
               },
               "southwest" : {
                  "lat" : 42.147688,
                  "lng" : -84.03378049999999
               }
            },
            "location" : {
               "lat" : 42.149302,
               "lng" : -84.02662309999999
            },
            "location_type" : "GEOMETRIC_CENTER",
            "viewport" : {
               "northeast" : {
                  "lat" : 42.1503139802915,
                  "lng" : -84.0192507
               },
               "southwest" : {
                  "lat" : 42.1476160197085,
                  "lng" : -84.03378049999999
               }
            }
         },
         "partial_match" : true,
         "types" : [ "route" ]
      },
      {
         "address_components" : [
            {
               "long_name" : "City Road",
               "short_name" : "City Rd",
               "types" : [ "route" ]
            },
            {
               "long_name" : "Kano",
               "short_name" : "Kano",
               "types" : [ "locality", "political" ]
            },
            {
               "long_name" : "Kano",
               "short_name" : "Kano",
               "types" : [ "administrative_area_level_1", "political" ]
            },
            {
               "long_name" : "Nigeria",
               "short_name" : "NG",
               "types" : [ "country", "political" ]
            }
         ],
         "formatted_address" : "City Road, Kano, Nigeria",
         "geometry" : {
            "bounds" : {
               "northeast" : {
                  "lat" : 12.0100788,
                  "lng" : 8.534722499999999
               },
               "southwest" : {
                  "lat" : 11.9936074,
                  "lng" : 8.5311088
               }
            },
            "location" : {
               "lat" : 12.0020237,
               "lng" : 8.5334009
            },
            "location_type" : "GEOMETRIC_CENTER",
            "viewport" : {
               "northeast" : {
                  "lat" : 12.0100788,
                  "lng" : 8.534722499999999
               },
               "southwest" : {
                  "lat" : 11.9936074,
                  "lng" : 8.5311088
               }
            }
         },
         "partial_match" : true,
         "types" : [ "route" ]
      }
   ],
   "status" : "OK"
}
