{
   "results" : [
      {
         "address_components" : [
            {
               "long_name" : "Cunningham Road",
               "short_name" : "Cunningham Rd",
               "types" : [ "route" ]
            },
            {
               "long_name" : "Kevil",
               "short_name" : "Kevil",
               "types" : [ "locality", "political" ]
            },
            {
               "long_name" : "Kentucky",
               "short_name" : "KY",
               "types" : [ "administrative_area_level_1", "political" ]
            },
            {
               "long_name" : "United States",
               "short_name" : "US",
               "types" : [ "country", "political" ]
            },
            {
               "long_name" : "42053",
               "short_name" : "42053",
               "types" : [ "postal_code" ]
            }
         ],
         "formatted_address" : "Cunningham Road, Kevil, KY 42053, USA",
         "geometry" : {
            "bounds" : {
               "northeast" : {
                  "lat" : 36.9747127,
                  "lng" : -88.8237874
               },
               "southwest" : {
                  "lat" : 36.9520639,
                  "lng" : -88.830528
               }
            },
            "location" : {
               "lat" : 36.9629646,
               "lng" : -88.8281121
            },
            "location_type" : "GEOMETRIC_CENTER",
            "viewport" : {
               "northeast" : {
                  "lat" : 36.9747127,
                  "lng" : -88.8237874
               },
               "southwest" : {
                  "lat" : 36.9520639,
                  "lng" : -88.830528
               }
            }
         },
         "types" : [ "route" ]
      },
      {
         "address_components" : [
            {
               "long_name" : "Cunningham Road",
               "short_name" : "Cunningham Rd",
               "types" : [ "route" ]
            },
            {
               "long_name" : "Winnebago County",
               "short_name" : "Winnebago County",
               "types" : [ "administrative_area_level_2", "political" ]
            },
            {
               "long_name" : "Illinois",
               "short_name" : "IL",
               "types" : [ "administrative_area_level_1", "political" ]
            },
            {
               "long_name" : "United States",
               "short_name" : "US",
               "types" : [ "country", "political" ]
            }
         ],
         "formatted_address" : "Cunningham Road, Illinois, USA",
         "geometry" : {
            "bounds" : {
               "northeast" : {
                  "lat" : 42.268732,
                  "lng" : -89.11565019999999
               },
               "southwest" : {
                  "lat" : 42.25591499999999,
                  "lng" : -89.3584752
               }
            },
            "location" : {
               "lat" : 42.2615802,
               "lng" : -89.23699499999999
            },
            "location_type" : "GEOMETRIC_CENTER",
            "viewport" : {
               "northeast" : {
                  "lat" : 42.268732,
                  "lng" : -89.11565019999999
               },
               "southwest" : {
                  "lat" : 42.25591499999999,
                  "lng" : -89.3584752
               }
            }
         },
         "types" : [ "route" ]
      },
      {
         "address_components" : [
            {
               "long_name" : "Cunningham Road",
               "short_name" : "State Rd 2104",
               "types" : [ "route" ]
            },
            {
               "long_name" : "Thomasville",
               "short_name" : "Thomasville",
               "types" : [ "locality", "political" ]
            },
            {
               "long_name" : "Davidson County",
               "short_name" : "Davidson County",
               "types" : [ "administrative_area_level_2", "political" ]
            },
            {
               "long_name" : "North Carolina",
               "short_name" : "NC",
               "types" : [ "administrative_area_level_1", "political" ]
            },
            {
               "long_name" : "United States",
               "short_name" : "US",
               "types" : [ "country", "political" ]
            },
            {
               "long_name" : "27360",
               "short_name" : "27360",
               "types" : [ "postal_code" ]
            }
         ],
         "formatted_address" : "Cunningham Road, Thomasville, NC 27360, USA",
         "geometry" : {
            "bounds" : {
               "northeast" : {
                  "lat" : 35.835212,
                  "lng" : -80.11527799999999
               },
               "southwest" : {
                  "lat" : 35.7798102,
                  "lng" : -80.129339
               }
            },
            "location" : {
               "lat" : 35.8067873,
               "lng" : -80.1245318
            },
            "location_type" : "GEOMETRIC_CENTER",
            "viewport" : {
               "northeast" : {
                  "lat" : 35.835212,
                  "lng" : -80.11527799999999
               },
               "southwest" : {
                  "lat" : 35.7798102,
                  "lng" : -80.129339
               }
            }
         },
         "types" : [ "route" ]
      },
      {
         "address_components" : [
            {
               "long_name" : "East Cunningham Road",
               "short_name" : "E Cunningham Rd",
               "types" : [ "route" ]
            },
            {
               "long_name" : "Adams County",
               "short_name" : "Adams County",
               "types" : [ "administrative_area_level_2", "political" ]
            },
            {
               "long_name" : "Washington",
               "short_name" : "WA",
               "types" : [ "administrative_area_level_1", "political" ]
            },
            {
               "long_name" : "United States",
               "short_name" : "US",
               "types" : [ "country", "political" ]
            }
         ],
         "formatted_address" : "East Cunningham Road, Washington, USA",
         "geometry" : {
            "bounds" : {
               "northeast" : {
                  "lat" : 46.8254318,
                  "lng" : -118.3787595
               },
               "southwest" : {
                  "lat" : 46.8217363,
                  "lng" : -118.7721896
               }
            },
            "location" : {
               "lat" : 46.823937,
               "lng" : -118.568592
            },
            "location_type" : "GEOMETRIC_CENTER",
            "viewport" : {
               "northeast" : {
                  "lat" : 46.8254318,
                  "lng" : -118.3787595
               },
               "southwest" : {
                  "lat" : 46.8217363,
                  "lng" : -118.7721896
               }
            }
         },
         "types" : [ "route" ]
      },
      {
         "address_components" : [
            {
               "long_name" : "Cunningham Road",
               "short_name" : "State Rd 1745",
               "types" : [ "route" ]
            },
            {
               "long_name" : "Kinston",
               "short_name" : "Kinston",
               "types" : [ "locality", "political" ]
            },
            {
               "long_name" : "Kinston",
               "short_name" : "Kinston",
               "types" : [ "administrative_area_level_3", "political" ]
            },
            {
               "long_name" : "Lenoir County",
               "short_name" : "Lenoir County",
               "types" : [ "administrative_area_level_2", "political" ]
            },
            {
               "long_name" : "North Carolina",
               "short_name" : "NC",
               "types" : [ "administrative_area_level_1", "political" ]
            },
            {
               "long_name" : "United States",
               "short_name" : "US",
               "types" : [ "country", "political" ]
            },
            {
               "long_name" : "28501",
               "short_name" : "28501",
               "types" : [ "postal_code" ]
            }
         ],
         "formatted_address" : "Cunningham Road, Kinston, NC 28501, USA",
         "geometry" : {
            "bounds" : {
               "northeast" : {
                  "lat" : 35.2976506,
                  "lng" : -77.545771
               },
               "southwest" : {
                  "lat" : 35.2830686,
                  "lng" : -77.5754621
               }
            },
            "location" : {
               "lat" : 35.2917027,
               "lng" : -77.55950970000001
            },
            "location_type" : "GEOMETRIC_CENTER",
            "viewport" : {
               "northeast" : {
                  "lat" : 35.2976506,
                  "lng" : -77.545771
               },
               "southwest" : {
                  "lat" : 35.2830686,
                  "lng" : -77.5754621
               }
            }
         },
         "types" : [ "route" ]
      },
      {
         "address_components" : [
            {
               "long_name" : "Cunningham Road",
               "short_name" : "Cunningham Rd",
               "types" : [ "route" ]
            },
            {
               "long_name" : "Knoxville",
               "short_name" : "Knoxville",
               "types" : [ "locality", "political" ]
            },
            {
               "long_name" : "Knox County",
               "short_name" : "Knox County",
               "types" : [ "administrative_area_level_2", "political" ]
            },
            {
               "long_name" : "Tennessee",
               "short_name" : "TN",
               "types" : [ "administrative_area_level_1", "political" ]
            },
            {
               "long_name" : "United States",
               "short_name" : "US",
               "types" : [ "country", "political" ]
            },
            {
               "long_name" : "37918",
               "short_name" : "37918",
               "types" : [ "postal_code" ]
            }
         ],
         "formatted_address" : "Cunningham Road, Knoxville, TN 37918, USA",
         "geometry" : {
            "bounds" : {
               "northeast" : {
                  "lat" : 36.07540100000001,
                  "lng" : -83.92781269999999
               },
               "southwest" : {
                  "lat" : 36.0558454,
                  "lng" : -83.970444
               }
            },
            "location" : {
               "lat" : 36.0662617,
               "lng" : -83.95013949999999
            },
            "location_type" : "GEOMETRIC_CENTER",
            "viewport" : {
               "northeast" : {
                  "lat" : 36.07540100000001,
                  "lng" : -83.92781269999999
               },
               "southwest" : {
                  "lat" : 36.0558454,
                  "lng" : -83.970444
               }
            }
         },
         "types" : [ "route" ]
      },
      {
         "address_components" : [
            {
               "long_name" : "Cunningham Road",
               "short_name" : "Cunningham Rd",
               "types" : [ "route" ]
            },
            {
               "long_name" : "Murrayville",
               "short_name" : "Murrayville",
               "types" : [ "locality", "political" ]
            },
            {
               "long_name" : "Morgan County",
               "short_name" : "Morgan County",
               "types" : [ "administrative_area_level_2", "political" ]
            },
            {
               "long_name" : "Illinois",
               "short_name" : "IL",
               "types" : [ "administrative_area_level_1", "political" ]
            },
            {
               "long_name" : "United States",
               "short_name" : "US",
               "types" : [ "country", "political" ]
            },
            {
               "long_name" : "62668",
               "short_name" : "62668",
               "types" : [ "postal_code" ]
            }
         ],
         "formatted_address" : "Cunningham Road, Murrayville, IL 62668, USA",
         "geometry" : {
            "bounds" : {
               "northeast" : {
                  "lat" : 39.5862569,
                  "lng" : -90.251277
               },
               "southwest" : {
                  "lat" : 39.5620613,
                  "lng" : -90.2988361
               }
            },
            "location" : {
               "lat" : 39.5712879,
               "lng" : -90.275476
            },
            "location_type" : "GEOMETRIC_CENTER",
            "viewport" : {
               "northeast" : {
                  "lat" : 39.5862569,
                  "lng" : -90.251277
               },
               "southwest" : {
                  "lat" : 39.5620613,
                  "lng" : -90.2988361
               }
            }
         },
         "types" : [ "route" ]
      },
      {
         "address_components" : [
            {
               "long_name" : "Cunningham Road",
               "short_name" : "Cunningham Rd",
               "types" : [ "route" ]
            },
            {
               "long_name" : "Echo",
               "short_name" : "Echo",
               "types" : [ "locality", "political" ]
            },
            {
               "long_name" : "Umatilla County",
               "short_name" : "Umatilla County",
               "types" : [ "administrative_area_level_2", "political" ]
            },
            {
               "long_name" : "Oregon",
               "short_name" : "OR",
               "types" : [ "administrative_area_level_1", "political" ]
            },
            {
               "long_name" : "United States",
               "short_name" : "US",
               "types" : [ "country", "political" ]
            },
            {
               "long_name" : "97826",
               "short_name" : "97826",
               "types" : [ "postal_code" ]
            }
         ],
         "formatted_address" : "Cunningham Road, Echo, OR 97826, USA",
         "geometry" : {
            "bounds" : {
               "northeast" : {
                  "lat" : 45.6662529,
                  "lng" : -119.1459861
               },
               "southwest" : {
                  "lat" : 45.646825,
                  "lng" : -119.2485564
               }
            },
            "location" : {
               "lat" : 45.6615458,
               "lng" : -119.1927848
            },
            "location_type" : "GEOMETRIC_CENTER",
            "viewport" : {
               "northeast" : {
                  "lat" : 45.6662529,
                  "lng" : -119.1459861
               },
               "southwest" : {
                  "lat" : 45.646825,
                  "lng" : -119.2485564
               }
            }
         },
         "types" : [ "route" ]
      },
      {
         "address_components" : [
            {
               "long_name" : "Cunningham Road",
               "short_name" : "Cunningham Rd",
               "types" : [ "route" ]
            },
            {
               "long_name" : "Durham",
               "short_name" : "Durham",
               "types" : [ "locality", "political" ]
            },
            {
               "long_name" : "Greene County",
               "short_name" : "Greene County",
               "types" : [ "administrative_area_level_2", "political" ]
            },
            {
               "long_name" : "New York",
               "short_name" : "NY",
               "types" : [ "administrative_area_level_1", "political" ]
            },
            {
               "long_name" : "United States",
               "short_name" : "US",
               "types" : [ "country", "political" ]
            },
            {
               "long_name" : "12422",
               "short_name" : "12422",
               "types" : [ "postal_code" ]
            }
         ],
         "formatted_address" : "Cunningham Road, Durham, NY 12422, USA",
         "geometry" : {
            "bounds" : {
               "northeast" : {
                  "lat" : 42.3881328,
                  "lng" : -74.1840418
               },
               "southwest" : {
                  "lat" : 42.371344,
                  "lng" : -74.23067500000001
               }
            },
            "location" : {
               "lat" : 42.3789249,
               "lng" : -74.2071809
            },
            "location_type" : "GEOMETRIC_CENTER",
            "viewport" : {
               "northeast" : {
                  "lat" : 42.3881328,
                  "lng" : -74.1840418
               },
               "southwest" : {
                  "lat" : 42.371344,
                  "lng" : -74.23067500000001
               }
            }
         },
         "types" : [ "route" ]
      },
      {
         "address_components" : [
            {
               "long_name" : "Cunningham Road",
               "short_name" : "Cunningham Rd",
               "types" : [ "route" ]
            },
            {
               "long_name" : "Semora",
               "short_name" : "Semora",
               "types" : [ "locality", "political" ]
            },
            {
               "long_name" : "North Carolina",
               "short_name" : "NC",
               "types" : [ "administrative_area_level_1", "political" ]
            },
            {
               "long_name" : "United States",
               "short_name" : "US",
               "types" : [ "country", "political" ]
            },
            {
               "long_name" : "27343",
               "short_name" : "27343",
               "types" : [ "postal_code" ]
            }
         ],
         "formatted_address" : "Cunningham Road, Semora, NC 27343, USA",
         "geometry" : {
            "bounds" : {
               "northeast" : {
                  "lat" : 36.5420481,
                  "lng" : -79.070043
               },
               "southwest" : {
                  "lat" : 36.505411,
                  "lng" : -79.14627569999999
               }
            },
            "location" : {
               "lat" : 36.5271362,
               "lng" : -79.105566
            },
            "location_type" : "GEOMETRIC_CENTER",
            "viewport" : {
               "northeast" : {
                  "lat" : 36.5420481,
                  "lng" : -79.070043
               },
               "southwest" : {
                  "lat" : 36.505411,
                  "lng" : -79.14627569999999
               }
            }
         },
         "types" : [ "route" ]
      },
      {
         "address_components" : [
            {
               "long_name" : "Cunningham Road",
               "short_name" : "Cunningham Rd",
               "types" : [ "route" ]
            },
            {
               "long_name" : "Greensboro",
               "short_name" : "Greensboro",
               "types" : [ "locality", "political" ]
            },
            {
               "long_name" : "Greene County",
               "short_name" : "Greene County",
               "types" : [ "administrative_area_level_2", "political" ]
            },
            {
               "long_name" : "Georgia",
               "short_name" : "GA",
               "types" : [ "administrative_area_level_1", "political" ]
            },
            {
               "long_name" : "United States",
               "short_name" : "US",
               "types" : [ "country", "political" ]
            },
            {
               "long_name" : "30642",
               "short_name" : "30642",
               "types" : [ "postal_code" ]
            }
         ],
         "formatted_address" : "Cunningham Road, Greensboro, GA 30642, USA",
         "geometry" : {
            "bounds" : {
               "northeast" : {
                  "lat" : 33.638867,
                  "lng" : -83.115972
               },
               "southwest" : {
                  "lat" : 33.60206640000001,
                  "lng" : -83.137328
               }
            },
            "location" : {
               "lat" : 33.6217857,
               "lng" : -83.13156839999999
            },
            "location_type" : "GEOMETRIC_CENTER",
            "viewport" : {
               "northeast" : {
                  "lat" : 33.638867,
                  "lng" : -83.115972
               },
               "southwest" : {
                  "lat" : 33.60206640000001,
                  "lng" : -83.137328
               }
            }
         },
         "types" : [ "route" ]
      },
      {
         "address_components" : [
            {
               "long_name" : "Cunningham Road",
               "short_name" : "Cunningham Rd",
               "types" : [ "route" ]
            },
            {
               "long_name" : "Killeen",
               "short_name" : "Killeen",
               "types" : [ "locality", "political" ]
            },
            {
               "long_name" : "Bell County",
               "short_name" : "Bell County",
               "types" : [ "administrative_area_level_2", "political" ]
            },
            {
               "long_name" : "Texas",
               "short_name" : "TX",
               "types" : [ "administrative_area_level_1", "political" ]
            },
            {
               "long_name" : "United States",
               "short_name" : "US",
               "types" : [ "country", "political" ]
            },
            {
               "long_name" : "76542",
               "short_name" : "76542",
               "types" : [ "postal_code" ]
            }
         ],
         "formatted_address" : "Cunningham Road, Killeen, TX 76542, USA",
         "geometry" : {
            "bounds" : {
               "northeast" : {
                  "lat" : 31.086097,
                  "lng" : -97.70912059999999
               },
               "southwest" : {
                  "lat" : 31.0547788,
                  "lng" : -97.716284
               }
            },
            "location" : {
               "lat" : 31.0691496,
               "lng" : -97.7151391
            },
            "location_type" : "GEOMETRIC_CENTER",
            "viewport" : {
               "northeast" : {
                  "lat" : 31.086097,
                  "lng" : -97.70912059999999
               },
               "southwest" : {
                  "lat" : 31.0547788,
                  "lng" : -97.716284
               }
            }
         },
         "types" : [ "route" ]
      },
      {
         "address_components" : [
            {
               "long_name" : "Cunningham Road",
               "short_name" : "Cunningham Rd",
               "types" : [ "route" ]
            },
            {
               "long_name" : "Houston",
               "short_name" : "Houston",
               "types" : [ "locality", "political" ]
            },
            {
               "long_name" : "Harris County",
               "short_name" : "Harris County",
               "types" : [ "administrative_area_level_2", "political" ]
            },
            {
               "long_name" : "Texas",
               "short_name" : "TX",
               "types" : [ "administrative_area_level_1", "political" ]
            },
            {
               "long_name" : "United States",
               "short_name" : "US",
               "types" : [ "country", "political" ]
            },
            {
               "long_name" : "77041",
               "short_name" : "77041",
               "types" : [ "postal_code" ]
            }
         ],
         "formatted_address" : "Cunningham Road, Houston, TX 77041, USA",
         "geometry" : {
            "bounds" : {
               "northeast" : {
                  "lat" : 29.867523,
                  "lng" : -95.57975569999999
               },
               "southwest" : {
                  "lat" : 29.8503022,
                  "lng" : -95.58480489999999
               }
            },
            "location" : {
               "lat" : 29.8587006,
               "lng" : -95.5814896
            },
            "location_type" : "GEOMETRIC_CENTER",
            "viewport" : {
               "northeast" : {
                  "lat" : 29.867523,
                  "lng" : -95.57975569999999
               },
               "southwest" : {
                  "lat" : 29.8503022,
                  "lng" : -95.58480489999999
               }
            }
         },
         "types" : [ "route" ]
      },
      {
         "address_components" : [
            {
               "long_name" : "Cunningham Road",
               "short_name" : "Cunningham Rd",
               "types" : [ "route" ]
            },
            {
               "long_name" : "Salem",
               "short_name" : "Salem",
               "types" : [ "locality", "political" ]
            },
            {
               "long_name" : "Ohio",
               "short_name" : "OH",
               "types" : [ "administrative_area_level_1", "political" ]
            },
            {
               "long_name" : "United States",
               "short_name" : "US",
               "types" : [ "country", "political" ]
            },
            {
               "long_name" : "44460",
               "short_name" : "44460",
               "types" : [ "postal_code" ]
            }
         ],
         "formatted_address" : "Cunningham Road, Salem, OH 44460, USA",
         "geometry" : {
            "bounds" : {
               "northeast" : {
                  "lat" : 40.9045772,
                  "lng" : -80.8197804
               },
               "southwest" : {
                  "lat" : 40.8570926,
                  "lng" : -80.8275256
               }
            },
            "location" : {
               "lat" : 40.8803575,
               "lng" : -80.820054
            },
            "location_type" : "GEOMETRIC_CENTER",
            "viewport" : {
               "northeast" : {
                  "lat" : 40.9045772,
                  "lng" : -80.8197804
               },
               "southwest" : {
                  "lat" : 40.8570926,
                  "lng" : -80.8275256
               }
            }
         },
         "types" : [ "route" ]
      },
      {
         "address_components" : [
            {
               "long_name" : "Cunningham Road",
               "short_name" : "Cunningham Rd",
               "types" : [ "route" ]
            },
            {
               "long_name" : "Nocona",
               "short_name" : "Nocona",
               "types" : [ "locality", "political" ]
            },
            {
               "long_name" : "Montague County",
               "short_name" : "Montague County",
               "types" : [ "administrative_area_level_2", "political" ]
            },
            {
               "long_name" : "Texas",
               "short_name" : "TX",
               "types" : [ "administrative_area_level_1", "political" ]
            },
            {
               "long_name" : "United States",
               "short_name" : "US",
               "types" : [ "country", "political" ]
            },
            {
               "long_name" : "76255",
               "short_name" : "76255",
               "types" : [ "postal_code" ]
            }
         ],
         "formatted_address" : "Cunningham Road, Nocona, TX 76255, USA",
         "geometry" : {
            "bounds" : {
               "northeast" : {
                  "lat" : 33.90415309999999,
                  "lng" : -97.6748351
               },
               "southwest" : {
                  "lat" : 33.8909386,
                  "lng" : -97.72242050000001
               }
            },
            "location" : {
               "lat" : 33.8952762,
               "lng" : -97.69598689999999
            },
            "location_type" : "GEOMETRIC_CENTER",
            "viewport" : {
               "northeast" : {
                  "lat" : 33.90415309999999,
                  "lng" : -97.6748351
               },
               "southwest" : {
                  "lat" : 33.8909386,
                  "lng" : -97.72242050000001
               }
            }
         },
         "types" : [ "route" ]
      },
      {
         "address_components" : [
            {
               "long_name" : "Cunningham Road",
               "short_name" : "Cunningham Rd",
               "types" : [ "route" ]
            },
            {
               "long_name" : "Clay",
               "short_name" : "Clay",
               "types" : [ "administrative_area_level_3", "political" ]
            },
            {
               "long_name" : "Ritchie County",
               "short_name" : "Ritchie County",
               "types" : [ "administrative_area_level_2", "political" ]
            },
            {
               "long_name" : "West Virginia",
               "short_name" : "WV",
               "types" : [ "administrative_area_level_1", "political" ]
            },
            {
               "long_name" : "United States",
               "short_name" : "US",
               "types" : [ "country", "political" ]
            }
         ],
         "formatted_address" : "Cunningham Road, Clay, WV, USA",
         "geometry" : {
            "bounds" : {
               "northeast" : {
                  "lat" : 39.2741033,
                  "lng" : -81.0029335
               },
               "southwest" : {
                  "lat" : 39.23384370000001,
                  "lng" : -81.0227929
               }
            },
            "location" : {
               "lat" : 39.2541677,
               "lng" : -81.0152222
            },
            "location_type" : "GEOMETRIC_CENTER",
            "viewport" : {
               "northeast" : {
                  "lat" : 39.2741033,
                  "lng" : -81.0029335
               },
               "southwest" : {
                  "lat" : 39.23384370000001,
                  "lng" : -81.0227929
               }
            }
         },
         "types" : [ "route" ]
      },
      {
         "address_components" : [
            {
               "long_name" : "Cunningham Road",
               "short_name" : "Cunningham Rd",
               "types" : [ "route" ]
            },
            {
               "long_name" : "Tuscaloosa",
               "short_name" : "Tuscaloosa",
               "types" : [ "locality", "political" ]
            },
            {
               "long_name" : "Tuscaloosa County",
               "short_name" : "Tuscaloosa County",
               "types" : [ "administrative_area_level_2", "political" ]
            },
            {
               "long_name" : "Alabama",
               "short_name" : "AL",
               "types" : [ "administrative_area_level_1", "political" ]
            },
            {
               "long_name" : "United States",
               "short_name" : "US",
               "types" : [ "country", "political" ]
            },
            {
               "long_name" : "35406",
               "short_name" : "35406",
               "types" : [ "postal_code" ]
            }
         ],
         "formatted_address" : "Cunningham Road, Tuscaloosa, AL 35406, USA",
         "geometry" : {
            "bounds" : {
               "northeast" : {
                  "lat" : 33.3789654,
                  "lng" : -87.49474409999999
               },
               "southwest" : {
                  "lat" : 33.33835080000001,
                  "lng" : -87.5067627
               }
            },
            "location" : {
               "lat" : 33.3604629,
               "lng" : -87.4961639
            },
            "location_type" : "GEOMETRIC_CENTER",
            "viewport" : {
               "northeast" : {
                  "lat" : 33.3789654,
                  "lng" : -87.49474409999999
               },
               "southwest" : {
                  "lat" : 33.33835080000001,
                  "lng" : -87.5067627
               }
            }
         },
         "types" : [ "route" ]
      },
      {
         "address_components" : [
            {
               "long_name" : "Cunningham Road",
               "short_name" : "Cunningham Rd",
               "types" : [ "route" ]
            },
            {
               "long_name" : "Indianapolis",
               "short_name" : "Indianapolis",
               "types" : [ "locality", "political" ]
            },
            {
               "long_name" : "Wayne",
               "short_name" : "Wayne",
               "types" : [ "administrative_area_level_3", "political" ]
            },
            {
               "long_name" : "Marion County",
               "short_name" : "Marion County",
               "types" : [ "administrative_area_level_2", "political" ]
            },
            {
               "long_name" : "Indiana",
               "short_name" : "IN",
               "types" : [ "administrative_area_level_1", "political" ]
            },
            {
               "long_name" : "United States",
               "short_name" : "US",
               "types" : [ "country", "political" ]
            },
            {
               "long_name" : "46224",
               "short_name" : "46224",
               "types" : [ "postal_code" ]
            }
         ],
         "formatted_address" : "Cunningham Road, Indianapolis, IN 46224, USA",
         "geometry" : {
            "bounds" : {
               "northeast" : {
                  "lat" : 39.79875639999999,
                  "lng" : -86.2576859
               },
               "southwest" : {
                  "lat" : 39.787151,
                  "lng" : -86.26611779999999
               }
            },
            "location" : {
               "lat" : 39.7926546,
               "lng" : -86.2612251
            },
            "location_type" : "GEOMETRIC_CENTER",
            "viewport" : {
               "northeast" : {
                  "lat" : 39.79875639999999,
                  "lng" : -86.2576859
               },
               "southwest" : {
                  "lat" : 39.787151,
                  "lng" : -86.26611779999999
               }
            }
         },
         "types" : [ "route" ]
      },
      {
         "address_components" : [
            {
               "long_name" : "Cunningham Road",
               "short_name" : "Cunningham Rd",
               "types" : [ "route" ]
            },
            {
               "long_name" : "White River",
               "short_name" : "White River",
               "types" : [ "administrative_area_level_3", "political" ]
            },
            {
               "long_name" : "Gibson County",
               "short_name" : "Gibson County",
               "types" : [ "administrative_area_level_2", "political" ]
            },
            {
               "long_name" : "Indiana",
               "short_name" : "IN",
               "types" : [ "administrative_area_level_1", "political" ]
            },
            {
               "long_name" : "United States",
               "short_name" : "US",
               "types" : [ "country", "political" ]
            }
         ],
         "formatted_address" : "Cunningham Road, White River, IN, USA",
         "geometry" : {
            "bounds" : {
               "northeast" : {
                  "lat" : 38.4868017,
                  "lng" : -87.54343399999999
               },
               "southwest" : {
                  "lat" : 38.4450569,
                  "lng" : -87.5475661
               }
            },
            "location" : {
               "lat" : 38.4655444,
               "lng" : -87.5444
            },
            "location_type" : "GEOMETRIC_CENTER",
            "viewport" : {
               "northeast" : {
                  "lat" : 38.4868017,
                  "lng" : -87.54343399999999
               },
               "southwest" : {
                  "lat" : 38.4450569,
                  "lng" : -87.5475661
               }
            }
         },
         "types" : [ "route" ]
      },
      {
         "address_components" : [
            {
               "long_name" : "Cunningham Road",
               "short_name" : "Cunningham Rd",
               "types" : [ "route" ]
            },
            {
               "long_name" : "Mayport",
               "short_name" : "Mayport",
               "types" : [ "locality", "political" ]
            },
            {
               "long_name" : "Pennsylvania",
               "short_name" : "PA",
               "types" : [ "administrative_area_level_1", "political" ]
            },
            {
               "long_name" : "United States",
               "short_name" : "US",
               "types" : [ "country", "political" ]
            },
            {
               "long_name" : "16240",
               "short_name" : "16240",
               "types" : [ "postal_code" ]
            }
         ],
         "formatted_address" : "Cunningham Road, Mayport, PA 16240, USA",
         "geometry" : {
            "bounds" : {
               "northeast" : {
                  "lat" : 41.0819141,
                  "lng" : -79.196529
               },
               "southwest" : {
                  "lat" : 41.071238,
                  "lng" : -79.229698
               }
            },
            "location" : {
               "lat" : 41.0723472,
               "lng" : -79.2119914
            },
            "location_type" : "GEOMETRIC_CENTER",
            "viewport" : {
               "northeast" : {
                  "lat" : 41.0819141,
                  "lng" : -79.196529
               },
               "southwest" : {
                  "lat" : 41.071238,
                  "lng" : -79.229698
               }
            }
         },
         "types" : [ "route" ]
      },
      {
         "address_components" : [
            {
               "long_name" : "Cunningham Road",
               "short_name" : "Cunningham Rd",
               "types" : [ "route" ]
            },
            {
               "long_name" : "Downey",
               "short_name" : "Downey",
               "types" : [ "locality", "political" ]
            },
            {
               "long_name" : "Bannock County",
               "short_name" : "Bannock County",
               "types" : [ "administrative_area_level_2", "political" ]
            },
            {
               "long_name" : "Idaho",
               "short_name" : "ID",
               "types" : [ "administrative_area_level_1", "political" ]
            },
            {
               "long_name" : "United States",
               "short_name" : "US",
               "types" : [ "country", "political" ]
            },
            {
               "long_name" : "83234",
               "short_name" : "83234",
               "types" : [ "postal_code" ]
            }
         ],
         "formatted_address" : "Cunningham Road, Downey, ID 83234, USA",
         "geometry" : {
            "bounds" : {
               "northeast" : {
                  "lat" : 42.4451111,
                  "lng" : -112.0630598
               },
               "southwest" : {
                  "lat" : 42.4444356,
                  "lng" : -112.1156438
               }
            },
            "location" : {
               "lat" : 42.445061,
               "lng" : -112.089806
            },
            "location_type" : "GEOMETRIC_CENTER",
            "viewport" : {
               "northeast" : {
                  "lat" : 42.44612233029149,
                  "lng" : -112.0630598
               },
               "southwest" : {
                  "lat" : 42.4434243697085,
                  "lng" : -112.1156438
               }
            }
         },
         "types" : [ "route" ]
      },
      {
         "address_components" : [
            {
               "long_name" : "Cunningham Road",
               "short_name" : "Cunningham Rd",
               "types" : [ "route" ]
            },
            {
               "long_name" : "Apple Creek",
               "short_name" : "Apple Creek",
               "types" : [ "locality", "political" ]
            },
            {
               "long_name" : "Wayne County",
               "short_name" : "Wayne County",
               "types" : [ "administrative_area_level_2", "political" ]
            },
            {
               "long_name" : "Ohio",
               "short_name" : "OH",
               "types" : [ "administrative_area_level_1", "political" ]
            },
            {
               "long_name" : "United States",
               "short_name" : "US",
               "types" : [ "country", "political" ]
            },
            {
               "long_name" : "44606",
               "short_name" : "44606",
               "types" : [ "postal_code" ]
            }
         ],
         "formatted_address" : "Cunningham Road, Apple Creek, OH 44606, USA",
         "geometry" : {
            "bounds" : {
               "northeast" : {
                  "lat" : 40.68577,
                  "lng" : -81.7361535
               },
               "southwest" : {
                  "lat" : 40.679083,
                  "lng" : -81.78395879999999
               }
            },
            "location" : {
               "lat" : 40.682462,
               "lng" : -81.7591417
            },
            "location_type" : "GEOMETRIC_CENTER",
            "viewport" : {
               "northeast" : {
                  "lat" : 40.68577,
                  "lng" : -81.7361535
               },
               "southwest" : {
                  "lat" : 40.679083,
                  "lng" : -81.78395879999999
               }
            }
         },
         "types" : [ "route" ]
      },
      {
         "address_components" : [
            {
               "long_name" : "Cunningham Road",
               "short_name" : "Cunningham Rd",
               "types" : [ "route" ]
            },
            {
               "long_name" : "Dunkerton",
               "short_name" : "Dunkerton",
               "types" : [ "locality", "political" ]
            },
            {
               "long_name" : "Iowa",
               "short_name" : "IA",
               "types" : [ "administrative_area_level_1", "political" ]
            },
            {
               "long_name" : "United States",
               "short_name" : "US",
               "types" : [ "country", "political" ]
            },
            {
               "long_name" : "50626",
               "short_name" : "50626",
               "types" : [ "postal_code" ]
            }
         ],
         "formatted_address" : "Cunningham Road, Dunkerton, IA 50626, USA",
         "geometry" : {
            "bounds" : {
               "northeast" : {
                  "lat" : 42.5548941,
                  "lng" : -92.08067849999999
               },
               "southwest" : {
                  "lat" : 42.52269889999999,
                  "lng" : -92.09451399999999
               }
            },
            "location" : {
               "lat" : 42.5409197,
               "lng" : -92.0920946
            },
            "location_type" : "GEOMETRIC_CENTER",
            "viewport" : {
               "northeast" : {
                  "lat" : 42.5548941,
                  "lng" : -92.08067849999999
               },
               "southwest" : {
                  "lat" : 42.52269889999999,
                  "lng" : -92.09451399999999
               }
            }
         },
         "types" : [ "route" ]
      },
      {
         "address_components" : [
            {
               "long_name" : "Cunningham Road",
               "short_name" : "Cunningham Rd",
               "types" : [ "route" ]
            },
            {
               "long_name" : "Cincinnati",
               "short_name" : "Cin",
               "types" : [ "locality", "political" ]
            },
            {
               "long_name" : "Hamilton County",
               "short_name" : "Hamilton County",
               "types" : [ "administrative_area_level_2", "political" ]
            },
            {
               "long_name" : "Ohio",
               "short_name" : "OH",
               "types" : [ "administrative_area_level_1", "political" ]
            },
            {
               "long_name" : "United States",
               "short_name" : "US",
               "types" : [ "country", "political" ]
            },
            {
               "long_name" : "45243",
               "short_name" : "45243",
               "types" : [ "postal_code" ]
            }
         ],
         "formatted_address" : "Cunningham Road, Cincinnati, OH 45243, USA",
         "geometry" : {
            "bounds" : {
               "northeast" : {
                  "lat" : 39.207379,
                  "lng" : -84.2890237
               },
               "southwest" : {
                  "lat" : 39.1952435,
                  "lng" : -84.324764
               }
            },
            "location" : {
               "lat" : 39.2012249,
               "lng" : -84.3063008
            },
            "location_type" : "GEOMETRIC_CENTER",
            "viewport" : {
               "northeast" : {
                  "lat" : 39.207379,
                  "lng" : -84.2890237
               },
               "southwest" : {
                  "lat" : 39.1952435,
                  "lng" : -84.324764
               }
            }
         },
         "types" : [ "route" ]
      },
      {
         "address_components" : [
            {
               "long_name" : "Cunningham Road",
               "short_name" : "Cunningham Rd",
               "types" : [ "route" ]
            },
            {
               "long_name" : "Donalsonville",
               "short_name" : "Donalsonville",
               "types" : [ "locality", "political" ]
            },
            {
               "long_name" : "Seminole County",
               "short_name" : "Seminole County",
               "types" : [ "administrative_area_level_2", "political" ]
            },
            {
               "long_name" : "Georgia",
               "short_name" : "GA",
               "types" : [ "administrative_area_level_1", "political" ]
            },
            {
               "long_name" : "United States",
               "short_name" : "US",
               "types" : [ "country", "political" ]
            },
            {
               "long_name" : "39845",
               "short_name" : "39845",
               "types" : [ "postal_code" ]
            }
         ],
         "formatted_address" : "Cunningham Road, Donalsonville, GA 39845, USA",
         "geometry" : {
            "bounds" : {
               "northeast" : {
                  "lat" : 30.9615905,
                  "lng" : -84.9141138
               },
               "southwest" : {
                  "lat" : 30.9255552,
                  "lng" : -84.91525729999999
               }
            },
            "location" : {
               "lat" : 30.9436966,
               "lng" : -84.91466439999999
            },
            "location_type" : "GEOMETRIC_CENTER",
            "viewport" : {
               "northeast" : {
                  "lat" : 30.9615905,
                  "lng" : -84.91333656970849
               },
               "southwest" : {
                  "lat" : 30.9255552,
                  "lng" : -84.91603453029151
               }
            }
         },
         "types" : [ "route" ]
      },
      {
         "address_components" : [
            {
               "long_name" : "Cunningham Road",
               "short_name" : "Cunningham Rd",
               "types" : [ "route" ]
            },
            {
               "long_name" : "Cushing",
               "short_name" : "Cushing",
               "types" : [ "administrative_area_level_3", "political" ]
            },
            {
               "long_name" : "Morrison County",
               "short_name" : "Morrison County",
               "types" : [ "administrative_area_level_2", "political" ]
            },
            {
               "long_name" : "Minnesota",
               "short_name" : "MN",
               "types" : [ "administrative_area_level_1", "political" ]
            },
            {
               "long_name" : "United States",
               "short_name" : "US",
               "types" : [ "country", "political" ]
            }
         ],
         "formatted_address" : "Cunningham Road, Cushing, MN, USA",
         "geometry" : {
            "bounds" : {
               "northeast" : {
                  "lat" : 46.1407867,
                  "lng" : -94.38191350000001
               },
               "southwest" : {
                  "lat" : 46.1341639,
                  "lng" : -94.42348
               }
            },
            "location" : {
               "lat" : 46.1366893,
               "lng" : -94.40422509999999
            },
            "location_type" : "GEOMETRIC_CENTER",
            "viewport" : {
               "northeast" : {
                  "lat" : 46.1407867,
                  "lng" : -94.38191350000001
               },
               "southwest" : {
                  "lat" : 46.1341639,
                  "lng" : -94.42348
               }
            }
         },
         "types" : [ "route" ]
      },
      {
         "address_components" : [
            {
               "long_name" : "Cunningham Road",
               "short_name" : "Cunningham Rd",
               "types" : [ "route" ]
            },
            {
               "long_name" : "Campbell",
               "short_name" : "Campbell",
               "types" : [ "locality", "political" ]
            },
            {
               "long_name" : "Clarke County",
               "short_name" : "Clarke County",
               "types" : [ "administrative_area_level_2", "political" ]
            },
            {
               "long_name" : "Alabama",
               "short_name" : "AL",
               "types" : [ "administrative_area_level_1", "political" ]
            },
            {
               "long_name" : "United States",
               "short_name" : "US",
               "types" : [ "country", "political" ]
            },
            {
               "long_name" : "36727",
               "short_name" : "36727",
               "types" : [ "postal_code" ]
            }
         ],
         "formatted_address" : "Cunningham Road, Campbell, AL 36727, USA",
         "geometry" : {
            "bounds" : {
               "northeast" : {
                  "lat" : 31.901273,
                  "lng" : -88.0579381
               },
               "southwest" : {
                  "lat" : 31.8854356,
                  "lng" : -88.076781
               }
            },
            "location" : {
               "lat" : 31.8932357,
               "lng" : -88.0673991
            },
            "location_type" : "GEOMETRIC_CENTER",
            "viewport" : {
               "northeast" : {
                  "lat" : 31.901273,
                  "lng" : -88.0579381
               },
               "southwest" : {
                  "lat" : 31.8854356,
                  "lng" : -88.076781
               }
            }
         },
         "types" : [ "route" ]
      },
      {
         "address_components" : [
            {
               "long_name" : "Cunningham Road",
               "short_name" : "Cunningham Rd",
               "types" : [ "route" ]
            },
            {
               "long_name" : "Pass Christian",
               "short_name" : "Pass Christian",
               "types" : [ "locality", "political" ]
            },
            {
               "long_name" : "Harrison County",
               "short_name" : "Harrison County",
               "types" : [ "administrative_area_level_2", "political" ]
            },
            {
               "long_name" : "Mississippi",
               "short_name" : "MS",
               "types" : [ "administrative_area_level_1", "political" ]
            },
            {
               "long_name" : "United States",
               "short_name" : "US",
               "types" : [ "country", "political" ]
            },
            {
               "long_name" : "39571",
               "short_name" : "39571",
               "types" : [ "postal_code" ]
            }
         ],
         "formatted_address" : "Cunningham Road, Pass Christian, MS 39571, USA",
         "geometry" : {
            "bounds" : {
               "northeast" : {
                  "lat" : 30.416349,
                  "lng" : -89.2504891
               },
               "southwest" : {
                  "lat" : 30.41192,
                  "lng" : -89.2910545
               }
            },
            "location" : {
               "lat" : 30.4137987,
               "lng" : -89.2696552
            },
            "location_type" : "GEOMETRIC_CENTER",
            "viewport" : {
               "northeast" : {
                  "lat" : 30.416349,
                  "lng" : -89.2504891
               },
               "southwest" : {
                  "lat" : 30.41192,
                  "lng" : -89.2910545
               }
            }
         },
         "types" : [ "route" ]
      },
      {
         "address_components" : [
            {
               "long_name" : "Cunningham Road",
               "short_name" : "Cunningham Rd",
               "types" : [ "route" ]
            },
            {
               "long_name" : "Bengaluru",
               "short_name" : "Bengaluru",
               "types" : [ "locality", "political" ]
            },
            {
               "long_name" : "Bangalore Urban",
               "short_name" : "Bangalore Urban",
               "types" : [ "administrative_area_level_2", "political" ]
            },
            {
               "long_name" : "Karnataka",
               "short_name" : "KA",
               "types" : [ "administrative_area_level_1", "political" ]
            },
            {
               "long_name" : "India",
               "short_name" : "IN",
               "types" : [ "country", "political" ]
            }
         ],
         "formatted_address" : "Cunningham Road, Bengaluru, Karnataka, India",
         "geometry" : {
            "bounds" : {
               "northeast" : {
                  "lat" : 12.9916878,
                  "lng" : 77.59792949999999
               },
               "southwest" : {
                  "lat" : 12.9834666,
                  "lng" : 77.5853783
               }
            },
            "location" : {
               "lat" : 12.9890316,
               "lng" : 77.59336139999999
            },
            "location_type" : "GEOMETRIC_CENTER",
            "viewport" : {
               "northeast" : {
                  "lat" : 12.9916878,
                  "lng" : 77.59792949999999
               },
               "southwest" : {
                  "lat" : 12.9834666,
                  "lng" : 77.5853783
               }
            }
         },
         "types" : [ "route" ]
      }
   ],
   "status" : "OK"
}
