{
   "results" : [
      {
         "address_components" : [
            {
               "long_name" : "CV Raman Road",
               "short_name" : "CV Raman Rd",
               "types" : [ "route" ]
            },
            {
               "long_name" : "Bengaluru",
               "short_name" : "Bengaluru",
               "types" : [ "locality", "political" ]
            },
            {
               "long_name" : "Bangalore Urban",
               "short_name" : "Bangalore Urban",
               "types" : [ "administrative_area_level_2", "political" ]
            },
            {
               "long_name" : "Karnataka",
               "short_name" : "KA",
               "types" : [ "administrative_area_level_1", "political" ]
            },
            {
               "long_name" : "India",
               "short_name" : "IN",
               "types" : [ "country", "political" ]
            }
         ],
         "formatted_address" : "CV Raman Road, Bengaluru, Karnataka, India",
         "geometry" : {
            "bounds" : {
               "northeast" : {
                  "lat" : 13.0187525,
                  "lng" : 77.58409829999999
               },
               "southwest" : {
                  "lat" : 13.012024,
                  "lng" : 77.5576468
               }
            },
            "location" : {
               "lat" : 13.0145905,
               "lng" : 77.570925
            },
            "location_type" : "GEOMETRIC_CENTER",
            "viewport" : {
               "northeast" : {
                  "lat" : 13.0187525,
                  "lng" : 77.58409829999999
               },
               "southwest" : {
                  "lat" : 13.012024,
                  "lng" : 77.5576468
               }
            }
         },
         "partial_match" : true,
         "types" : [ "route" ]
      },
      {
         "address_components" : [
            {
               "long_name" : "C. V. Raman Block",
               "short_name" : "C. V. Raman Block",
               "types" : [ "point_of_interest", "establishment" ]
            },
            {
               "long_name" : "C. V. Raman Block",
               "short_name" : "C. V. Raman Block",
               "types" : [ "route" ]
            },
            {
               "long_name" : "Kanchipuram",
               "short_name" : "Kanchipuram",
               "types" : [ "administrative_area_level_2", "political" ]
            },
            {
               "long_name" : "Tamil Nadu",
               "short_name" : "TN",
               "types" : [ "administrative_area_level_1", "political" ]
            },
            {
               "long_name" : "India",
               "short_name" : "IN",
               "types" : [ "country", "political" ]
            },
            {
               "long_name" : "603104",
               "short_name" : "603104",
               "types" : [ "postal_code" ]
            }
         ],
         "formatted_address" : "C. V. Raman Block, C. V. Raman Block, Tamil Nadu 603104, India",
         "geometry" : {
            "location" : {
               "lat" : 12.6587104,
               "lng" : 80.1816908
            },
            "location_type" : "APPROXIMATE",
            "viewport" : {
               "northeast" : {
                  "lat" : 12.6600593802915,
                  "lng" : 80.18303978029151
               },
               "southwest" : {
                  "lat" : 12.6573614197085,
                  "lng" : 80.18034181970849
               }
            }
         },
         "partial_match" : true,
         "types" : [ "university", "point_of_interest", "establishment" ]
      },
      {
         "address_components" : [
            {
               "long_name" : "CV Raman",
               "short_name" : "CV Raman",
               "types" : [ "point_of_interest", "establishment" ]
            },
            {
               "long_name" : "Jigar Ganj",
               "short_name" : "Jigar Ganj",
               "types" : [ "sublocality_level_1", "sublocality", "political" ]
            },
            {
               "long_name" : "Gonda",
               "short_name" : "Gonda",
               "types" : [ "locality", "political" ]
            },
            {
               "long_name" : "Gonda",
               "short_name" : "Gonda",
               "types" : [ "administrative_area_level_2", "political" ]
            },
            {
               "long_name" : "Uttar Pradesh",
               "short_name" : "UP",
               "types" : [ "administrative_area_level_1", "political" ]
            },
            {
               "long_name" : "India",
               "short_name" : "IN",
               "types" : [ "country", "political" ]
            },
            {
               "long_name" : "271001",
               "short_name" : "271001",
               "types" : [ "postal_code" ]
            }
         ],
         "formatted_address" : "CV Raman, Jigar Ganj, Gonda, Uttar Pradesh 271001, India",
         "geometry" : {
            "location" : {
               "lat" : 27.1290711,
               "lng" : 81.95502519999999
            },
            "location_type" : "APPROXIMATE",
            "viewport" : {
               "northeast" : {
                  "lat" : 27.1304200802915,
                  "lng" : 81.9563741802915
               },
               "southwest" : {
                  "lat" : 27.12772211970849,
                  "lng" : 81.9536762197085
               }
            }
         },
         "types" : [ "point_of_interest", "establishment" ]
      },
      {
         "address_components" : [
            {
               "long_name" : "CV Raman Marg",
               "short_name" : "CV Raman Marg",
               "types" : [ "route" ]
            },
            {
               "long_name" : "New Delhi",
               "short_name" : "New Delhi",
               "types" : [ "locality", "political" ]
            },
            {
               "long_name" : "South Delhi",
               "short_name" : "South Delhi",
               "types" : [ "administrative_area_level_2", "political" ]
            },
            {
               "long_name" : "Delhi",
               "short_name" : "DL",
               "types" : [ "administrative_area_level_1", "political" ]
            },
            {
               "long_name" : "India",
               "short_name" : "IN",
               "types" : [ "country", "political" ]
            }
         ],
         "formatted_address" : "CV Raman Marg, New Delhi, Delhi, India",
         "geometry" : {
            "bounds" : {
               "northeast" : {
                  "lat" : 28.5697628,
                  "lng" : 77.27352350000001
               },
               "southwest" : {
                  "lat" : 28.5589685,
                  "lng" : 77.2674737
               }
            },
            "location" : {
               "lat" : 28.5643753,
               "lng" : 77.2708188
            },
            "location_type" : "GEOMETRIC_CENTER",
            "viewport" : {
               "northeast" : {
                  "lat" : 28.5697628,
                  "lng" : 77.27352350000001
               },
               "southwest" : {
                  "lat" : 28.5589685,
                  "lng" : 77.2674737
               }
            }
         },
         "partial_match" : true,
         "types" : [ "route" ]
      },
      {
         "address_components" : [
            {
               "long_name" : "CV Raman Avenue",
               "short_name" : "CV Raman Ave",
               "types" : [ "route" ]
            },
            {
               "long_name" : "B-Zone",
               "short_name" : "B-Zone",
               "types" : [ "sublocality_level_1", "sublocality", "political" ]
            },
            {
               "long_name" : "Durgapur",
               "short_name" : "Durgapur",
               "types" : [ "locality", "political" ]
            },
            {
               "long_name" : "Bardhaman",
               "short_name" : "Bardhaman",
               "types" : [ "administrative_area_level_2", "political" ]
            },
            {
               "long_name" : "West Bengal",
               "short_name" : "WB",
               "types" : [ "administrative_area_level_1", "political" ]
            },
            {
               "long_name" : "India",
               "short_name" : "IN",
               "types" : [ "country", "political" ]
            },
            {
               "long_name" : "713214",
               "short_name" : "713214",
               "types" : [ "postal_code" ]
            }
         ],
         "formatted_address" : "CV Raman Avenue, B-Zone, Durgapur, West Bengal 713214, India",
         "geometry" : {
            "bounds" : {
               "northeast" : {
                  "lat" : 23.5594139,
                  "lng" : 87.30424839999999
               },
               "southwest" : {
                  "lat" : 23.5552568,
                  "lng" : 87.3033712
               }
            },
            "location" : {
               "lat" : 23.5570331,
               "lng" : 87.30355209999999
            },
            "location_type" : "GEOMETRIC_CENTER",
            "viewport" : {
               "northeast" : {
                  "lat" : 23.5594139,
                  "lng" : 87.30515878029151
               },
               "southwest" : {
                  "lat" : 23.5552568,
                  "lng" : 87.30246081970849
               }
            }
         },
         "partial_match" : true,
         "types" : [ "route" ]
      },
      {
         "address_components" : [
            {
               "long_name" : "CV Raman Circle",
               "short_name" : "CV Raman Cir",
               "types" : [ "route" ]
            },
            {
               "long_name" : "Kodandarampura",
               "short_name" : "Kodandarampura",
               "types" : [ "sublocality_level_2", "sublocality", "political" ]
            },
            {
               "long_name" : "Malleshwara",
               "short_name" : "Malleshwara",
               "types" : [ "sublocality_level_1", "sublocality", "political" ]
            },
            {
               "long_name" : "Bengaluru",
               "short_name" : "Bengaluru",
               "types" : [ "locality", "political" ]
            },
            {
               "long_name" : "Bangalore Urban",
               "short_name" : "Bangalore Urban",
               "types" : [ "administrative_area_level_2", "political" ]
            },
            {
               "long_name" : "Karnataka",
               "short_name" : "KA",
               "types" : [ "administrative_area_level_1", "political" ]
            },
            {
               "long_name" : "India",
               "short_name" : "IN",
               "types" : [ "country", "political" ]
            },
            {
               "long_name" : "560012",
               "short_name" : "560012",
               "types" : [ "postal_code" ]
            }
         ],
         "formatted_address" : "CV Raman Circle, Kodandarampura, Malleshwara, Bengaluru, Karnataka 560012, India",
         "geometry" : {
            "bounds" : {
               "northeast" : {
                  "lat" : 13.0121939,
                  "lng" : 77.56919669999999
               },
               "southwest" : {
                  "lat" : 13.0119084,
                  "lng" : 77.5688936
               }
            },
            "location" : {
               "lat" : 13.0119149,
               "lng" : 77.5690036
            },
            "location_type" : "GEOMETRIC_CENTER",
            "viewport" : {
               "northeast" : {
                  "lat" : 13.0134001302915,
                  "lng" : 77.5703941302915
               },
               "southwest" : {
                  "lat" : 13.0107021697085,
                  "lng" : 77.56769616970848
               }
            }
         },
         "partial_match" : true,
         "types" : [ "route" ]
      },
      {
         "address_components" : [
            {
               "long_name" : "CV Raman Hall",
               "short_name" : "CV Raman Hall",
               "types" : [ "point_of_interest", "establishment" ]
            },
            {
               "long_name" : "Bidhan Chandra Krishi Viswa Vidyalaya",
               "short_name" : "Bidhan Chandra Krishi Viswa Vidyalaya",
               "types" : [ "establishment" ]
            },
            {
               "long_name" : "BCKV Gate no 3 Road",
               "short_name" : "BCKV Gate no 3 Road",
               "types" : [ "route" ]
            },
            {
               "long_name" : "Haringhata Farm",
               "short_name" : "Haringhata Farm",
               "types" : [ "locality", "political" ]
            },
            {
               "long_name" : "Nadia",
               "short_name" : "Nadia",
               "types" : [ "administrative_area_level_2", "political" ]
            },
            {
               "long_name" : "West Bengal",
               "short_name" : "WB",
               "types" : [ "administrative_area_level_1", "political" ]
            },
            {
               "long_name" : "India",
               "short_name" : "IN",
               "types" : [ "country", "political" ]
            },
            {
               "long_name" : "741252",
               "short_name" : "741252",
               "types" : [ "postal_code" ]
            }
         ],
         "formatted_address" : "CV Raman Hall, Bidhan Chandra Krishi Viswa Vidyalaya, BCKV Gate no 3 Road, Haringhata Farm, West Bengal 741252, India",
         "geometry" : {
            "location" : {
               "lat" : 22.9480793,
               "lng" : 88.5292053
            },
            "location_type" : "APPROXIMATE",
            "viewport" : {
               "northeast" : {
                  "lat" : 22.9494282802915,
                  "lng" : 88.53055428029151
               },
               "southwest" : {
                  "lat" : 22.9467303197085,
                  "lng" : 88.5278563197085
               }
            }
         },
         "partial_match" : true,
         "types" : [ "university", "point_of_interest", "establishment" ]
      },
      {
         "address_components" : [
            {
               "long_name" : "CV Raman Road",
               "short_name" : "CV Raman Rd",
               "types" : [ "route" ]
            },
            {
               "long_name" : "Chennai",
               "short_name" : "Chennai",
               "types" : [ "locality", "political" ]
            },
            {
               "long_name" : "Chennai",
               "short_name" : "Chennai",
               "types" : [ "administrative_area_level_2", "political" ]
            },
            {
               "long_name" : "Tamil Nadu",
               "short_name" : "TN",
               "types" : [ "administrative_area_level_1", "political" ]
            },
            {
               "long_name" : "India",
               "short_name" : "IN",
               "types" : [ "country", "political" ]
            }
         ],
         "formatted_address" : "CV Raman Road, Chennai, Tamil Nadu, India",
         "geometry" : {
            "bounds" : {
               "northeast" : {
                  "lat" : 13.036106,
                  "lng" : 80.2600405
               },
               "southwest" : {
                  "lat" : 13.0345659,
                  "lng" : 80.2544315
               }
            },
            "location" : {
               "lat" : 13.0348378,
               "lng" : 80.2570518
            },
            "location_type" : "GEOMETRIC_CENTER",
            "viewport" : {
               "northeast" : {
                  "lat" : 13.0366849302915,
                  "lng" : 80.2600405
               },
               "southwest" : {
                  "lat" : 13.0339869697085,
                  "lng" : 80.2544315
               }
            }
         },
         "partial_match" : true,
         "types" : [ "route" ]
      },
      {
         "address_components" : [
            {
               "long_name" : "CV Raman Street",
               "short_name" : "CV Raman St",
               "types" : [ "route" ]
            },
            {
               "long_name" : "Salai Ma Nagar",
               "short_name" : "Salai Ma Nagar",
               "types" : [ "sublocality_level_3", "sublocality", "political" ]
            },
            {
               "long_name" : "Chinnasekkadu",
               "short_name" : "Chinnasekkadu",
               "types" : [ "sublocality_level_2", "sublocality", "political" ]
            },
            {
               "long_name" : "Manali",
               "short_name" : "Manali",
               "types" : [ "sublocality_level_1", "sublocality", "political" ]
            },
            {
               "long_name" : "Chennai",
               "short_name" : "Chennai",
               "types" : [ "locality", "political" ]
            },
            {
               "long_name" : "Tiruvallur",
               "short_name" : "Tiruvallur",
               "types" : [ "administrative_area_level_2", "political" ]
            },
            {
               "long_name" : "Tamil Nadu",
               "short_name" : "TN",
               "types" : [ "administrative_area_level_1", "political" ]
            },
            {
               "long_name" : "India",
               "short_name" : "IN",
               "types" : [ "country", "political" ]
            },
            {
               "long_name" : "600068",
               "short_name" : "600068",
               "types" : [ "postal_code" ]
            }
         ],
         "formatted_address" : "CV Raman Street, Salai Ma Nagar, Chinnasekkadu, Manali, Chennai, Tamil Nadu 600068, India",
         "geometry" : {
            "bounds" : {
               "northeast" : {
                  "lat" : 13.1706227,
                  "lng" : 80.26257799999999
               },
               "southwest" : {
                  "lat" : 13.1681533,
                  "lng" : 80.2622801
               }
            },
            "location" : {
               "lat" : 13.1693498,
               "lng" : 80.2624014
            },
            "location_type" : "GEOMETRIC_CENTER",
            "viewport" : {
               "northeast" : {
                  "lat" : 13.1707369802915,
                  "lng" : 80.2637780302915
               },
               "southwest" : {
                  "lat" : 13.1680390197085,
                  "lng" : 80.2610800697085
               }
            }
         },
         "partial_match" : true,
         "types" : [ "route" ]
      },
      {
         "address_components" : [
            {
               "long_name" : "C V रमन मार्ग",
               "short_name" : "C V रमन मार्ग",
               "types" : [ "route" ]
            },
            {
               "long_name" : "Mumbai",
               "short_name" : "Mumbai",
               "types" : [ "locality", "political" ]
            },
            {
               "long_name" : "Mumbai Suburban",
               "short_name" : "Mumbai Suburban",
               "types" : [ "administrative_area_level_2", "political" ]
            },
            {
               "long_name" : "Maharashtra",
               "short_name" : "MH",
               "types" : [ "administrative_area_level_1", "political" ]
            },
            {
               "long_name" : "India",
               "short_name" : "IN",
               "types" : [ "country", "political" ]
            }
         ],
         "formatted_address" : "C V रमन मार्ग, Mumbai, Maharashtra, India",
         "geometry" : {
            "bounds" : {
               "northeast" : {
                  "lat" : 19.0424018,
                  "lng" : 72.9248771
               },
               "southwest" : {
                  "lat" : 19.0367528,
                  "lng" : 72.9098544
               }
            },
            "location" : {
               "lat" : 19.0415087,
               "lng" : 72.91635149999999
            },
            "location_type" : "GEOMETRIC_CENTER",
            "viewport" : {
               "northeast" : {
                  "lat" : 19.0424018,
                  "lng" : 72.9248771
               },
               "southwest" : {
                  "lat" : 19.0367528,
                  "lng" : 72.9098544
               }
            }
         },
         "partial_match" : true,
         "types" : [ "route" ]
      },
      {
         "address_components" : [
            {
               "long_name" : "C V रमन मार्ग",
               "short_name" : "C V रमन मार्ग",
               "types" : [ "route" ]
            },
            {
               "long_name" : "Kanathur Reddikuppam",
               "short_name" : "Kanathur Reddikuppam",
               "types" : [ "locality", "political" ]
            },
            {
               "long_name" : "Kanchipuram",
               "short_name" : "Kanchipuram",
               "types" : [ "administrative_area_level_2", "political" ]
            },
            {
               "long_name" : "Tamil Nadu",
               "short_name" : "TN",
               "types" : [ "administrative_area_level_1", "political" ]
            },
            {
               "long_name" : "India",
               "short_name" : "IN",
               "types" : [ "country", "political" ]
            },
            {
               "long_name" : "600119",
               "short_name" : "600119",
               "types" : [ "postal_code" ]
            }
         ],
         "formatted_address" : "C V रमन मार्ग, Kanathur Reddikuppam, Tamil Nadu 600119, India",
         "geometry" : {
            "bounds" : {
               "northeast" : {
                  "lat" : 12.8589107,
                  "lng" : 80.2417657
               },
               "southwest" : {
                  "lat" : 12.8580852,
                  "lng" : 80.23692389999999
               }
            },
            "location" : {
               "lat" : 12.8584719,
               "lng" : 80.239583
            },
            "location_type" : "GEOMETRIC_CENTER",
            "viewport" : {
               "northeast" : {
                  "lat" : 12.8598469302915,
                  "lng" : 80.2417657
               },
               "southwest" : {
                  "lat" : 12.8571489697085,
                  "lng" : 80.23692389999999
               }
            }
         },
         "partial_match" : true,
         "types" : [ "route" ]
      },
      {
         "address_components" : [
            {
               "long_name" : "CV Raman Road",
               "short_name" : "CV Raman Road",
               "types" : [ "route" ]
            },
            {
               "long_name" : "Pune",
               "short_name" : "Pune",
               "types" : [ "administrative_area_level_2", "political" ]
            },
            {
               "long_name" : "Maharashtra",
               "short_name" : "MH",
               "types" : [ "administrative_area_level_1", "political" ]
            },
            {
               "long_name" : "India",
               "short_name" : "IN",
               "types" : [ "country", "political" ]
            },
            {
               "long_name" : "412305",
               "short_name" : "412305",
               "types" : [ "postal_code" ]
            }
         ],
         "formatted_address" : "CV Raman Road, Maharashtra 412305, India",
         "geometry" : {
            "bounds" : {
               "northeast" : {
                  "lat" : 18.179576,
                  "lng" : 74.2093402
               },
               "southwest" : {
                  "lat" : 18.1754552,
                  "lng" : 74.2046428
               }
            },
            "location" : {
               "lat" : 18.1770571,
               "lng" : 74.20730089999999
            },
            "location_type" : "GEOMETRIC_CENTER",
            "viewport" : {
               "northeast" : {
                  "lat" : 18.179576,
                  "lng" : 74.2093402
               },
               "southwest" : {
                  "lat" : 18.1754552,
                  "lng" : 74.2046428
               }
            }
         },
         "partial_match" : true,
         "types" : [ "route" ]
      },
      {
         "address_components" : [
            {
               "long_name" : "CV Raman Street",
               "short_name" : "CV Raman Street",
               "types" : [ "route" ]
            },
            {
               "long_name" : "Valasaravakkam",
               "short_name" : "Valasaravakkam",
               "types" : [ "sublocality_level_1", "sublocality", "political" ]
            },
            {
               "long_name" : "Chennai",
               "short_name" : "Chennai",
               "types" : [ "locality", "political" ]
            },
            {
               "long_name" : "Tiruvallur",
               "short_name" : "Tiruvallur",
               "types" : [ "administrative_area_level_2", "political" ]
            },
            {
               "long_name" : "Tamil Nadu",
               "short_name" : "TN",
               "types" : [ "administrative_area_level_1", "political" ]
            },
            {
               "long_name" : "India",
               "short_name" : "IN",
               "types" : [ "country", "political" ]
            },
            {
               "long_name" : "600095",
               "short_name" : "600095",
               "types" : [ "postal_code" ]
            }
         ],
         "formatted_address" : "CV Raman Street, Valasaravakkam, Chennai, Tamil Nadu 600095, India",
         "geometry" : {
            "bounds" : {
               "northeast" : {
                  "lat" : 13.0488252,
                  "lng" : 80.18373559999999
               },
               "southwest" : {
                  "lat" : 13.048338,
                  "lng" : 80.1815122
               }
            },
            "location" : {
               "lat" : 13.0485452,
               "lng" : 80.1826049
            },
            "location_type" : "GEOMETRIC_CENTER",
            "viewport" : {
               "northeast" : {
                  "lat" : 13.0499305802915,
                  "lng" : 80.18397288029151
               },
               "southwest" : {
                  "lat" : 13.0472326197085,
                  "lng" : 80.18127491970849
               }
            }
         },
         "partial_match" : true,
         "types" : [ "route" ]
      },
      {
         "address_components" : [
            {
               "long_name" : "CV Raman Street",
               "short_name" : "CV Raman St",
               "types" : [ "route" ]
            },
            {
               "long_name" : "Min Nagar",
               "short_name" : "Min Nagar",
               "types" : [ "sublocality_level_1", "sublocality", "political" ]
            },
            {
               "long_name" : "Kanchipuram",
               "short_name" : "Kanchipuram",
               "types" : [ "locality", "political" ]
            },
            {
               "long_name" : "Kanchipuram",
               "short_name" : "Kanchipuram",
               "types" : [ "administrative_area_level_2", "political" ]
            },
            {
               "long_name" : "Tamil Nadu",
               "short_name" : "TN",
               "types" : [ "administrative_area_level_1", "political" ]
            },
            {
               "long_name" : "India",
               "short_name" : "IN",
               "types" : [ "country", "political" ]
            },
            {
               "long_name" : "631501",
               "short_name" : "631501",
               "types" : [ "postal_code" ]
            }
         ],
         "formatted_address" : "CV Raman Street, Min Nagar, Kanchipuram, Tamil Nadu 631501, India",
         "geometry" : {
            "bounds" : {
               "northeast" : {
                  "lat" : 12.830869,
                  "lng" : 79.71379779999999
               },
               "southwest" : {
                  "lat" : 12.8299142,
                  "lng" : 79.7129419
               }
            },
            "location" : {
               "lat" : 12.8303946,
               "lng" : 79.7131169
            },
            "location_type" : "GEOMETRIC_CENTER",
            "viewport" : {
               "northeast" : {
                  "lat" : 12.8317405802915,
                  "lng" : 79.7147188302915
               },
               "southwest" : {
                  "lat" : 12.8290426197085,
                  "lng" : 79.7120208697085
               }
            }
         },
         "partial_match" : true,
         "types" : [ "route" ]
      },
      {
         "address_components" : [
            {
               "long_name" : "CV Raman Street",
               "short_name" : "CV Raman St",
               "types" : [ "route" ]
            },
            {
               "long_name" : "Anna Nagar",
               "short_name" : "Anna Nagar",
               "types" : [ "sublocality_level_2", "sublocality", "political" ]
            },
            {
               "long_name" : "Chitlapakkam",
               "short_name" : "Chitlapakkam",
               "types" : [ "sublocality_level_1", "sublocality", "political" ]
            },
            {
               "long_name" : "Chennai",
               "short_name" : "Chennai",
               "types" : [ "locality", "political" ]
            },
            {
               "long_name" : "Kanchipuram",
               "short_name" : "Kanchipuram",
               "types" : [ "administrative_area_level_2", "political" ]
            },
            {
               "long_name" : "Tamil Nadu",
               "short_name" : "TN",
               "types" : [ "administrative_area_level_1", "political" ]
            },
            {
               "long_name" : "India",
               "short_name" : "IN",
               "types" : [ "country", "political" ]
            },
            {
               "long_name" : "600059",
               "short_name" : "600059",
               "types" : [ "postal_code" ]
            }
         ],
         "formatted_address" : "CV Raman Street, Anna Nagar, Chitlapakkam, Chennai, Tamil Nadu 600059, India",
         "geometry" : {
            "bounds" : {
               "northeast" : {
                  "lat" : 12.931838,
                  "lng" : 80.141992
               },
               "southwest" : {
                  "lat" : 12.9306234,
                  "lng" : 80.1411385
               }
            },
            "location" : {
               "lat" : 12.9312004,
               "lng" : 80.14193039999999
            },
            "location_type" : "GEOMETRIC_CENTER",
            "viewport" : {
               "northeast" : {
                  "lat" : 12.9325796802915,
                  "lng" : 80.14291423029151
               },
               "southwest" : {
                  "lat" : 12.9298817197085,
                  "lng" : 80.1402162697085
               }
            }
         },
         "partial_match" : true,
         "types" : [ "route" ]
      },
      {
         "address_components" : [
            {
               "long_name" : "C V Raman Nagar",
               "short_name" : "C V Raman Nagar",
               "types" : [ "sublocality_level_1", "sublocality", "political" ]
            },
            {
               "long_name" : "Bengaluru",
               "short_name" : "Bengaluru",
               "types" : [ "locality", "political" ]
            },
            {
               "long_name" : "Bangalore Urban",
               "short_name" : "Bangalore Urban",
               "types" : [ "administrative_area_level_2", "political" ]
            },
            {
               "long_name" : "Karnataka",
               "short_name" : "KA",
               "types" : [ "administrative_area_level_1", "political" ]
            },
            {
               "long_name" : "India",
               "short_name" : "IN",
               "types" : [ "country", "political" ]
            }
         ],
         "formatted_address" : "C V Raman Nagar, Bengaluru, Karnataka, India",
         "geometry" : {
            "bounds" : {
               "northeast" : {
                  "lat" : 12.994538,
                  "lng" : 77.6843691
               },
               "southwest" : {
                  "lat" : 12.9712701,
                  "lng" : 77.64814299999999
               }
            },
            "location" : {
               "lat" : 12.9854542,
               "lng" : 77.66392479999999
            },
            "location_type" : "APPROXIMATE",
            "viewport" : {
               "northeast" : {
                  "lat" : 12.994538,
                  "lng" : 77.6843691
               },
               "southwest" : {
                  "lat" : 12.9712701,
                  "lng" : 77.64814299999999
               }
            }
         },
         "partial_match" : true,
         "types" : [ "sublocality_level_1", "sublocality", "political" ]
      },
      {
         "address_components" : [
            {
               "long_name" : "C V Raman Block",
               "short_name" : "C V Raman Block",
               "types" : [ "premise" ]
            },
            {
               "long_name" : "Nalanda Group of Institutions",
               "short_name" : "Nalanda Group of Institutions",
               "types" : [ "establishment" ]
            },
            {
               "long_name" : "C V रमन ब्लॉक मार्ग",
               "short_name" : "C V रमन ब्लॉक मार्ग",
               "types" : [ "route" ]
            },
            {
               "long_name" : "Guntur",
               "short_name" : "Guntur",
               "types" : [ "administrative_area_level_2", "political" ]
            },
            {
               "long_name" : "Andhra Pradesh",
               "short_name" : "AP",
               "types" : [ "administrative_area_level_1", "political" ]
            },
            {
               "long_name" : "India",
               "short_name" : "IN",
               "types" : [ "country", "political" ]
            },
            {
               "long_name" : "522438",
               "short_name" : "522438",
               "types" : [ "postal_code" ]
            }
         ],
         "formatted_address" : "C V Raman Block, Nalanda Group of Institutions, C V रमन ब्लॉक मार्ग, Andhra Pradesh 522438, India",
         "geometry" : {
            "bounds" : {
               "northeast" : {
                  "lat" : 16.3774323,
                  "lng" : 80.2108758
               },
               "southwest" : {
                  "lat" : 16.3771492,
                  "lng" : 80.21011679999999
               }
            },
            "location" : {
               "lat" : 16.3772908,
               "lng" : 80.2104963
            },
            "location_type" : "ROOFTOP",
            "viewport" : {
               "northeast" : {
                  "lat" : 16.3786397302915,
                  "lng" : 80.2118452802915
               },
               "southwest" : {
                  "lat" : 16.3759417697085,
                  "lng" : 80.20914731970849
               }
            }
         },
         "partial_match" : true,
         "types" : [ "premise" ]
      },
      {
         "address_components" : [
            {
               "long_name" : "CV Raman Road",
               "short_name" : "CV Raman Rd",
               "types" : [ "route" ]
            },
            {
               "long_name" : "Seoni",
               "short_name" : "Seoni",
               "types" : [ "locality", "political" ]
            },
            {
               "long_name" : "Seoni",
               "short_name" : "Seoni",
               "types" : [ "administrative_area_level_2", "political" ]
            },
            {
               "long_name" : "Madhya Pradesh",
               "short_name" : "MP",
               "types" : [ "administrative_area_level_1", "political" ]
            },
            {
               "long_name" : "India",
               "short_name" : "IN",
               "types" : [ "country", "political" ]
            },
            {
               "long_name" : "480661",
               "short_name" : "480661",
               "types" : [ "postal_code" ]
            }
         ],
         "formatted_address" : "CV Raman Road, Seoni, Madhya Pradesh 480661, India",
         "geometry" : {
            "bounds" : {
               "northeast" : {
                  "lat" : 22.0920305,
                  "lng" : 79.55727659999999
               },
               "southwest" : {
                  "lat" : 22.0891008,
                  "lng" : 79.55380319999999
               }
            },
            "location" : {
               "lat" : 22.091776,
               "lng" : 79.5548785
            },
            "location_type" : "GEOMETRIC_CENTER",
            "viewport" : {
               "northeast" : {
                  "lat" : 22.0920305,
                  "lng" : 79.55727659999999
               },
               "southwest" : {
                  "lat" : 22.0891008,
                  "lng" : 79.55380319999999
               }
            }
         },
         "partial_match" : true,
         "types" : [ "route" ]
      },
      {
         "address_components" : [
            {
               "long_name" : "CV Raman Block",
               "short_name" : "CV Raman Block",
               "types" : [ "premise" ]
            },
            {
               "long_name" : "Ibrahim Bagh",
               "short_name" : "Ibrahim Bagh",
               "types" : [ "sublocality_level_1", "sublocality", "political" ]
            },
            {
               "long_name" : "Hyderabad",
               "short_name" : "Hyderabad",
               "types" : [ "locality", "political" ]
            },
            {
               "long_name" : "Ranga Reddy",
               "short_name" : "R.R. District",
               "types" : [ "administrative_area_level_2", "political" ]
            },
            {
               "long_name" : "Telangana",
               "short_name" : "Telangana",
               "types" : [ "administrative_area_level_1", "political" ]
            },
            {
               "long_name" : "India",
               "short_name" : "IN",
               "types" : [ "country", "political" ]
            },
            {
               "long_name" : "500031",
               "short_name" : "500031",
               "types" : [ "postal_code" ]
            }
         ],
         "formatted_address" : "CV Raman Block, Ibrahim Bagh, Hyderabad, Telangana 500031, India",
         "geometry" : {
            "bounds" : {
               "northeast" : {
                  "lat" : 17.3800136,
                  "lng" : 78.3828233
               },
               "southwest" : {
                  "lat" : 17.379797,
                  "lng" : 78.38229609999999
               }
            },
            "location" : {
               "lat" : 17.3798948,
               "lng" : 78.38260060000002
            },
            "location_type" : "ROOFTOP",
            "viewport" : {
               "northeast" : {
                  "lat" : 17.3812542802915,
                  "lng" : 78.3839086802915
               },
               "southwest" : {
                  "lat" : 17.3785563197085,
                  "lng" : 78.38121071970848
               }
            }
         },
         "partial_match" : true,
         "types" : [ "premise" ]
      },
      {
         "address_components" : [
            {
               "long_name" : "CV Raman Pillai Road",
               "short_name" : "CV Raman Pillai Rd",
               "types" : [ "route" ]
            },
            {
               "long_name" : "Thiruvananthapuram",
               "short_name" : "TVM",
               "types" : [ "locality", "political" ]
            },
            {
               "long_name" : "Thiruvananthapuram",
               "short_name" : "TVM",
               "types" : [ "administrative_area_level_2", "political" ]
            },
            {
               "long_name" : "Kerala",
               "short_name" : "KL",
               "types" : [ "administrative_area_level_1", "political" ]
            },
            {
               "long_name" : "India",
               "short_name" : "IN",
               "types" : [ "country", "political" ]
            }
         ],
         "formatted_address" : "CV Raman Pillai Road, Thiruvananthapuram, Kerala, India",
         "geometry" : {
            "bounds" : {
               "northeast" : {
                  "lat" : 8.5113912,
                  "lng" : 76.96261579999999
               },
               "southwest" : {
                  "lat" : 8.486315899999999,
                  "lng" : 76.9554842
               }
            },
            "location" : {
               "lat" : 8.499126199999999,
               "lng" : 76.95759769999999
            },
            "location_type" : "GEOMETRIC_CENTER",
            "viewport" : {
               "northeast" : {
                  "lat" : 8.5113912,
                  "lng" : 76.96261579999999
               },
               "southwest" : {
                  "lat" : 8.486315899999999,
                  "lng" : 76.9554842
               }
            }
         },
         "partial_match" : true,
         "types" : [ "route" ]
      },
      {
         "address_components" : [
            {
               "long_name" : "CV Raman Hall",
               "short_name" : "CV Raman Hall",
               "types" : [ "premise" ]
            },
            {
               "long_name" : "Joyshree",
               "short_name" : "Joyshree",
               "types" : [ "sublocality_level_2", "sublocality", "political" ]
            },
            {
               "long_name" : "Kolkata",
               "short_name" : "Kolkata",
               "types" : [ "locality", "political" ]
            },
            {
               "long_name" : "North 24 Parganas",
               "short_name" : "North 24 Parganas",
               "types" : [ "administrative_area_level_2", "political" ]
            },
            {
               "long_name" : "West Bengal",
               "short_name" : "WB",
               "types" : [ "administrative_area_level_1", "political" ]
            },
            {
               "long_name" : "India",
               "short_name" : "IN",
               "types" : [ "country", "political" ]
            },
            {
               "long_name" : "700108",
               "short_name" : "700108",
               "types" : [ "postal_code" ]
            }
         ],
         "formatted_address" : "CV Raman Hall, Joyshree, Kolkata, West Bengal 700108, India",
         "geometry" : {
            "bounds" : {
               "northeast" : {
                  "lat" : 22.6449904,
                  "lng" : 88.37631569999999
               },
               "southwest" : {
                  "lat" : 22.6443473,
                  "lng" : 88.37582279999999
               }
            },
            "location" : {
               "lat" : 22.6446942,
               "lng" : 88.3760192
            },
            "location_type" : "ROOFTOP",
            "viewport" : {
               "northeast" : {
                  "lat" : 22.6460178302915,
                  "lng" : 88.3774182302915
               },
               "southwest" : {
                  "lat" : 22.6433198697085,
                  "lng" : 88.37472026970849
               }
            }
         },
         "partial_match" : true,
         "types" : [ "premise" ]
      }
   ],
   "status" : "OK"
}
