{
   "results" : [
      {
         "address_components" : [
            {
               "long_name" : "Main Hall",
               "short_name" : "Main Hall",
               "types" : [ "premise" ]
            },
            {
               "long_name" : "Main Bazar",
               "short_name" : "Main Bazar",
               "types" : [ "sublocality_level_1", "sublocality", "political" ]
            },
            {
               "long_name" : "Kurnool",
               "short_name" : "KRNT",
               "types" : [ "locality", "political" ]
            },
            {
               "long_name" : "Kurnool",
               "short_name" : "Kurnool",
               "types" : [ "administrative_area_level_2", "political" ]
            },
            {
               "long_name" : "Andhra Pradesh",
               "short_name" : "AP",
               "types" : [ "administrative_area_level_1", "political" ]
            },
            {
               "long_name" : "India",
               "short_name" : "IN",
               "types" : [ "country", "political" ]
            },
            {
               "long_name" : "518001",
               "short_name" : "518001",
               "types" : [ "postal_code" ]
            }
         ],
         "formatted_address" : "Main Hall, Main Bazar, Kurnool, Andhra Pradesh 518001, India",
         "geometry" : {
            "bounds" : {
               "northeast" : {
                  "lat" : 15.8301128,
                  "lng" : 78.0531836
               },
               "southwest" : {
                  "lat" : 15.8300457,
                  "lng" : 78.0530617
               }
            },
            "location" : {
               "lat" : 15.8300692,
               "lng" : 78.05312379999999
            },
            "location_type" : "ROOFTOP",
            "viewport" : {
               "northeast" : {
                  "lat" : 15.8314282302915,
                  "lng" : 78.0544716302915
               },
               "southwest" : {
                  "lat" : 15.82873026970849,
                  "lng" : 78.0517736697085
               }
            }
         },
         "partial_match" : true,
         "types" : [ "premise" ]
      },
      {
         "address_components" : [
            {
               "long_name" : "Main Hall",
               "short_name" : "Main Hall",
               "types" : [ "premise" ]
            },
            {
               "long_name" : "Medical College",
               "short_name" : "Medical College",
               "types" : [ "sublocality_level_2", "sublocality", "political" ]
            },
            {
               "long_name" : "Alwarpuram",
               "short_name" : "Alwarpuram",
               "types" : [ "sublocality_level_1", "sublocality", "political" ]
            },
            {
               "long_name" : "Madurai",
               "short_name" : "Madurai",
               "types" : [ "locality", "political" ]
            },
            {
               "long_name" : "Madurai",
               "short_name" : "Madurai",
               "types" : [ "administrative_area_level_2", "political" ]
            },
            {
               "long_name" : "Tamil Nadu",
               "short_name" : "TN",
               "types" : [ "administrative_area_level_1", "political" ]
            },
            {
               "long_name" : "India",
               "short_name" : "IN",
               "types" : [ "country", "political" ]
            },
            {
               "long_name" : "625020",
               "short_name" : "625020",
               "types" : [ "postal_code" ]
            }
         ],
         "formatted_address" : "Main Hall, Medical College, Alwarpuram, Madurai, Tamil Nadu 625020, India",
         "geometry" : {
            "bounds" : {
               "northeast" : {
                  "lat" : 9.929877299999999,
                  "lng" : 78.13131749999999
               },
               "southwest" : {
                  "lat" : 9.929535099999999,
                  "lng" : 78.1308463
               }
            },
            "location" : {
               "lat" : 9.929715099999999,
               "lng" : 78.13109879999999
            },
            "location_type" : "ROOFTOP",
            "viewport" : {
               "northeast" : {
                  "lat" : 9.931055180291501,
                  "lng" : 78.13243088029151
               },
               "southwest" : {
                  "lat" : 9.928357219708497,
                  "lng" : 78.1297329197085
               }
            }
         },
         "partial_match" : true,
         "types" : [ "premise" ]
      },
      {
         "address_components" : [
            {
               "long_name" : "Main Hall",
               "short_name" : "Main Hall",
               "types" : [ "route" ]
            },
            {
               "long_name" : "Nagulupeta",
               "short_name" : "Nagulupeta",
               "types" : [ "sublocality_level_1", "sublocality", "political" ]
            },
            {
               "long_name" : "Chhatrapur",
               "short_name" : "Chhatrapur",
               "types" : [ "locality", "political" ]
            },
            {
               "long_name" : "Ganjam",
               "short_name" : "Ganjam",
               "types" : [ "administrative_area_level_2", "political" ]
            },
            {
               "long_name" : "Odisha",
               "short_name" : "OD",
               "types" : [ "administrative_area_level_1", "political" ]
            },
            {
               "long_name" : "India",
               "short_name" : "IN",
               "types" : [ "country", "political" ]
            },
            {
               "long_name" : "761020",
               "short_name" : "761020",
               "types" : [ "postal_code" ]
            }
         ],
         "formatted_address" : "Main Hall, Nagulupeta, Chhatrapur, Odisha 761020, India",
         "geometry" : {
            "bounds" : {
               "northeast" : {
                  "lat" : 19.3537003,
                  "lng" : 84.9825606
               },
               "southwest" : {
                  "lat" : 19.3536181,
                  "lng" : 84.9823339
               }
            },
            "location" : {
               "lat" : 19.353624,
               "lng" : 84.98243839999999
            },
            "location_type" : "GEOMETRIC_CENTER",
            "viewport" : {
               "northeast" : {
                  "lat" : 19.3550081802915,
                  "lng" : 84.98379623029152
               },
               "southwest" : {
                  "lat" : 19.3523102197085,
                  "lng" : 84.9810982697085
               }
            }
         },
         "partial_match" : true,
         "types" : [ "route" ]
      },
      {
         "address_components" : [
            {
               "long_name" : "Main",
               "short_name" : "Main",
               "types" : [ "route" ]
            }
         ],
         "formatted_address" : "Main",
         "geometry" : {
            "bounds" : {
               "northeast" : {
                  "lat" : 34.220108,
                  "lng" : -101.596948
               },
               "southwest" : {
                  "lat" : 33.868702,
                  "lng" : -101.845114
               }
            },
            "location" : {
               "lat" : 34.064036,
               "lng" : -101.845114
            },
            "location_type" : "GEOMETRIC_CENTER",
            "viewport" : {
               "northeast" : {
                  "lat" : 34.220108,
                  "lng" : -101.596948
               },
               "southwest" : {
                  "lat" : 33.868702,
                  "lng" : -101.845114
               }
            }
         },
         "partial_match" : true,
         "types" : [ "route" ]
      },
      {
         "address_components" : [
            {
               "long_name" : "Main Block",
               "short_name" : "Main Block",
               "types" : [ "premise" ]
            },
            {
               "long_name" : "Amrita Vishwa Vidyapeetham",
               "short_name" : "Amrita Vishwa Vidyapeetham",
               "types" : [ "establishment" ]
            },
            {
               "long_name" : "Hall Road",
               "short_name" : "Hall Rd",
               "types" : [ "route" ]
            },
            {
               "long_name" : "Ettimadai",
               "short_name" : "Ettimadai",
               "types" : [ "sublocality_level_1", "sublocality", "political" ]
            },
            {
               "long_name" : "Ettimadai R.F.",
               "short_name" : "Ettimadai R.F.",
               "types" : [ "locality", "political" ]
            },
            {
               "long_name" : "Coimbatore",
               "short_name" : "Coimbatore",
               "types" : [ "administrative_area_level_2", "political" ]
            },
            {
               "long_name" : "Tamil Nadu",
               "short_name" : "TN",
               "types" : [ "administrative_area_level_1", "political" ]
            },
            {
               "long_name" : "India",
               "short_name" : "IN",
               "types" : [ "country", "political" ]
            },
            {
               "long_name" : "641112",
               "short_name" : "641112",
               "types" : [ "postal_code" ]
            }
         ],
         "formatted_address" : "Main Block, Amrita Vishwa Vidyapeetham, Hall Road, Ettimadai, Ettimadai R.F., Tamil Nadu 641112, India",
         "geometry" : {
            "bounds" : {
               "northeast" : {
                  "lat" : 10.9009856,
                  "lng" : 76.9034573
               },
               "southwest" : {
                  "lat" : 10.9001373,
                  "lng" : 76.9022583
               }
            },
            "location" : {
               "lat" : 10.9005615,
               "lng" : 76.90285779999999
            },
            "location_type" : "ROOFTOP",
            "viewport" : {
               "northeast" : {
                  "lat" : 10.9019104302915,
                  "lng" : 76.90420678029152
               },
               "southwest" : {
                  "lat" : 10.8992124697085,
                  "lng" : 76.9015088197085
               }
            }
         },
         "partial_match" : true,
         "types" : [ "premise" ]
      },
      {
         "address_components" : [
            {
               "long_name" : "Cinema Hall Main Road",
               "short_name" : "Cinema Hall Main Rd",
               "types" : [ "route" ]
            },
            {
               "long_name" : "Vaddi Palem",
               "short_name" : "Vaddi Palem",
               "types" : [ "neighborhood", "political" ]
            },
            {
               "long_name" : "Kavali",
               "short_name" : "Kavali",
               "types" : [ "locality", "political" ]
            },
            {
               "long_name" : "Nellore",
               "short_name" : "Nellore",
               "types" : [ "administrative_area_level_2", "political" ]
            },
            {
               "long_name" : "Andhra Pradesh",
               "short_name" : "AP",
               "types" : [ "administrative_area_level_1", "political" ]
            },
            {
               "long_name" : "India",
               "short_name" : "IN",
               "types" : [ "country", "political" ]
            },
            {
               "long_name" : "524201",
               "short_name" : "524201",
               "types" : [ "postal_code" ]
            }
         ],
         "formatted_address" : "Cinema Hall Main Road, Vaddi Palem, Kavali, Andhra Pradesh 524201, India",
         "geometry" : {
            "bounds" : {
               "northeast" : {
                  "lat" : 14.9181793,
                  "lng" : 79.99339549999999
               },
               "southwest" : {
                  "lat" : 14.9172882,
                  "lng" : 79.9903176
               }
            },
            "location" : {
               "lat" : 14.9177943,
               "lng" : 79.9919673
            },
            "location_type" : "GEOMETRIC_CENTER",
            "viewport" : {
               "northeast" : {
                  "lat" : 14.9190827302915,
                  "lng" : 79.99339549999999
               },
               "southwest" : {
                  "lat" : 14.9163847697085,
                  "lng" : 79.9903176
               }
            }
         },
         "partial_match" : true,
         "types" : [ "route" ]
      },
      {
         "address_components" : [
            {
               "long_name" : "Main Hall",
               "short_name" : "Main Hall",
               "types" : [ "subpremise" ]
            },
            {
               "long_name" : "Hebbal 1st Stage",
               "short_name" : "Hebbal 1st Stage",
               "types" : [ "sublocality_level_1", "sublocality", "political" ]
            },
            {
               "long_name" : "Mysore division",
               "short_name" : "Mysore division",
               "types" : [ "locality", "political" ]
            },
            {
               "long_name" : "Mysore",
               "short_name" : "Mysore",
               "types" : [ "administrative_area_level_2", "political" ]
            },
            {
               "long_name" : "Karnataka",
               "short_name" : "KA",
               "types" : [ "administrative_area_level_1", "political" ]
            },
            {
               "long_name" : "India",
               "short_name" : "IN",
               "types" : [ "country", "political" ]
            },
            {
               "long_name" : "570016",
               "short_name" : "570016",
               "types" : [ "postal_code" ]
            }
         ],
         "formatted_address" : "Main Hall, Hebbal 1st Stage, Mysore division, Karnataka 570016, India",
         "geometry" : {
            "bounds" : {
               "northeast" : {
                  "lat" : 12.3535768,
                  "lng" : 76.6164323
               },
               "southwest" : {
                  "lat" : 12.3531852,
                  "lng" : 76.6160641
               }
            },
            "location" : {
               "lat" : 12.3533677,
               "lng" : 76.61626989999999
            },
            "location_type" : "ROOFTOP",
            "viewport" : {
               "northeast" : {
                  "lat" : 12.3547299802915,
                  "lng" : 76.61759718029151
               },
               "southwest" : {
                  "lat" : 12.3520320197085,
                  "lng" : 76.61489921970849
               }
            }
         },
         "partial_match" : true,
         "types" : [ "subpremise" ]
      },
      {
         "address_components" : [
            {
               "long_name" : "Main Street",
               "short_name" : "Main St",
               "types" : [ "route" ]
            },
            {
               "long_name" : "Hale Center",
               "short_name" : "Hale Center",
               "types" : [ "locality", "political" ]
            },
            {
               "long_name" : "Hale County",
               "short_name" : "Hale County",
               "types" : [ "administrative_area_level_2", "political" ]
            },
            {
               "long_name" : "Texas",
               "short_name" : "TX",
               "types" : [ "administrative_area_level_1", "political" ]
            },
            {
               "long_name" : "United States",
               "short_name" : "US",
               "types" : [ "country", "political" ]
            },
            {
               "long_name" : "79041",
               "short_name" : "79041",
               "types" : [ "postal_code" ]
            }
         ],
         "formatted_address" : "Main Street, Hale Center, TX 79041, USA",
         "geometry" : {
            "bounds" : {
               "northeast" : {
                  "lat" : 34.07288339999999,
                  "lng" : -101.8440329
               },
               "southwest" : {
                  "lat" : 34.056399,
                  "lng" : -101.8459869
               }
            },
            "location" : {
               "lat" : 34.0643521,
               "lng" : -101.8453035
            },
            "location_type" : "GEOMETRIC_CENTER",
            "viewport" : {
               "northeast" : {
                  "lat" : 34.07288339999999,
                  "lng" : -101.8436609197085
               },
               "southwest" : {
                  "lat" : 34.056399,
                  "lng" : -101.8463588802915
               }
            }
         },
         "partial_match" : true,
         "types" : [ "route" ]
      },
      {
         "address_components" : [
            {
               "long_name" : "Main Street",
               "short_name" : "Main St",
               "types" : [ "route" ]
            },
            {
               "long_name" : "Petersburg",
               "short_name" : "Petersburg",
               "types" : [ "locality", "political" ]
            },
            {
               "long_name" : "Hale County",
               "short_name" : "Hale County",
               "types" : [ "administrative_area_level_2", "political" ]
            },
            {
               "long_name" : "Texas",
               "short_name" : "TX",
               "types" : [ "administrative_area_level_1", "political" ]
            },
            {
               "long_name" : "United States",
               "short_name" : "US",
               "types" : [ "country", "political" ]
            },
            {
               "long_name" : "79250",
               "short_name" : "79250",
               "types" : [ "postal_code" ]
            }
         ],
         "formatted_address" : "Main Street, Petersburg, TX 79250, USA",
         "geometry" : {
            "bounds" : {
               "northeast" : {
                  "lat" : 33.8786531,
                  "lng" : -101.5956145
               },
               "southwest" : {
                  "lat" : 33.8621046,
                  "lng" : -101.598275
               }
            },
            "location" : {
               "lat" : 33.8703867,
               "lng" : -101.5978975
            },
            "location_type" : "GEOMETRIC_CENTER",
            "viewport" : {
               "northeast" : {
                  "lat" : 33.8786531,
                  "lng" : -101.5955957697085
               },
               "southwest" : {
                  "lat" : 33.8621046,
                  "lng" : -101.5982937302915
               }
            }
         },
         "partial_match" : true,
         "types" : [ "route" ]
      },
      {
         "address_components" : [
            {
               "long_name" : "Main Street",
               "short_name" : "Main St",
               "types" : [ "route" ]
            },
            {
               "long_name" : "Balzan",
               "short_name" : "Balzan",
               "types" : [ "locality", "political" ]
            },
            {
               "long_name" : "Malta",
               "short_name" : "MT",
               "types" : [ "country", "political" ]
            }
         ],
         "formatted_address" : "Main Street, Balzan, Malta",
         "geometry" : {
            "bounds" : {
               "northeast" : {
                  "lat" : 35.898611,
                  "lng" : 14.4572259
               },
               "southwest" : {
                  "lat" : 35.8970626,
                  "lng" : 14.4485722
               }
            },
            "location" : {
               "lat" : 35.8979177,
               "lng" : 14.4530516
            },
            "location_type" : "GEOMETRIC_CENTER",
            "viewport" : {
               "northeast" : {
                  "lat" : 35.8991857802915,
                  "lng" : 14.4572259
               },
               "southwest" : {
                  "lat" : 35.8964878197085,
                  "lng" : 14.4485722
               }
            }
         },
         "partial_match" : true,
         "types" : [ "route" ]
      },
      {
         "address_components" : [
            {
               "long_name" : "Main Street",
               "short_name" : "Main St",
               "types" : [ "route" ]
            },
            {
               "long_name" : "HAL Colony",
               "short_name" : "HAL Colony",
               "types" : [ "neighborhood", "political" ]
            },
            {
               "long_name" : "Gandhigram",
               "short_name" : "Gandhigram",
               "types" : [ "sublocality_level_1", "sublocality", "political" ]
            },
            {
               "long_name" : "Kanpur",
               "short_name" : "Kanpur",
               "types" : [ "locality", "political" ]
            },
            {
               "long_name" : "Kanpur Nagar",
               "short_name" : "Kanpur Nagar",
               "types" : [ "administrative_area_level_2", "political" ]
            },
            {
               "long_name" : "Uttar Pradesh",
               "short_name" : "UP",
               "types" : [ "administrative_area_level_1", "political" ]
            },
            {
               "long_name" : "India",
               "short_name" : "IN",
               "types" : [ "country", "political" ]
            },
            {
               "long_name" : "208007",
               "short_name" : "208007",
               "types" : [ "postal_code" ]
            }
         ],
         "formatted_address" : "Main Street, HAL Colony, Gandhigram, Kanpur, Uttar Pradesh 208007, India",
         "geometry" : {
            "bounds" : {
               "northeast" : {
                  "lat" : 26.4084417,
                  "lng" : 80.38998389999999
               },
               "southwest" : {
                  "lat" : 26.4051921,
                  "lng" : 80.3864339
               }
            },
            "location" : {
               "lat" : 26.4070042,
               "lng" : 80.3884235
            },
            "location_type" : "GEOMETRIC_CENTER",
            "viewport" : {
               "northeast" : {
                  "lat" : 26.4084417,
                  "lng" : 80.38998389999999
               },
               "southwest" : {
                  "lat" : 26.4051921,
                  "lng" : 80.3864339
               }
            }
         },
         "partial_match" : true,
         "types" : [ "route" ]
      },
      {
         "address_components" : [
            {
               "long_name" : "Main Street",
               "short_name" : "Main St",
               "types" : [ "route" ]
            },
            {
               "long_name" : "Abernathy",
               "short_name" : "Abernathy",
               "types" : [ "locality", "political" ]
            },
            {
               "long_name" : "Hale County",
               "short_name" : "Hale County",
               "types" : [ "administrative_area_level_2", "political" ]
            },
            {
               "long_name" : "Texas",
               "short_name" : "TX",
               "types" : [ "administrative_area_level_1", "political" ]
            },
            {
               "long_name" : "United States",
               "short_name" : "US",
               "types" : [ "country", "political" ]
            },
            {
               "long_name" : "79311",
               "short_name" : "79311",
               "types" : [ "postal_code" ]
            }
         ],
         "formatted_address" : "Main Street, Abernathy, TX 79311, USA",
         "geometry" : {
            "bounds" : {
               "northeast" : {
                  "lat" : 33.832402,
                  "lng" : -101.8392862
               },
               "southwest" : {
                  "lat" : 33.831541,
                  "lng" : -101.8430858
               }
            },
            "location" : {
               "lat" : 33.8318587,
               "lng" : -101.8412738
            },
            "location_type" : "GEOMETRIC_CENTER",
            "viewport" : {
               "northeast" : {
                  "lat" : 33.8333204802915,
                  "lng" : -101.8392862
               },
               "southwest" : {
                  "lat" : 33.83062251970851,
                  "lng" : -101.8430858
               }
            }
         },
         "partial_match" : true,
         "types" : [ "route" ]
      },
      {
         "address_components" : [
            {
               "long_name" : "South Main",
               "short_name" : "S Main",
               "types" : [ "route" ]
            },
            {
               "long_name" : "United States",
               "short_name" : "US",
               "types" : [ "country", "political" ]
            }
         ],
         "formatted_address" : "South Main, United States",
         "geometry" : {
            "location" : {
               "lat" : 34.21241,
               "lng" : -101.68962
            },
            "location_type" : "GEOMETRIC_CENTER",
            "viewport" : {
               "northeast" : {
                  "lat" : 34.21375898029149,
                  "lng" : -101.6882710197085
               },
               "southwest" : {
                  "lat" : 34.2110610197085,
                  "lng" : -101.6909689802915
               }
            }
         },
         "partial_match" : true,
         "types" : [ "route" ]
      },
      {
         "address_components" : [
            {
               "long_name" : "Main Road",
               "short_name" : "Main Rd",
               "types" : [ "route" ]
            },
            {
               "long_name" : "India",
               "short_name" : "IN",
               "types" : [ "country", "political" ]
            }
         ],
         "formatted_address" : "Main Road, India",
         "geometry" : {
            "bounds" : {
               "northeast" : {
                  "lat" : 12.9779362,
                  "lng" : 77.64532269999999
               },
               "southwest" : {
                  "lat" : 12.9775394,
                  "lng" : 77.63661569999999
               }
            },
            "location" : {
               "lat" : 12.9776509,
               "lng" : 77.64094589999999
            },
            "location_type" : "GEOMETRIC_CENTER",
            "viewport" : {
               "northeast" : {
                  "lat" : 12.9790867802915,
                  "lng" : 77.64532269999999
               },
               "southwest" : {
                  "lat" : 12.9763888197085,
                  "lng" : 77.63661569999999
               }
            }
         },
         "partial_match" : true,
         "types" : [ "route" ]
      },
      {
         "address_components" : [
            {
               "long_name" : "The Main Road",
               "short_name" : "The Main Rd",
               "types" : [ "route" ]
            },
            {
               "long_name" : "Lakshminarayana Pura",
               "short_name" : "Lakshminarayana Pura",
               "types" : [ "sublocality_level_3", "sublocality", "political" ]
            },
            {
               "long_name" : "AECS Layout",
               "short_name" : "AECS Layout",
               "types" : [ "sublocality_level_2", "sublocality", "political" ]
            },
            {
               "long_name" : "Marathahalli",
               "short_name" : "Marathahalli",
               "types" : [ "sublocality_level_1", "sublocality", "political" ]
            },
            {
               "long_name" : "Bengaluru",
               "short_name" : "Bengaluru",
               "types" : [ "locality", "political" ]
            },
            {
               "long_name" : "Bangalore Urban",
               "short_name" : "Bangalore Urban",
               "types" : [ "administrative_area_level_2", "political" ]
            },
            {
               "long_name" : "Karnataka",
               "short_name" : "KA",
               "types" : [ "administrative_area_level_1", "political" ]
            },
            {
               "long_name" : "India",
               "short_name" : "IN",
               "types" : [ "country", "political" ]
            },
            {
               "long_name" : "560037",
               "short_name" : "560037",
               "types" : [ "postal_code" ]
            }
         ],
         "formatted_address" : "The Main Road, Lakshminarayana Pura, AECS Layout, Marathahalli, Bengaluru, Karnataka 560037, India",
         "geometry" : {
            "bounds" : {
               "northeast" : {
                  "lat" : 12.9602109,
                  "lng" : 77.71375089999999
               },
               "southwest" : {
                  "lat" : 12.9600135,
                  "lng" : 77.71251869999999
               }
            },
            "location" : {
               "lat" : 12.9601193,
               "lng" : 77.7131656
            },
            "location_type" : "GEOMETRIC_CENTER",
            "viewport" : {
               "northeast" : {
                  "lat" : 12.9614611802915,
                  "lng" : 77.7144837802915
               },
               "southwest" : {
                  "lat" : 12.9587632197085,
                  "lng" : 77.7117858197085
               }
            }
         },
         "partial_match" : true,
         "types" : [ "route" ]
      },
      {
         "address_components" : [
            {
               "long_name" : "Main Street",
               "short_name" : "Main Street",
               "types" : [ "route" ]
            },
            {
               "long_name" : "Saint Julian's",
               "short_name" : "St Julian's",
               "types" : [ "locality", "political" ]
            },
            {
               "long_name" : "Malta",
               "short_name" : "MT",
               "types" : [ "country", "political" ]
            }
         ],
         "formatted_address" : "Main Street, Saint Julian's, Malta",
         "geometry" : {
            "bounds" : {
               "northeast" : {
                  "lat" : 35.918845,
                  "lng" : 14.4933241
               },
               "southwest" : {
                  "lat" : 35.9157256,
                  "lng" : 14.4901349
               }
            },
            "location" : {
               "lat" : 35.917563,
               "lng" : 14.4924075
            },
            "location_type" : "GEOMETRIC_CENTER",
            "viewport" : {
               "northeast" : {
                  "lat" : 35.918845,
                  "lng" : 14.4933241
               },
               "southwest" : {
                  "lat" : 35.9157256,
                  "lng" : 14.4901349
               }
            }
         },
         "partial_match" : true,
         "types" : [ "route" ]
      },
      {
         "address_components" : [
            {
               "long_name" : "Trq Il-Kbira",
               "short_name" : "Trq Il-Kbira",
               "types" : [ "route" ]
            },
            {
               "long_name" : "In-Naxxar",
               "short_name" : "In-Naxxar",
               "types" : [ "locality", "political" ]
            },
            {
               "long_name" : "Malta",
               "short_name" : "MT",
               "types" : [ "country", "political" ]
            }
         ],
         "formatted_address" : "Trq Il-Kbira, In-Naxxar, Malta",
         "geometry" : {
            "bounds" : {
               "northeast" : {
                  "lat" : 35.9136552,
                  "lng" : 14.4456971
               },
               "southwest" : {
                  "lat" : 35.9102566,
                  "lng" : 14.4446819
               }
            },
            "location" : {
               "lat" : 35.9120217,
               "lng" : 14.4451905
            },
            "location_type" : "GEOMETRIC_CENTER",
            "viewport" : {
               "northeast" : {
                  "lat" : 35.9136552,
                  "lng" : 14.4465384802915
               },
               "southwest" : {
                  "lat" : 35.9102566,
                  "lng" : 14.44384051970849
               }
            }
         },
         "partial_match" : true,
         "types" : [ "route" ]
      }
   ],
   "status" : "OK"
}
