{
   "results" : [
      {
         "address_components" : [
            {
               "long_name" : "Jayamahal Main Road",
               "short_name" : "Jayamahal Main Rd",
               "types" : [ "route" ]
            },
            {
               "long_name" : "Bengaluru",
               "short_name" : "Bengaluru",
               "types" : [ "locality", "political" ]
            },
            {
               "long_name" : "Bangalore Urban",
               "short_name" : "Bangalore Urban",
               "types" : [ "administrative_area_level_2", "political" ]
            },
            {
               "long_name" : "Karnataka",
               "short_name" : "KA",
               "types" : [ "administrative_area_level_1", "political" ]
            },
            {
               "long_name" : "India",
               "short_name" : "IN",
               "types" : [ "country", "political" ]
            }
         ],
         "formatted_address" : "Jayamahal Main Road, Bengaluru, Karnataka, India",
         "geometry" : {
            "bounds" : {
               "northeast" : {
                  "lat" : 13.0145412,
                  "lng" : 77.5918418
               },
               "southwest" : {
                  "lat" : 13.0081124,
                  "lng" : 77.5837588
               }
            },
            "location" : {
               "lat" : 13.0120993,
               "lng" : 77.58912480000001
            },
            "location_type" : "GEOMETRIC_CENTER",
            "viewport" : {
               "northeast" : {
                  "lat" : 13.0145412,
                  "lng" : 77.5918418
               },
               "southwest" : {
                  "lat" : 13.0081124,
                  "lng" : 77.5837588
               }
            }
         },
         "partial_match" : true,
         "types" : [ "route" ]
      },
      {
         "address_components" : [
            {
               "long_name" : "Palace Road",
               "short_name" : "Palace Rd",
               "types" : [ "route" ]
            },
            {
               "long_name" : "Jayamahal",
               "short_name" : "Jayamahal",
               "types" : [ "sublocality_level_1", "sublocality", "political" ]
            },
            {
               "long_name" : "Bengaluru",
               "short_name" : "Bengaluru",
               "types" : [ "locality", "political" ]
            },
            {
               "long_name" : "Bangalore Urban",
               "short_name" : "Bangalore Urban",
               "types" : [ "administrative_area_level_2", "political" ]
            },
            {
               "long_name" : "Karnataka",
               "short_name" : "KA",
               "types" : [ "administrative_area_level_1", "political" ]
            },
            {
               "long_name" : "India",
               "short_name" : "IN",
               "types" : [ "country", "political" ]
            }
         ],
         "formatted_address" : "Palace Road, Jayamahal, Bengaluru, Karnataka, India",
         "geometry" : {
            "bounds" : {
               "northeast" : {
                  "lat" : 12.9977754,
                  "lng" : 77.5876473
               },
               "southwest" : {
                  "lat" : 12.996638,
                  "lng" : 77.58460239999999
               }
            },
            "location" : {
               "lat" : 12.9975164,
               "lng" : 77.58628159999999
            },
            "location_type" : "GEOMETRIC_CENTER",
            "viewport" : {
               "northeast" : {
                  "lat" : 12.9985556802915,
                  "lng" : 77.5876473
               },
               "southwest" : {
                  "lat" : 12.9958577197085,
                  "lng" : 77.58460239999999
               }
            }
         },
         "partial_match" : true,
         "types" : [ "route" ]
      },
      {
         "address_components" : [
            {
               "long_name" : "Palace Grounds Inner Road",
               "short_name" : "Palace Grounds Inner Rd",
               "types" : [ "route" ]
            },
            {
               "long_name" : "Jayamahal",
               "short_name" : "Jayamahal",
               "types" : [ "sublocality_level_1", "sublocality", "political" ]
            },
            {
               "long_name" : "Bengaluru",
               "short_name" : "Bengaluru",
               "types" : [ "locality", "political" ]
            },
            {
               "long_name" : "Bangalore Urban",
               "short_name" : "Bangalore Urban",
               "types" : [ "administrative_area_level_2", "political" ]
            },
            {
               "long_name" : "Karnataka",
               "short_name" : "KA",
               "types" : [ "administrative_area_level_1", "political" ]
            },
            {
               "long_name" : "India",
               "short_name" : "IN",
               "types" : [ "country", "political" ]
            },
            {
               "long_name" : "560006",
               "short_name" : "560006",
               "types" : [ "postal_code" ]
            }
         ],
         "formatted_address" : "Palace Grounds Inner Road, Jayamahal, Bengaluru, Karnataka 560006, India",
         "geometry" : {
            "bounds" : {
               "northeast" : {
                  "lat" : 13.0112395,
                  "lng" : 77.5933215
               },
               "southwest" : {
                  "lat" : 12.9971062,
                  "lng" : 77.58931659999999
               }
            },
            "location" : {
               "lat" : 13.0042421,
               "lng" : 77.5910591
            },
            "location_type" : "GEOMETRIC_CENTER",
            "viewport" : {
               "northeast" : {
                  "lat" : 13.0112395,
                  "lng" : 77.5933215
               },
               "southwest" : {
                  "lat" : 12.9971062,
                  "lng" : 77.58931659999999
               }
            }
         },
         "partial_match" : true,
         "types" : [ "route" ]
      }
   ],
   "status" : "OK"
}
