{
   "results" : [
      {
         "address_components" : [
            {
               "long_name" : "MS Ramaiah Road",
               "short_name" : "MS Ramaiah Rd",
               "types" : [ "route" ]
            },
            {
               "long_name" : "Bengaluru",
               "short_name" : "Bengaluru",
               "types" : [ "locality", "political" ]
            },
            {
               "long_name" : "Bangalore Urban",
               "short_name" : "Bangalore Urban",
               "types" : [ "administrative_area_level_2", "political" ]
            },
            {
               "long_name" : "Karnataka",
               "short_name" : "KA",
               "types" : [ "administrative_area_level_1", "political" ]
            },
            {
               "long_name" : "India",
               "short_name" : "IN",
               "types" : [ "country", "political" ]
            }
         ],
         "formatted_address" : "MS Ramaiah Road, Bengaluru, Karnataka, India",
         "geometry" : {
            "bounds" : {
               "northeast" : {
                  "lat" : 13.04544,
                  "lng" : 77.563338
               },
               "southwest" : {
                  "lat" : 13.0170719,
                  "lng" : 77.5541934
               }
            },
            "location" : {
               "lat" : 13.0317998,
               "lng" : 77.55936749999999
            },
            "location_type" : "GEOMETRIC_CENTER",
            "viewport" : {
               "northeast" : {
                  "lat" : 13.04544,
                  "lng" : 77.563338
               },
               "southwest" : {
                  "lat" : 13.0170719,
                  "lng" : 77.5541934
               }
            }
         },
         "partial_match" : true,
         "types" : [ "route" ]
      },
      {
         "address_components" : [
            {
               "long_name" : "M S Ramaiah Building",
               "short_name" : "M S Ramaiah Building",
               "types" : [ "premise" ]
            },
            {
               "long_name" : "Kumbaragundi Road",
               "short_name" : "Kumbaragundi Rd",
               "types" : [ "route" ]
            },
            {
               "long_name" : "Kumbaragundi",
               "short_name" : "Kumbaragundi",
               "types" : [ "sublocality_level_2", "sublocality", "political" ]
            },
            {
               "long_name" : "Kalasipalayam",
               "short_name" : "Kalasipalayam",
               "types" : [ "sublocality_level_1", "sublocality", "political" ]
            },
            {
               "long_name" : "Bengaluru",
               "short_name" : "Bengaluru",
               "types" : [ "locality", "political" ]
            },
            {
               "long_name" : "Bangalore Urban",
               "short_name" : "Bangalore Urban",
               "types" : [ "administrative_area_level_2", "political" ]
            },
            {
               "long_name" : "Karnataka",
               "short_name" : "KA",
               "types" : [ "administrative_area_level_1", "political" ]
            },
            {
               "long_name" : "India",
               "short_name" : "IN",
               "types" : [ "country", "political" ]
            },
            {
               "long_name" : "560002",
               "short_name" : "560002",
               "types" : [ "postal_code" ]
            }
         ],
         "formatted_address" : "M S Ramaiah Building, Kumbaragundi Road, Kumbaragundi, Kalasipalayam, Bengaluru, Karnataka 560002, India",
         "geometry" : {
            "bounds" : {
               "northeast" : {
                  "lat" : 12.9615633,
                  "lng" : 77.58344169999999
               },
               "southwest" : {
                  "lat" : 12.9613634,
                  "lng" : 77.5831372
               }
            },
            "location" : {
               "lat" : 12.9614633,
               "lng" : 77.5832894
            },
            "location_type" : "ROOFTOP",
            "viewport" : {
               "northeast" : {
                  "lat" : 12.9628123302915,
                  "lng" : 77.58463843029151
               },
               "southwest" : {
                  "lat" : 12.9601143697085,
                  "lng" : 77.5819404697085
               }
            }
         },
         "partial_match" : true,
         "types" : [ "premise" ]
      },
      {
         "address_components" : [
            {
               "long_name" : "M S Ramaiah Nagar",
               "short_name" : "M S Ramaiah Nagar",
               "types" : [ "sublocality_level_2", "sublocality", "political" ]
            },
            {
               "long_name" : "Mathikere",
               "short_name" : "Mathikere",
               "types" : [ "sublocality_level_1", "sublocality", "political" ]
            },
            {
               "long_name" : "Bengaluru",
               "short_name" : "Bengaluru",
               "types" : [ "locality", "political" ]
            },
            {
               "long_name" : "Bangalore Urban",
               "short_name" : "Bangalore Urban",
               "types" : [ "administrative_area_level_2", "political" ]
            },
            {
               "long_name" : "Karnataka",
               "short_name" : "KA",
               "types" : [ "administrative_area_level_1", "political" ]
            },
            {
               "long_name" : "India",
               "short_name" : "IN",
               "types" : [ "country", "political" ]
            }
         ],
         "formatted_address" : "M S Ramaiah Nagar, Mathikere, Bengaluru, Karnataka, India",
         "geometry" : {
            "bounds" : {
               "northeast" : {
                  "lat" : 13.035632,
                  "lng" : 77.571326
               },
               "southwest" : {
                  "lat" : 13.028188,
                  "lng" : 77.5631209
               }
            },
            "location" : {
               "lat" : 13.0314935,
               "lng" : 77.5655242
            },
            "location_type" : "APPROXIMATE",
            "viewport" : {
               "northeast" : {
                  "lat" : 13.035632,
                  "lng" : 77.571326
               },
               "southwest" : {
                  "lat" : 13.028188,
                  "lng" : 77.5631209
               }
            }
         },
         "partial_match" : true,
         "types" : [ "sublocality_level_2", "sublocality", "political" ]
      },
      {
         "address_components" : [
            {
               "long_name" : "MS Ramaiah North City Road",
               "short_name" : "MS Ramaiah North City Rd",
               "types" : [ "route" ]
            },
            {
               "long_name" : "MS Ramaiah North City",
               "short_name" : "MS Ramaiah North City",
               "types" : [ "sublocality_level_3", "sublocality", "political" ]
            },
            {
               "long_name" : "Manayata Tech Park",
               "short_name" : "Manayata Tech Park",
               "types" : [ "sublocality_level_2", "sublocality", "political" ]
            },
            {
               "long_name" : "HBR Layout",
               "short_name" : "HBR Layout",
               "types" : [ "sublocality_level_1", "sublocality", "political" ]
            },
            {
               "long_name" : "Bengaluru",
               "short_name" : "Bengaluru",
               "types" : [ "locality", "political" ]
            },
            {
               "long_name" : "Bangalore Urban",
               "short_name" : "Bangalore Urban",
               "types" : [ "administrative_area_level_2", "political" ]
            },
            {
               "long_name" : "Karnataka",
               "short_name" : "KA",
               "types" : [ "administrative_area_level_1", "political" ]
            },
            {
               "long_name" : "India",
               "short_name" : "IN",
               "types" : [ "country", "political" ]
            },
            {
               "long_name" : "560045",
               "short_name" : "560045",
               "types" : [ "postal_code" ]
            }
         ],
         "formatted_address" : "MS Ramaiah North City Road, MS Ramaiah North City, Manayata Tech Park, HBR Layout, Bengaluru, Karnataka 560045, India",
         "geometry" : {
            "bounds" : {
               "northeast" : {
                  "lat" : 13.0459595,
                  "lng" : 77.62734259999999
               },
               "southwest" : {
                  "lat" : 13.0453365,
                  "lng" : 77.62650900000001
               }
            },
            "location" : {
               "lat" : 13.0458718,
               "lng" : 77.6266912
            },
            "location_type" : "GEOMETRIC_CENTER",
            "viewport" : {
               "northeast" : {
                  "lat" : 13.0469969802915,
                  "lng" : 77.62827478029151
               },
               "southwest" : {
                  "lat" : 13.0442990197085,
                  "lng" : 77.6255768197085
               }
            }
         },
         "partial_match" : true,
         "types" : [ "route" ]
      }
   ],
   "status" : "OK"
}
