{
   "results" : [
      {
         "address_components" : [
            {
               "long_name" : "Rajajinagar",
               "short_name" : "Rajajinagar",
               "types" : [ "sublocality_level_1", "sublocality", "political" ]
            },
            {
               "long_name" : "Bengaluru",
               "short_name" : "Bengaluru",
               "types" : [ "locality", "political" ]
            },
            {
               "long_name" : "Bangalore Urban",
               "short_name" : "Bangalore Urban",
               "types" : [ "administrative_area_level_2", "political" ]
            },
            {
               "long_name" : "Karnataka",
               "short_name" : "KA",
               "types" : [ "administrative_area_level_1", "political" ]
            },
            {
               "long_name" : "India",
               "short_name" : "IN",
               "types" : [ "country", "political" ]
            }
         ],
         "formatted_address" : "Rajajinagar, Bengaluru, Karnataka, India",
         "geometry" : {
            "bounds" : {
               "northeast" : {
                  "lat" : 13.015688,
                  "lng" : 77.56613999999999
               },
               "southwest" : {
                  "lat" : 12.97372,
                  "lng" : 77.5367409
               }
            },
            "location" : {
               "lat" : 12.9900578,
               "lng" : 77.5524925
            },
            "location_type" : "APPROXIMATE",
            "viewport" : {
               "northeast" : {
                  "lat" : 13.015688,
                  "lng" : 77.56613999999999
               },
               "southwest" : {
                  "lat" : 12.97372,
                  "lng" : 77.5367409
               }
            }
         },
         "types" : [ "sublocality_level_1", "sublocality", "political" ]
      },
      {
         "address_components" : [
            {
               "long_name" : "Rajaji Nagar",
               "short_name" : "Rajaji Nagar",
               "types" : [ "sublocality_level_2", "sublocality", "political" ]
            },
            {
               "long_name" : "Villivakkam",
               "short_name" : "Villivakkam",
               "types" : [ "sublocality_level_1", "sublocality", "political" ]
            },
            {
               "long_name" : "Chennai",
               "short_name" : "Chennai",
               "types" : [ "locality", "political" ]
            },
            {
               "long_name" : "Chennai",
               "short_name" : "Chennai",
               "types" : [ "administrative_area_level_2", "political" ]
            },
            {
               "long_name" : "Tamil Nadu",
               "short_name" : "TN",
               "types" : [ "administrative_area_level_1", "political" ]
            },
            {
               "long_name" : "India",
               "short_name" : "IN",
               "types" : [ "country", "political" ]
            }
         ],
         "formatted_address" : "Rajaji Nagar, Villivakkam, Chennai, Tamil Nadu, India",
         "geometry" : {
            "bounds" : {
               "northeast" : {
                  "lat" : 13.113471,
                  "lng" : 80.21281619999999
               },
               "southwest" : {
                  "lat" : 13.1099876,
                  "lng" : 80.20668689999999
               }
            },
            "location" : {
               "lat" : 13.1122677,
               "lng" : 80.2087265
            },
            "location_type" : "APPROXIMATE",
            "viewport" : {
               "northeast" : {
                  "lat" : 13.113471,
                  "lng" : 80.21281619999999
               },
               "southwest" : {
                  "lat" : 13.1099876,
                  "lng" : 80.20668689999999
               }
            }
         },
         "types" : [ "sublocality_level_2", "sublocality", "political" ]
      },
      {
         "address_components" : [
            {
               "long_name" : "Rajaji Nagar",
               "short_name" : "Rajaji Nagar",
               "types" : [ "sublocality_level_2", "sublocality", "political" ]
            },
            {
               "long_name" : "Pallavaram",
               "short_name" : "Pallavaram",
               "types" : [ "sublocality_level_1", "sublocality", "political" ]
            },
            {
               "long_name" : "Chennai",
               "short_name" : "Chennai",
               "types" : [ "locality", "political" ]
            },
            {
               "long_name" : "Kanchipuram",
               "short_name" : "Kanchipuram",
               "types" : [ "administrative_area_level_2", "political" ]
            },
            {
               "long_name" : "Tamil Nadu",
               "short_name" : "TN",
               "types" : [ "administrative_area_level_1", "political" ]
            },
            {
               "long_name" : "India",
               "short_name" : "IN",
               "types" : [ "country", "political" ]
            },
            {
               "long_name" : "600043",
               "short_name" : "600043",
               "types" : [ "postal_code" ]
            }
         ],
         "formatted_address" : "Rajaji Nagar, Pallavaram, Chennai, Tamil Nadu 600043, India",
         "geometry" : {
            "bounds" : {
               "northeast" : {
                  "lat" : 12.9675125,
                  "lng" : 80.15531039999999
               },
               "southwest" : {
                  "lat" : 12.9635343,
                  "lng" : 80.1506069
               }
            },
            "location" : {
               "lat" : 12.9659637,
               "lng" : 80.15332490000002
            },
            "location_type" : "APPROXIMATE",
            "viewport" : {
               "northeast" : {
                  "lat" : 12.9675125,
                  "lng" : 80.15531039999999
               },
               "southwest" : {
                  "lat" : 12.9635343,
                  "lng" : 80.1506069
               }
            }
         },
         "types" : [ "sublocality_level_2", "sublocality", "political" ]
      },
      {
         "address_components" : [
            {
               "long_name" : "Rajaji Nagar",
               "short_name" : "Rajaji Nagar",
               "types" : [ "sublocality_level_2", "sublocality", "political" ]
            },
            {
               "long_name" : "Thiruvanmiyur",
               "short_name" : "Thiruvanmiyur",
               "types" : [ "sublocality_level_1", "sublocality", "political" ]
            },
            {
               "long_name" : "Chennai",
               "short_name" : "Chennai",
               "types" : [ "locality", "political" ]
            },
            {
               "long_name" : "Chennai",
               "short_name" : "Chennai",
               "types" : [ "administrative_area_level_2", "political" ]
            },
            {
               "long_name" : "Tamil Nadu",
               "short_name" : "TN",
               "types" : [ "administrative_area_level_1", "political" ]
            },
            {
               "long_name" : "India",
               "short_name" : "IN",
               "types" : [ "country", "political" ]
            },
            {
               "long_name" : "600041",
               "short_name" : "600041",
               "types" : [ "postal_code" ]
            }
         ],
         "formatted_address" : "Rajaji Nagar, Thiruvanmiyur, Chennai, Tamil Nadu 600041, India",
         "geometry" : {
            "bounds" : {
               "northeast" : {
                  "lat" : 12.981156,
                  "lng" : 80.25938699999999
               },
               "southwest" : {
                  "lat" : 12.978515,
                  "lng" : 80.2564931
               }
            },
            "location" : {
               "lat" : 12.9798732,
               "lng" : 80.25791939999999
            },
            "location_type" : "APPROXIMATE",
            "viewport" : {
               "northeast" : {
                  "lat" : 12.9811844802915,
                  "lng" : 80.25938699999999
               },
               "southwest" : {
                  "lat" : 12.9784865197085,
                  "lng" : 80.2564931
               }
            }
         },
         "types" : [ "sublocality_level_2", "sublocality", "political" ]
      },
      {
         "address_components" : [
            {
               "long_name" : "Rajaji Nagar",
               "short_name" : "Rajaji Nagar",
               "types" : [ "sublocality_level_2", "sublocality", "political" ]
            },
            {
               "long_name" : "Madipakkam",
               "short_name" : "Madipakkam",
               "types" : [ "sublocality_level_1", "sublocality", "political" ]
            },
            {
               "long_name" : "Chennai",
               "short_name" : "Chennai",
               "types" : [ "locality", "political" ]
            },
            {
               "long_name" : "Kanchipuram",
               "short_name" : "Kanchipuram",
               "types" : [ "administrative_area_level_2", "political" ]
            },
            {
               "long_name" : "Tamil Nadu",
               "short_name" : "TN",
               "types" : [ "administrative_area_level_1", "political" ]
            },
            {
               "long_name" : "India",
               "short_name" : "IN",
               "types" : [ "country", "political" ]
            },
            {
               "long_name" : "600091",
               "short_name" : "600091",
               "types" : [ "postal_code" ]
            }
         ],
         "formatted_address" : "Rajaji Nagar, Madipakkam, Chennai, Tamil Nadu 600091, India",
         "geometry" : {
            "bounds" : {
               "northeast" : {
                  "lat" : 12.9612379,
                  "lng" : 80.20616629999999
               },
               "southwest" : {
                  "lat" : 12.959839,
                  "lng" : 80.20304209999999
               }
            },
            "location" : {
               "lat" : 12.9603792,
               "lng" : 80.2047199
            },
            "location_type" : "APPROXIMATE",
            "viewport" : {
               "northeast" : {
                  "lat" : 12.9618874302915,
                  "lng" : 80.20616629999999
               },
               "southwest" : {
                  "lat" : 12.9591894697085,
                  "lng" : 80.20304209999999
               }
            }
         },
         "types" : [ "sublocality_level_2", "sublocality", "political" ]
      },
      {
         "address_components" : [
            {
               "long_name" : "Rajaji Nagar",
               "short_name" : "Rajaji Nagar",
               "types" : [ "sublocality_level_2", "sublocality", "political" ]
            },
            {
               "long_name" : "Gokul Nagar",
               "short_name" : "Gokul Nagar",
               "types" : [ "sublocality_level_1", "sublocality", "political" ]
            },
            {
               "long_name" : "Hanamkonda",
               "short_name" : "HNK",
               "types" : [ "locality", "political" ]
            },
            {
               "long_name" : "Warangal",
               "short_name" : "Warangal",
               "types" : [ "administrative_area_level_2", "political" ]
            },
            {
               "long_name" : "Telangana",
               "short_name" : "Telangana",
               "types" : [ "administrative_area_level_1", "political" ]
            },
            {
               "long_name" : "India",
               "short_name" : "IN",
               "types" : [ "country", "political" ]
            }
         ],
         "formatted_address" : "Rajaji Nagar, Gokul Nagar, Hanamkonda, Telangana, India",
         "geometry" : {
            "bounds" : {
               "northeast" : {
                  "lat" : 18.0147101,
                  "lng" : 79.557198
               },
               "southwest" : {
                  "lat" : 18.01066,
                  "lng" : 79.548946
               }
            },
            "location" : {
               "lat" : 18.0131359,
               "lng" : 79.5529682
            },
            "location_type" : "APPROXIMATE",
            "viewport" : {
               "northeast" : {
                  "lat" : 18.0147101,
                  "lng" : 79.557198
               },
               "southwest" : {
                  "lat" : 18.01066,
                  "lng" : 79.548946
               }
            }
         },
         "types" : [ "sublocality_level_2", "sublocality", "political" ]
      }
   ],
   "status" : "OK"
}
