{
   "results" : [
      {
         "address_components" : [
            {
               "long_name" : "TownHall Road",
               "short_name" : "TownHall Rd",
               "types" : [ "route" ]
            },
            {
               "long_name" : "Mananchira",
               "short_name" : "Mananchira",
               "types" : [ "sublocality_level_1", "sublocality", "political" ]
            },
            {
               "long_name" : "Kozhikode",
               "short_name" : "Kozhikode",
               "types" : [ "locality", "political" ]
            },
            {
               "long_name" : "Kozhikode",
               "short_name" : "Kozhikode",
               "types" : [ "administrative_area_level_2", "political" ]
            },
            {
               "long_name" : "Kerala",
               "short_name" : "KL",
               "types" : [ "administrative_area_level_1", "political" ]
            },
            {
               "long_name" : "India",
               "short_name" : "IN",
               "types" : [ "country", "political" ]
            },
            {
               "long_name" : "673001",
               "short_name" : "673001",
               "types" : [ "postal_code" ]
            }
         ],
         "formatted_address" : "TownHall Road, Mananchira, Kozhikode, Kerala 673001, India",
         "geometry" : {
            "bounds" : {
               "northeast" : {
                  "lat" : 11.2555739,
                  "lng" : 75.7793988
               },
               "southwest" : {
                  "lat" : 11.2536961,
                  "lng" : 75.7789774
               }
            },
            "location" : {
               "lat" : 11.254774,
               "lng" : 75.7793111
            },
            "location_type" : "GEOMETRIC_CENTER",
            "viewport" : {
               "northeast" : {
                  "lat" : 11.2559839802915,
                  "lng" : 75.78053708029151
               },
               "southwest" : {
                  "lat" : 11.2532860197085,
                  "lng" : 75.77783911970849
               }
            }
         },
         "partial_match" : true,
         "types" : [ "route" ]
      },
      {
         "address_components" : [
            {
               "long_name" : "Town Hall Circle",
               "short_name" : "Town Hall Cir",
               "types" : [ "route" ]
            },
            {
               "long_name" : "Jamnagar",
               "short_name" : "Jamnagar",
               "types" : [ "locality", "political" ]
            },
            {
               "long_name" : "Jamnagar",
               "short_name" : "Jamnagar",
               "types" : [ "administrative_area_level_2", "political" ]
            },
            {
               "long_name" : "Gujarat",
               "short_name" : "GJ",
               "types" : [ "administrative_area_level_1", "political" ]
            },
            {
               "long_name" : "India",
               "short_name" : "IN",
               "types" : [ "country", "political" ]
            },
            {
               "long_name" : "361001",
               "short_name" : "361001",
               "types" : [ "postal_code" ]
            }
         ],
         "formatted_address" : "Town Hall Circle, Jamnagar, Gujarat 361001, India",
         "geometry" : {
            "bounds" : {
               "northeast" : {
                  "lat" : 22.469995,
                  "lng" : 70.0711101
               },
               "southwest" : {
                  "lat" : 22.4688872,
                  "lng" : 70.0699125
               }
            },
            "location" : {
               "lat" : 22.4690793,
               "lng" : 70.07083399999999
            },
            "location_type" : "GEOMETRIC_CENTER",
            "viewport" : {
               "northeast" : {
                  "lat" : 22.4707900802915,
                  "lng" : 70.0718602802915
               },
               "southwest" : {
                  "lat" : 22.46809211970849,
                  "lng" : 70.0691623197085
               }
            }
         },
         "partial_match" : true,
         "types" : [ "route" ]
      },
      {
         "address_components" : [
            {
               "long_name" : "Townhall Road",
               "short_name" : "Townhall Road",
               "types" : [ "route" ]
            },
            {
               "long_name" : "Mandapeta",
               "short_name" : "Mandapeta",
               "types" : [ "locality", "political" ]
            },
            {
               "long_name" : "East Godavari",
               "short_name" : "East Godavari",
               "types" : [ "administrative_area_level_2", "political" ]
            },
            {
               "long_name" : "Andhra Pradesh",
               "short_name" : "AP",
               "types" : [ "administrative_area_level_1", "political" ]
            },
            {
               "long_name" : "India",
               "short_name" : "IN",
               "types" : [ "country", "political" ]
            },
            {
               "long_name" : "533308",
               "short_name" : "533308",
               "types" : [ "postal_code" ]
            }
         ],
         "formatted_address" : "Townhall Road, Mandapeta, Andhra Pradesh 533308, India",
         "geometry" : {
            "bounds" : {
               "northeast" : {
                  "lat" : 16.8694509,
                  "lng" : 81.92630199999999
               },
               "southwest" : {
                  "lat" : 16.8626533,
                  "lng" : 81.91625119999999
               }
            },
            "location" : {
               "lat" : 16.8652619,
               "lng" : 81.9203818
            },
            "location_type" : "GEOMETRIC_CENTER",
            "viewport" : {
               "northeast" : {
                  "lat" : 16.8694509,
                  "lng" : 81.92630199999999
               },
               "southwest" : {
                  "lat" : 16.8626533,
                  "lng" : 81.91625119999999
               }
            }
         },
         "partial_match" : true,
         "types" : [ "route" ]
      },
      {
         "address_components" : [
            {
               "long_name" : "Townhall Road",
               "short_name" : "Townhall Road",
               "types" : [ "route" ]
            },
            {
               "long_name" : "Mehman Mohalla",
               "short_name" : "Mehman Mohalla",
               "types" : [ "sublocality_level_1", "sublocality", "political" ]
            },
            {
               "long_name" : "Anantnag",
               "short_name" : "Anantnag",
               "types" : [ "locality", "political" ]
            },
            {
               "long_name" : "Anantnag",
               "short_name" : "Anantnag",
               "types" : [ "administrative_area_level_2", "political" ]
            },
            {
               "long_name" : "192101",
               "short_name" : "192101",
               "types" : [ "postal_code" ]
            }
         ],
         "formatted_address" : "Townhall Road, Anantnag 192101",
         "geometry" : {
            "bounds" : {
               "northeast" : {
                  "lat" : 33.7334587,
                  "lng" : 75.1497687
               },
               "southwest" : {
                  "lat" : 33.7312267,
                  "lng" : 75.14845029999999
               }
            },
            "location" : {
               "lat" : 33.7324325,
               "lng" : 75.149227
            },
            "location_type" : "GEOMETRIC_CENTER",
            "viewport" : {
               "northeast" : {
                  "lat" : 33.7336916802915,
                  "lng" : 75.15045848029149
               },
               "southwest" : {
                  "lat" : 33.7309937197085,
                  "lng" : 75.14776051970848
               }
            }
         },
         "partial_match" : true,
         "types" : [ "route" ]
      },
      {
         "address_components" : [
            {
               "long_name" : "Town Hall Circle",
               "short_name" : "Town Hall Cir",
               "types" : [ "route" ]
            },
            {
               "long_name" : "Fleming Island",
               "short_name" : "Fleming Island",
               "types" : [ "locality", "political" ]
            },
            {
               "long_name" : "Clay County",
               "short_name" : "Clay County",
               "types" : [ "administrative_area_level_2", "political" ]
            },
            {
               "long_name" : "Florida",
               "short_name" : "FL",
               "types" : [ "administrative_area_level_1", "political" ]
            },
            {
               "long_name" : "United States",
               "short_name" : "US",
               "types" : [ "country", "political" ]
            },
            {
               "long_name" : "32003",
               "short_name" : "32003",
               "types" : [ "postal_code" ]
            }
         ],
         "formatted_address" : "Town Hall Circle, Fleming Island, FL 32003, USA",
         "geometry" : {
            "bounds" : {
               "northeast" : {
                  "lat" : 30.0851485,
                  "lng" : -81.71430339999999
               },
               "southwest" : {
                  "lat" : 30.0847565,
                  "lng" : -81.7145347
               }
            },
            "location" : {
               "lat" : 30.0849556,
               "lng" : -81.71442039999999
            },
            "location_type" : "GEOMETRIC_CENTER",
            "viewport" : {
               "northeast" : {
                  "lat" : 30.0863014802915,
                  "lng" : -81.71307006970849
               },
               "southwest" : {
                  "lat" : 30.0836035197085,
                  "lng" : -81.7157680302915
               }
            }
         },
         "partial_match" : true,
         "types" : [ "route" ]
      },
      {
         "address_components" : [
            {
               "long_name" : "Circle West",
               "short_name" : "Circle W",
               "types" : [ "route" ]
            },
            {
               "long_name" : "Brentwood North and South",
               "short_name" : "Brentwood North and South",
               "types" : [ "neighborhood", "political" ]
            },
            {
               "long_name" : "Jupiter",
               "short_name" : "Jupiter",
               "types" : [ "locality", "political" ]
            },
            {
               "long_name" : "Palm Beach County",
               "short_name" : "Palm Beach County",
               "types" : [ "administrative_area_level_2", "political" ]
            },
            {
               "long_name" : "Florida",
               "short_name" : "FL",
               "types" : [ "administrative_area_level_1", "political" ]
            },
            {
               "long_name" : "United States",
               "short_name" : "US",
               "types" : [ "country", "political" ]
            },
            {
               "long_name" : "33458",
               "short_name" : "33458",
               "types" : [ "postal_code" ]
            }
         ],
         "formatted_address" : "Circle West, Jupiter, FL 33458, USA",
         "geometry" : {
            "bounds" : {
               "northeast" : {
                  "lat" : 26.9326233,
                  "lng" : -80.10699500000001
               },
               "southwest" : {
                  "lat" : 26.9288465,
                  "lng" : -80.107674
               }
            },
            "location" : {
               "lat" : 26.9288465,
               "lng" : -80.1073773
            },
            "location_type" : "GEOMETRIC_CENTER",
            "viewport" : {
               "northeast" : {
                  "lat" : 26.9326233,
                  "lng" : -80.10598551970851
               },
               "southwest" : {
                  "lat" : 26.9288465,
                  "lng" : -80.10868348029152
               }
            }
         },
         "partial_match" : true,
         "types" : [ "route" ]
      },
      {
         "address_components" : [
            {
               "long_name" : "Circle East",
               "short_name" : "Circle E",
               "types" : [ "route" ]
            },
            {
               "long_name" : "Brentwood North and South",
               "short_name" : "Brentwood North and South",
               "types" : [ "neighborhood", "political" ]
            },
            {
               "long_name" : "Jupiter",
               "short_name" : "Jupiter",
               "types" : [ "locality", "political" ]
            },
            {
               "long_name" : "Palm Beach County",
               "short_name" : "Palm Beach County",
               "types" : [ "administrative_area_level_2", "political" ]
            },
            {
               "long_name" : "Florida",
               "short_name" : "FL",
               "types" : [ "administrative_area_level_1", "political" ]
            },
            {
               "long_name" : "United States",
               "short_name" : "US",
               "types" : [ "country", "political" ]
            },
            {
               "long_name" : "33458",
               "short_name" : "33458",
               "types" : [ "postal_code" ]
            }
         ],
         "formatted_address" : "Circle East, Jupiter, FL 33458, USA",
         "geometry" : {
            "bounds" : {
               "northeast" : {
                  "lat" : 26.9326125,
                  "lng" : -80.106076
               },
               "southwest" : {
                  "lat" : 26.928909,
                  "lng" : -80.10674999999999
               }
            },
            "location" : {
               "lat" : 26.9311373,
               "lng" : -80.1063961
            },
            "location_type" : "GEOMETRIC_CENTER",
            "viewport" : {
               "northeast" : {
                  "lat" : 26.9326125,
                  "lng" : -80.10506401970849
               },
               "southwest" : {
                  "lat" : 26.928909,
                  "lng" : -80.1077619802915
               }
            }
         },
         "partial_match" : true,
         "types" : [ "route" ]
      },
      {
         "address_components" : [
            {
               "long_name" : "Town Hall Lane",
               "short_name" : "Town Hall Ln",
               "types" : [ "route" ]
            },
            {
               "long_name" : "Westby",
               "short_name" : "Westby",
               "types" : [ "locality", "political" ]
            },
            {
               "long_name" : "Vernon County",
               "short_name" : "Vernon County",
               "types" : [ "administrative_area_level_2", "political" ]
            },
            {
               "long_name" : "Wisconsin",
               "short_name" : "WI",
               "types" : [ "administrative_area_level_1", "political" ]
            },
            {
               "long_name" : "United States",
               "short_name" : "US",
               "types" : [ "country", "political" ]
            },
            {
               "long_name" : "54667",
               "short_name" : "54667",
               "types" : [ "postal_code" ]
            }
         ],
         "formatted_address" : "Town Hall Lane, Westby, WI 54667, USA",
         "geometry" : {
            "bounds" : {
               "northeast" : {
                  "lat" : 43.6679658,
                  "lng" : -90.910482
               },
               "southwest" : {
                  "lat" : 43.6572452,
                  "lng" : -90.9467681
               }
            },
            "location" : {
               "lat" : 43.6619142,
               "lng" : -90.9287468
            },
            "location_type" : "GEOMETRIC_CENTER",
            "viewport" : {
               "northeast" : {
                  "lat" : 43.6679658,
                  "lng" : -90.910482
               },
               "southwest" : {
                  "lat" : 43.6572452,
                  "lng" : -90.9467681
               }
            }
         },
         "partial_match" : true,
         "types" : [ "route" ]
      },
      {
         "address_components" : [
            {
               "long_name" : "Town Hall Circle",
               "short_name" : "Town Hall Circle",
               "types" : [ "point_of_interest", "establishment" ]
            },
            {
               "long_name" : "Jayachamaraja Wodeyar Road",
               "short_name" : "JC Road",
               "types" : [ "route" ]
            },
            {
               "long_name" : "Kalasipalam New Exte",
               "short_name" : "Kalasipalam New Exte",
               "types" : [ "neighborhood", "political" ]
            },
            {
               "long_name" : "Sampangi Rama Nagar",
               "short_name" : "S R Nagar",
               "types" : [ "sublocality_level_1", "sublocality", "political" ]
            },
            {
               "long_name" : "Bengaluru",
               "short_name" : "Bengaluru",
               "types" : [ "locality", "political" ]
            },
            {
               "long_name" : "Bangalore",
               "short_name" : "Bangalore",
               "types" : [ "administrative_area_level_2", "political" ]
            },
            {
               "long_name" : "Karnataka",
               "short_name" : "KA",
               "types" : [ "administrative_area_level_1", "political" ]
            },
            {
               "long_name" : "India",
               "short_name" : "IN",
               "types" : [ "country", "political" ]
            },
            {
               "long_name" : "560002",
               "short_name" : "560002",
               "types" : [ "postal_code" ]
            }
         ],
         "formatted_address" : "Town Hall Circle, Jayachamaraja Wodeyar Road, Kalasipalam New Exte, Sampangi Rama Nagar, Bengaluru, Karnataka 560002, India",
         "geometry" : {
            "location" : {
               "lat" : 12.9637391,
               "lng" : 77.5852481
            },
            "location_type" : "APPROXIMATE",
            "viewport" : {
               "northeast" : {
                  "lat" : 12.9650880802915,
                  "lng" : 77.58659708029151
               },
               "southwest" : {
                  "lat" : 12.9623901197085,
                  "lng" : 77.58389911970851
               }
            }
         },
         "partial_match" : true,
         "types" : [ "point_of_interest", "establishment" ]
      },
      {
         "address_components" : [
            {
               "long_name" : "Town Hall Park",
               "short_name" : "Town Hall Park",
               "types" : [ "point_of_interest", "establishment" ]
            },
            {
               "long_name" : "Stuart Hill",
               "short_name" : "Stuart Hill",
               "types" : [ "sublocality_level_1", "sublocality", "political" ]
            },
            {
               "long_name" : "Madikeri",
               "short_name" : "Madikeri",
               "types" : [ "locality", "political" ]
            },
            {
               "long_name" : "Kodagu",
               "short_name" : "Kodagu",
               "types" : [ "administrative_area_level_2", "political" ]
            },
            {
               "long_name" : "Karnataka",
               "short_name" : "KA",
               "types" : [ "administrative_area_level_1", "political" ]
            },
            {
               "long_name" : "India",
               "short_name" : "IN",
               "types" : [ "country", "political" ]
            },
            {
               "long_name" : "571201",
               "short_name" : "571201",
               "types" : [ "postal_code" ]
            }
         ],
         "formatted_address" : "Town Hall Park, Stuart Hill, Madikeri, Karnataka 571201, India",
         "geometry" : {
            "location" : {
               "lat" : 12.41884,
               "lng" : 75.73972999999999
            },
            "location_type" : "APPROXIMATE",
            "viewport" : {
               "northeast" : {
                  "lat" : 12.4201889802915,
                  "lng" : 75.7410789802915
               },
               "southwest" : {
                  "lat" : 12.4174910197085,
                  "lng" : 75.7383810197085
               }
            }
         },
         "partial_match" : true,
         "types" : [ "point_of_interest", "establishment" ]
      },
      {
         "address_components" : [
            {
               "long_name" : "Town Hall Lane",
               "short_name" : "Town Hall Ln",
               "types" : [ "route" ]
            },
            {
               "long_name" : "Cuba City",
               "short_name" : "Cuba City",
               "types" : [ "locality", "political" ]
            },
            {
               "long_name" : "Grant County",
               "short_name" : "Grant County",
               "types" : [ "administrative_area_level_2", "political" ]
            },
            {
               "long_name" : "Wisconsin",
               "short_name" : "WI",
               "types" : [ "administrative_area_level_1", "political" ]
            },
            {
               "long_name" : "United States",
               "short_name" : "US",
               "types" : [ "country", "political" ]
            },
            {
               "long_name" : "53807",
               "short_name" : "53807",
               "types" : [ "postal_code" ]
            }
         ],
         "formatted_address" : "Town Hall Lane, Cuba City, WI 53807, USA",
         "geometry" : {
            "bounds" : {
               "northeast" : {
                  "lat" : 42.6213244,
                  "lng" : -90.5837387
               },
               "southwest" : {
                  "lat" : 42.6126258,
                  "lng" : -90.5885686
               }
            },
            "location" : {
               "lat" : 42.6167535,
               "lng" : -90.58600749999999
            },
            "location_type" : "GEOMETRIC_CENTER",
            "viewport" : {
               "northeast" : {
                  "lat" : 42.6213244,
                  "lng" : -90.5837387
               },
               "southwest" : {
                  "lat" : 42.6126258,
                  "lng" : -90.5885686
               }
            }
         },
         "partial_match" : true,
         "types" : [ "route" ]
      },
      {
         "address_components" : [
            {
               "long_name" : "Town Hall Road",
               "short_name" : "Town Hall Rd",
               "types" : [ "route" ]
            },
            {
               "long_name" : "Bettiah",
               "short_name" : "Bettiah",
               "types" : [ "locality", "political" ]
            },
            {
               "long_name" : "Pashchim Champaran",
               "short_name" : "Pashchim Champaran",
               "types" : [ "administrative_area_level_2", "political" ]
            },
            {
               "long_name" : "Bihar",
               "short_name" : "BR",
               "types" : [ "administrative_area_level_1", "political" ]
            },
            {
               "long_name" : "India",
               "short_name" : "IN",
               "types" : [ "country", "political" ]
            },
            {
               "long_name" : "845438",
               "short_name" : "845438",
               "types" : [ "postal_code" ]
            }
         ],
         "formatted_address" : "Town Hall Road, Bettiah, Bihar 845438, India",
         "geometry" : {
            "bounds" : {
               "northeast" : {
                  "lat" : 26.8006229,
                  "lng" : 84.5090568
               },
               "southwest" : {
                  "lat" : 26.799189,
                  "lng" : 84.5024425
               }
            },
            "location" : {
               "lat" : 26.7994899,
               "lng" : 84.506123
            },
            "location_type" : "GEOMETRIC_CENTER",
            "viewport" : {
               "northeast" : {
                  "lat" : 26.8012549302915,
                  "lng" : 84.5090568
               },
               "southwest" : {
                  "lat" : 26.7985569697085,
                  "lng" : 84.5024425
               }
            }
         },
         "partial_match" : true,
         "types" : [ "route" ]
      },
      {
         "address_components" : [
            {
               "long_name" : "Town Hall Road",
               "short_name" : "Town Hall Rd",
               "types" : [ "route" ]
            },
            {
               "long_name" : "Fairchild",
               "short_name" : "Fairchild",
               "types" : [ "locality", "political" ]
            },
            {
               "long_name" : "Wisconsin",
               "short_name" : "WI",
               "types" : [ "administrative_area_level_1", "political" ]
            },
            {
               "long_name" : "United States",
               "short_name" : "US",
               "types" : [ "country", "political" ]
            },
            {
               "long_name" : "54741",
               "short_name" : "54741",
               "types" : [ "postal_code" ]
            }
         ],
         "formatted_address" : "Town Hall Road, Fairchild, WI 54741, USA",
         "geometry" : {
            "bounds" : {
               "northeast" : {
                  "lat" : 44.5965231,
                  "lng" : -90.98104939999999
               },
               "southwest" : {
                  "lat" : 44.5099566,
                  "lng" : -90.9944637
               }
            },
            "location" : {
               "lat" : 44.5536258,
               "lng" : -90.98813509999999
            },
            "location_type" : "GEOMETRIC_CENTER",
            "viewport" : {
               "northeast" : {
                  "lat" : 44.5965231,
                  "lng" : -90.98104939999999
               },
               "southwest" : {
                  "lat" : 44.5099566,
                  "lng" : -90.9944637
               }
            }
         },
         "partial_match" : true,
         "types" : [ "route" ]
      },
      {
         "address_components" : [
            {
               "long_name" : "Town Hall Road",
               "short_name" : "Town Hall Rd",
               "types" : [ "route" ]
            },
            {
               "long_name" : "Lincoln County",
               "short_name" : "Lincoln County",
               "types" : [ "administrative_area_level_2", "political" ]
            },
            {
               "long_name" : "Wisconsin",
               "short_name" : "WI",
               "types" : [ "administrative_area_level_1", "political" ]
            },
            {
               "long_name" : "United States",
               "short_name" : "US",
               "types" : [ "country", "political" ]
            }
         ],
         "formatted_address" : "Town Hall Road, Wisconsin, USA",
         "geometry" : {
            "bounds" : {
               "northeast" : {
                  "lat" : 45.3586026,
                  "lng" : -89.5061293
               },
               "southwest" : {
                  "lat" : 45.1938734,
                  "lng" : -89.50939049999999
               }
            },
            "location" : {
               "lat" : 45.27659149999999,
               "lng" : -89.50713569999999
            },
            "location_type" : "GEOMETRIC_CENTER",
            "viewport" : {
               "northeast" : {
                  "lat" : 45.3586026,
                  "lng" : -89.5061293
               },
               "southwest" : {
                  "lat" : 45.1938734,
                  "lng" : -89.50939049999999
               }
            }
         },
         "partial_match" : true,
         "types" : [ "route" ]
      },
      {
         "address_components" : [
            {
               "long_name" : "Town Hall Road",
               "short_name" : "Town Hall Rd",
               "types" : [ "route" ]
            },
            {
               "long_name" : "Lee County",
               "short_name" : "Lee County",
               "types" : [ "administrative_area_level_2", "political" ]
            },
            {
               "long_name" : "Illinois",
               "short_name" : "IL",
               "types" : [ "administrative_area_level_1", "political" ]
            },
            {
               "long_name" : "United States",
               "short_name" : "US",
               "types" : [ "country", "political" ]
            }
         ],
         "formatted_address" : "Town Hall Road, Illinois, USA",
         "geometry" : {
            "bounds" : {
               "northeast" : {
                  "lat" : 41.8320837,
                  "lng" : -89.1123207
               },
               "southwest" : {
                  "lat" : 41.7302878,
                  "lng" : -89.11286009999999
               }
            },
            "location" : {
               "lat" : 41.7813205,
               "lng" : -89.11267509999999
            },
            "location_type" : "GEOMETRIC_CENTER",
            "viewport" : {
               "northeast" : {
                  "lat" : 41.8320837,
                  "lng" : -89.11124141970849
               },
               "southwest" : {
                  "lat" : 41.7302878,
                  "lng" : -89.1139393802915
               }
            }
         },
         "partial_match" : true,
         "types" : [ "route" ]
      },
      {
         "address_components" : [
            {
               "long_name" : "Town Hall Drive",
               "short_name" : "Town Hall Dr",
               "types" : [ "route" ]
            },
            {
               "long_name" : "Sun Prairie",
               "short_name" : "Sun Prairie",
               "types" : [ "locality", "political" ]
            },
            {
               "long_name" : "Dane County",
               "short_name" : "Dane County",
               "types" : [ "administrative_area_level_2", "political" ]
            },
            {
               "long_name" : "Wisconsin",
               "short_name" : "WI",
               "types" : [ "administrative_area_level_1", "political" ]
            },
            {
               "long_name" : "United States",
               "short_name" : "US",
               "types" : [ "country", "political" ]
            },
            {
               "long_name" : "53590",
               "short_name" : "53590",
               "types" : [ "postal_code" ]
            }
         ],
         "formatted_address" : "Town Hall Drive, Sun Prairie, WI 53590, USA",
         "geometry" : {
            "bounds" : {
               "northeast" : {
                  "lat" : 43.196033,
                  "lng" : -89.1634955
               },
               "southwest" : {
                  "lat" : 43.129678,
                  "lng" : -89.194805
               }
            },
            "location" : {
               "lat" : 43.1637767,
               "lng" : -89.18733
            },
            "location_type" : "GEOMETRIC_CENTER",
            "viewport" : {
               "northeast" : {
                  "lat" : 43.196033,
                  "lng" : -89.1634955
               },
               "southwest" : {
                  "lat" : 43.129678,
                  "lng" : -89.194805
               }
            }
         },
         "partial_match" : true,
         "types" : [ "route" ]
      },
      {
         "address_components" : [
            {
               "long_name" : "Town Hall Road",
               "short_name" : "Town Hall Rd",
               "types" : [ "route" ]
            },
            {
               "long_name" : "Peshtigo",
               "short_name" : "Peshtigo",
               "types" : [ "locality", "political" ]
            },
            {
               "long_name" : "Grover",
               "short_name" : "Grover",
               "types" : [ "administrative_area_level_3", "political" ]
            },
            {
               "long_name" : "Marinette County",
               "short_name" : "Marinette County",
               "types" : [ "administrative_area_level_2", "political" ]
            },
            {
               "long_name" : "Wisconsin",
               "short_name" : "WI",
               "types" : [ "administrative_area_level_1", "political" ]
            },
            {
               "long_name" : "United States",
               "short_name" : "US",
               "types" : [ "country", "political" ]
            },
            {
               "long_name" : "54157",
               "short_name" : "54157",
               "types" : [ "postal_code" ]
            }
         ],
         "formatted_address" : "Town Hall Road, Peshtigo, WI 54157, USA",
         "geometry" : {
            "bounds" : {
               "northeast" : {
                  "lat" : 45.052812,
                  "lng" : -87.8119487
               },
               "southwest" : {
                  "lat" : 45.04512,
                  "lng" : -87.9430026
               }
            },
            "location" : {
               "lat" : 45.0487354,
               "lng" : -87.8788268
            },
            "location_type" : "GEOMETRIC_CENTER",
            "viewport" : {
               "northeast" : {
                  "lat" : 45.052812,
                  "lng" : -87.8119487
               },
               "southwest" : {
                  "lat" : 45.04512,
                  "lng" : -87.9430026
               }
            }
         },
         "partial_match" : true,
         "types" : [ "route" ]
      },
      {
         "address_components" : [
            {
               "long_name" : "Town Hall Road",
               "short_name" : "Town Hall Rd",
               "types" : [ "route" ]
            },
            {
               "long_name" : "Shell Lake",
               "short_name" : "Shell Lake",
               "types" : [ "locality", "political" ]
            },
            {
               "long_name" : "Dewey",
               "short_name" : "Dewey",
               "types" : [ "administrative_area_level_3", "political" ]
            },
            {
               "long_name" : "Burnett County",
               "short_name" : "Burnett County",
               "types" : [ "administrative_area_level_2", "political" ]
            },
            {
               "long_name" : "Wisconsin",
               "short_name" : "WI",
               "types" : [ "administrative_area_level_1", "political" ]
            },
            {
               "long_name" : "United States",
               "short_name" : "US",
               "types" : [ "country", "political" ]
            },
            {
               "long_name" : "54871",
               "short_name" : "54871",
               "types" : [ "postal_code" ]
            }
         ],
         "formatted_address" : "Town Hall Road, Shell Lake, WI 54871, USA",
         "geometry" : {
            "bounds" : {
               "northeast" : {
                  "lat" : 45.8158099,
                  "lng" : -92.11134559999999
               },
               "southwest" : {
                  "lat" : 45.72565789999999,
                  "lng" : -92.11484969999999
               }
            },
            "location" : {
               "lat" : 45.7690141,
               "lng" : -92.1144439
            },
            "location_type" : "GEOMETRIC_CENTER",
            "viewport" : {
               "northeast" : {
                  "lat" : 45.8158099,
                  "lng" : -92.11134559999999
               },
               "southwest" : {
                  "lat" : 45.72565789999999,
                  "lng" : -92.11484969999999
               }
            }
         },
         "partial_match" : true,
         "types" : [ "route" ]
      },
      {
         "address_components" : [
            {
               "long_name" : "Town Hall Road",
               "short_name" : "Town Hall Rd",
               "types" : [ "route" ]
            },
            {
               "long_name" : "Mount Horeb",
               "short_name" : "Mt Horeb",
               "types" : [ "locality", "political" ]
            },
            {
               "long_name" : "Springdale",
               "short_name" : "Springdale",
               "types" : [ "administrative_area_level_3", "political" ]
            },
            {
               "long_name" : "Dane County",
               "short_name" : "Dane County",
               "types" : [ "administrative_area_level_2", "political" ]
            },
            {
               "long_name" : "Wisconsin",
               "short_name" : "WI",
               "types" : [ "administrative_area_level_1", "political" ]
            },
            {
               "long_name" : "United States",
               "short_name" : "US",
               "types" : [ "country", "political" ]
            },
            {
               "long_name" : "53572",
               "short_name" : "53572",
               "types" : [ "postal_code" ]
            }
         ],
         "formatted_address" : "Town Hall Road, Mount Horeb, WI 53572, USA",
         "geometry" : {
            "bounds" : {
               "northeast" : {
                  "lat" : 43.0248722,
                  "lng" : -89.670975
               },
               "southwest" : {
                  "lat" : 42.962623,
                  "lng" : -89.697194
               }
            },
            "location" : {
               "lat" : 42.9930039,
               "lng" : -89.6857493
            },
            "location_type" : "GEOMETRIC_CENTER",
            "viewport" : {
               "northeast" : {
                  "lat" : 43.0248722,
                  "lng" : -89.670975
               },
               "southwest" : {
                  "lat" : 42.962623,
                  "lng" : -89.697194
               }
            }
         },
         "partial_match" : true,
         "types" : [ "route" ]
      },
      {
         "address_components" : [
            {
               "long_name" : "Town Hall Road",
               "short_name" : "Town Hall Rd",
               "types" : [ "route" ]
            },
            {
               "long_name" : "Abbotsford",
               "short_name" : "Abbotsford",
               "types" : [ "locality", "political" ]
            },
            {
               "long_name" : "Wisconsin",
               "short_name" : "WI",
               "types" : [ "administrative_area_level_1", "political" ]
            },
            {
               "long_name" : "United States",
               "short_name" : "US",
               "types" : [ "country", "political" ]
            },
            {
               "long_name" : "54405",
               "short_name" : "54405",
               "types" : [ "postal_code" ]
            }
         ],
         "formatted_address" : "Town Hall Road, Abbotsford, WI 54405, USA",
         "geometry" : {
            "bounds" : {
               "northeast" : {
                  "lat" : 44.99246,
                  "lng" : -90.1976952
               },
               "southwest" : {
                  "lat" : 44.98694099999999,
                  "lng" : -90.3159244
               }
            },
            "location" : {
               "lat" : 44.9889175,
               "lng" : -90.256614
            },
            "location_type" : "GEOMETRIC_CENTER",
            "viewport" : {
               "northeast" : {
                  "lat" : 44.99246,
                  "lng" : -90.1976952
               },
               "southwest" : {
                  "lat" : 44.98694099999999,
                  "lng" : -90.3159244
               }
            }
         },
         "partial_match" : true,
         "types" : [ "route" ]
      },
      {
         "address_components" : [
            {
               "long_name" : "Town Hall Road",
               "short_name" : "Town Hall Rd",
               "types" : [ "route" ]
            },
            {
               "long_name" : "Port Wing",
               "short_name" : "Port Wing",
               "types" : [ "locality", "political" ]
            },
            {
               "long_name" : "Orienta",
               "short_name" : "Orienta",
               "types" : [ "administrative_area_level_3", "political" ]
            },
            {
               "long_name" : "Bayfield County",
               "short_name" : "Bayfield County",
               "types" : [ "administrative_area_level_2", "political" ]
            },
            {
               "long_name" : "Wisconsin",
               "short_name" : "WI",
               "types" : [ "administrative_area_level_1", "political" ]
            },
            {
               "long_name" : "United States",
               "short_name" : "US",
               "types" : [ "country", "political" ]
            },
            {
               "long_name" : "54865",
               "short_name" : "54865",
               "types" : [ "postal_code" ]
            }
         ],
         "formatted_address" : "Town Hall Road, Port Wing, WI 54865, USA",
         "geometry" : {
            "bounds" : {
               "northeast" : {
                  "lat" : 46.7734033,
                  "lng" : -91.42658399999999
               },
               "southwest" : {
                  "lat" : 46.7103253,
                  "lng" : -91.44750739999999
               }
            },
            "location" : {
               "lat" : 46.742099,
               "lng" : -91.447176
            },
            "location_type" : "GEOMETRIC_CENTER",
            "viewport" : {
               "northeast" : {
                  "lat" : 46.7734033,
                  "lng" : -91.42658399999999
               },
               "southwest" : {
                  "lat" : 46.7103253,
                  "lng" : -91.44750739999999
               }
            }
         },
         "partial_match" : true,
         "types" : [ "route" ]
      },
      {
         "address_components" : [
            {
               "long_name" : "Town Hall Road",
               "short_name" : "Town Hall Rd",
               "types" : [ "route" ]
            },
            {
               "long_name" : "Eldorado",
               "short_name" : "Eldorado",
               "types" : [ "locality", "political" ]
            },
            {
               "long_name" : "Eldorado",
               "short_name" : "Eldorado",
               "types" : [ "administrative_area_level_3", "political" ]
            },
            {
               "long_name" : "Fond du Lac County",
               "short_name" : "Fond Du Lac County",
               "types" : [ "administrative_area_level_2", "political" ]
            },
            {
               "long_name" : "Wisconsin",
               "short_name" : "WI",
               "types" : [ "administrative_area_level_1", "political" ]
            },
            {
               "long_name" : "United States",
               "short_name" : "US",
               "types" : [ "country", "political" ]
            },
            {
               "long_name" : "54932",
               "short_name" : "54932",
               "types" : [ "postal_code" ]
            }
         ],
         "formatted_address" : "Town Hall Road, Eldorado, WI 54932, USA",
         "geometry" : {
            "bounds" : {
               "northeast" : {
                  "lat" : 43.8938859,
                  "lng" : -88.600236
               },
               "southwest" : {
                  "lat" : 43.825754,
                  "lng" : -88.62183019999999
               }
            },
            "location" : {
               "lat" : 43.8582361,
               "lng" : -88.6083537
            },
            "location_type" : "GEOMETRIC_CENTER",
            "viewport" : {
               "northeast" : {
                  "lat" : 43.8938859,
                  "lng" : -88.600236
               },
               "southwest" : {
                  "lat" : 43.825754,
                  "lng" : -88.62183019999999
               }
            }
         },
         "partial_match" : true,
         "types" : [ "route" ]
      },
      {
         "address_components" : [
            {
               "long_name" : "Town Hall Road",
               "short_name" : "Town Hall Rd",
               "types" : [ "route" ]
            },
            {
               "long_name" : "Wisconsin Rapids",
               "short_name" : "Wisconsin Rapids",
               "types" : [ "locality", "political" ]
            },
            {
               "long_name" : "Sigel",
               "short_name" : "Sigel",
               "types" : [ "administrative_area_level_3", "political" ]
            },
            {
               "long_name" : "Wood County",
               "short_name" : "Wood County",
               "types" : [ "administrative_area_level_2", "political" ]
            },
            {
               "long_name" : "Wisconsin",
               "short_name" : "WI",
               "types" : [ "administrative_area_level_1", "political" ]
            },
            {
               "long_name" : "United States",
               "short_name" : "US",
               "types" : [ "country", "political" ]
            },
            {
               "long_name" : "54495",
               "short_name" : "54495",
               "types" : [ "postal_code" ]
            }
         ],
         "formatted_address" : "Town Hall Road, Wisconsin Rapids, WI 54495, USA",
         "geometry" : {
            "bounds" : {
               "northeast" : {
                  "lat" : 44.46961899999999,
                  "lng" : -89.8549754
               },
               "southwest" : {
                  "lat" : 44.465253,
                  "lng" : -89.96389839999999
               }
            },
            "location" : {
               "lat" : 44.4672721,
               "lng" : -89.905641
            },
            "location_type" : "GEOMETRIC_CENTER",
            "viewport" : {
               "northeast" : {
                  "lat" : 44.46961899999999,
                  "lng" : -89.8549754
               },
               "southwest" : {
                  "lat" : 44.465253,
                  "lng" : -89.96389839999999
               }
            }
         },
         "partial_match" : true,
         "types" : [ "route" ]
      },
      {
         "address_components" : [
            {
               "long_name" : "Town Hall Road",
               "short_name" : "Town Hall Rd",
               "types" : [ "route" ]
            },
            {
               "long_name" : "Eau Claire",
               "short_name" : "Eau Claire",
               "types" : [ "locality", "political" ]
            },
            {
               "long_name" : "Brunswick",
               "short_name" : "Brunswick",
               "types" : [ "administrative_area_level_3", "political" ]
            },
            {
               "long_name" : "Eau Claire County",
               "short_name" : "Eau Claire County",
               "types" : [ "administrative_area_level_2", "political" ]
            },
            {
               "long_name" : "Wisconsin",
               "short_name" : "WI",
               "types" : [ "administrative_area_level_1", "political" ]
            },
            {
               "long_name" : "United States",
               "short_name" : "US",
               "types" : [ "country", "political" ]
            },
            {
               "long_name" : "54701",
               "short_name" : "54701",
               "types" : [ "postal_code" ]
            }
         ],
         "formatted_address" : "Town Hall Road, Eau Claire, WI 54701, USA",
         "geometry" : {
            "bounds" : {
               "northeast" : {
                  "lat" : 44.73639499999999,
                  "lng" : -91.6001784
               },
               "southwest" : {
                  "lat" : 44.731563,
                  "lng" : -91.65016759999999
               }
            },
            "location" : {
               "lat" : 44.7344999,
               "lng" : -91.6256216
            },
            "location_type" : "GEOMETRIC_CENTER",
            "viewport" : {
               "northeast" : {
                  "lat" : 44.73639499999999,
                  "lng" : -91.6001784
               },
               "southwest" : {
                  "lat" : 44.731563,
                  "lng" : -91.65016759999999
               }
            }
         },
         "partial_match" : true,
         "types" : [ "route" ]
      },
      {
         "address_components" : [
            {
               "long_name" : "Town Hall Road",
               "short_name" : "Town Hall Rd",
               "types" : [ "route" ]
            },
            {
               "long_name" : "Nashville",
               "short_name" : "Nashville",
               "types" : [ "locality", "political" ]
            },
            {
               "long_name" : "Bolo",
               "short_name" : "Bolo",
               "types" : [ "administrative_area_level_3", "political" ]
            },
            {
               "long_name" : "Washington County",
               "short_name" : "Washington County",
               "types" : [ "administrative_area_level_2", "political" ]
            },
            {
               "long_name" : "Illinois",
               "short_name" : "IL",
               "types" : [ "administrative_area_level_1", "political" ]
            },
            {
               "long_name" : "United States",
               "short_name" : "US",
               "types" : [ "country", "political" ]
            },
            {
               "long_name" : "62263",
               "short_name" : "62263",
               "types" : [ "postal_code" ]
            }
         ],
         "formatted_address" : "Town Hall Road, Nashville, IL 62263, USA",
         "geometry" : {
            "bounds" : {
               "northeast" : {
                  "lat" : 38.287956,
                  "lng" : -89.3135527
               },
               "southwest" : {
                  "lat" : 38.2282656,
                  "lng" : -89.32824629999999
               }
            },
            "location" : {
               "lat" : 38.2582894,
               "lng" : -89.3282181
            },
            "location_type" : "GEOMETRIC_CENTER",
            "viewport" : {
               "northeast" : {
                  "lat" : 38.287956,
                  "lng" : -89.3135527
               },
               "southwest" : {
                  "lat" : 38.2282656,
                  "lng" : -89.32824629999999
               }
            }
         },
         "partial_match" : true,
         "types" : [ "route" ]
      },
      {
         "address_components" : [
            {
               "long_name" : "Town Hall Road",
               "short_name" : "Town Hall Rd",
               "types" : [ "route" ]
            },
            {
               "long_name" : "Delavan",
               "short_name" : "Delavan",
               "types" : [ "locality", "political" ]
            },
            {
               "long_name" : "Walworth County",
               "short_name" : "Walworth County",
               "types" : [ "administrative_area_level_2", "political" ]
            },
            {
               "long_name" : "Wisconsin",
               "short_name" : "WI",
               "types" : [ "administrative_area_level_1", "political" ]
            },
            {
               "long_name" : "United States",
               "short_name" : "US",
               "types" : [ "country", "political" ]
            },
            {
               "long_name" : "53115",
               "short_name" : "53115",
               "types" : [ "postal_code" ]
            }
         ],
         "formatted_address" : "Town Hall Road, Delavan, WI 53115, USA",
         "geometry" : {
            "bounds" : {
               "northeast" : {
                  "lat" : 42.6227919,
                  "lng" : -88.5409535
               },
               "southwest" : {
                  "lat" : 42.617821,
                  "lng" : -88.58110239999999
               }
            },
            "location" : {
               "lat" : 42.619021,
               "lng" : -88.5606765
            },
            "location_type" : "GEOMETRIC_CENTER",
            "viewport" : {
               "northeast" : {
                  "lat" : 42.6227919,
                  "lng" : -88.5409535
               },
               "southwest" : {
                  "lat" : 42.617821,
                  "lng" : -88.58110239999999
               }
            }
         },
         "partial_match" : true,
         "types" : [ "route" ]
      },
      {
         "address_components" : [
            {
               "long_name" : "Town Hall Road",
               "short_name" : "Town Hall Rd",
               "types" : [ "route" ]
            },
            {
               "long_name" : "Menomonee Falls",
               "short_name" : "Menomonee Falls",
               "types" : [ "locality", "political" ]
            },
            {
               "long_name" : "Waukesha County",
               "short_name" : "Waukesha County",
               "types" : [ "administrative_area_level_2", "political" ]
            },
            {
               "long_name" : "Wisconsin",
               "short_name" : "WI",
               "types" : [ "administrative_area_level_1", "political" ]
            },
            {
               "long_name" : "United States",
               "short_name" : "US",
               "types" : [ "country", "political" ]
            },
            {
               "long_name" : "53051",
               "short_name" : "53051",
               "types" : [ "postal_code" ]
            }
         ],
         "formatted_address" : "Town Hall Road, Menomonee Falls, WI 53051, USA",
         "geometry" : {
            "bounds" : {
               "northeast" : {
                  "lat" : 43.1757149,
                  "lng" : -88.13217970000001
               },
               "southwest" : {
                  "lat" : 43.1483761,
                  "lng" : -88.1346736
               }
            },
            "location" : {
               "lat" : 43.1625488,
               "lng" : -88.1338755
            },
            "location_type" : "GEOMETRIC_CENTER",
            "viewport" : {
               "northeast" : {
                  "lat" : 43.1757149,
                  "lng" : -88.13207766970851
               },
               "southwest" : {
                  "lat" : 43.1483761,
                  "lng" : -88.13477563029151
               }
            }
         },
         "partial_match" : true,
         "types" : [ "route" ]
      },
      {
         "address_components" : [
            {
               "long_name" : "Town Hall Road",
               "short_name" : "Town Hall Rd",
               "types" : [ "route" ]
            },
            {
               "long_name" : "Boscobel",
               "short_name" : "Boscobel",
               "types" : [ "locality", "political" ]
            },
            {
               "long_name" : "Marion",
               "short_name" : "Marion",
               "types" : [ "administrative_area_level_3", "political" ]
            },
            {
               "long_name" : "Grant County",
               "short_name" : "Grant County",
               "types" : [ "administrative_area_level_2", "political" ]
            },
            {
               "long_name" : "Wisconsin",
               "short_name" : "WI",
               "types" : [ "administrative_area_level_1", "political" ]
            },
            {
               "long_name" : "United States",
               "short_name" : "US",
               "types" : [ "country", "political" ]
            },
            {
               "long_name" : "53805",
               "short_name" : "53805",
               "types" : [ "postal_code" ]
            }
         ],
         "formatted_address" : "Town Hall Road, Boscobel, WI 53805, USA",
         "geometry" : {
            "bounds" : {
               "northeast" : {
                  "lat" : 43.0925954,
                  "lng" : -90.69274569999999
               },
               "southwest" : {
                  "lat" : 43.0560595,
                  "lng" : -90.7493602
               }
            },
            "location" : {
               "lat" : 43.0758155,
               "lng" : -90.72390559999999
            },
            "location_type" : "GEOMETRIC_CENTER",
            "viewport" : {
               "northeast" : {
                  "lat" : 43.0925954,
                  "lng" : -90.69274569999999
               },
               "southwest" : {
                  "lat" : 43.0560595,
                  "lng" : -90.7493602
               }
            }
         },
         "partial_match" : true,
         "types" : [ "route" ]
      }
   ],
   "status" : "OK"
}
