{
   "results" : [
      {
         "address_components" : [
            {
               "long_name" : "Whitefield Road",
               "short_name" : "Whitefield Rd",
               "types" : [ "route" ]
            },
            {
               "long_name" : "Dalton",
               "short_name" : "Dalton",
               "types" : [ "locality", "political" ]
            },
            {
               "long_name" : "Coos County",
               "short_name" : "Coos County",
               "types" : [ "administrative_area_level_2", "political" ]
            },
            {
               "long_name" : "New Hampshire",
               "short_name" : "NH",
               "types" : [ "administrative_area_level_1", "political" ]
            },
            {
               "long_name" : "United States",
               "short_name" : "US",
               "types" : [ "country", "political" ]
            }
         ],
         "formatted_address" : "Whitefield Road, Dalton, NH, USA",
         "geometry" : {
            "bounds" : {
               "northeast" : {
                  "lat" : 44.43163819999999,
                  "lng" : -71.616523
               },
               "southwest" : {
                  "lat" : 44.382441,
                  "lng" : -71.6754194
               }
            },
            "location" : {
               "lat" : 44.4144503,
               "lng" : -71.6371554
            },
            "location_type" : "GEOMETRIC_CENTER",
            "viewport" : {
               "northeast" : {
                  "lat" : 44.43163819999999,
                  "lng" : -71.616523
               },
               "southwest" : {
                  "lat" : 44.382441,
                  "lng" : -71.6754194
               }
            }
         },
         "types" : [ "route" ]
      },
      {
         "address_components" : [
            {
               "long_name" : "Whitefield Road",
               "short_name" : "Whitefield Rd",
               "types" : [ "route" ]
            },
            {
               "long_name" : "Mississippi",
               "short_name" : "MS",
               "types" : [ "administrative_area_level_1", "political" ]
            },
            {
               "long_name" : "United States",
               "short_name" : "US",
               "types" : [ "country", "political" ]
            }
         ],
         "formatted_address" : "Whitefield Road, Mississippi, USA",
         "geometry" : {
            "bounds" : {
               "northeast" : {
                  "lat" : 31.4337802,
                  "lng" : -88.93651229999999
               },
               "southwest" : {
                  "lat" : 31.3583745,
                  "lng" : -89.0574214
               }
            },
            "location" : {
               "lat" : 31.3998559,
               "lng" : -88.997158
            },
            "location_type" : "GEOMETRIC_CENTER",
            "viewport" : {
               "northeast" : {
                  "lat" : 31.4337802,
                  "lng" : -88.93651229999999
               },
               "southwest" : {
                  "lat" : 31.3583745,
                  "lng" : -89.0574214
               }
            }
         },
         "types" : [ "route" ]
      },
      {
         "address_components" : [
            {
               "long_name" : "Whitefield Road",
               "short_name" : "Whitefield Rd",
               "types" : [ "route" ]
            },
            {
               "long_name" : "Bethlehem",
               "short_name" : "Bethlehem",
               "types" : [ "locality", "political" ]
            },
            {
               "long_name" : "Grafton County",
               "short_name" : "Grafton County",
               "types" : [ "administrative_area_level_2", "political" ]
            },
            {
               "long_name" : "New Hampshire",
               "short_name" : "NH",
               "types" : [ "administrative_area_level_1", "political" ]
            },
            {
               "long_name" : "United States",
               "short_name" : "US",
               "types" : [ "country", "political" ]
            },
            {
               "long_name" : "03574",
               "short_name" : "03574",
               "types" : [ "postal_code" ]
            }
         ],
         "formatted_address" : "Whitefield Road, Bethlehem, NH 03574, USA",
         "geometry" : {
            "bounds" : {
               "northeast" : {
                  "lat" : 44.31857429999999,
                  "lng" : -71.71311799999999
               },
               "southwest" : {
                  "lat" : 44.3154742,
                  "lng" : -71.7260582
               }
            },
            "location" : {
               "lat" : 44.3162886,
               "lng" : -71.71943809999999
            },
            "location_type" : "GEOMETRIC_CENTER",
            "viewport" : {
               "northeast" : {
                  "lat" : 44.31857429999999,
                  "lng" : -71.71311799999999
               },
               "southwest" : {
                  "lat" : 44.3154742,
                  "lng" : -71.7260582
               }
            }
         },
         "types" : [ "route" ]
      },
      {
         "address_components" : [
            {
               "long_name" : "Whitefield Road",
               "short_name" : "Whitefield Rd",
               "types" : [ "route" ]
            },
            {
               "long_name" : "Pittston",
               "short_name" : "Pittston",
               "types" : [ "locality", "political" ]
            },
            {
               "long_name" : "Kennebec County",
               "short_name" : "Kennebec County",
               "types" : [ "administrative_area_level_2", "political" ]
            },
            {
               "long_name" : "Maine",
               "short_name" : "ME",
               "types" : [ "administrative_area_level_1", "political" ]
            },
            {
               "long_name" : "United States",
               "short_name" : "US",
               "types" : [ "country", "political" ]
            },
            {
               "long_name" : "04345",
               "short_name" : "04345",
               "types" : [ "postal_code" ]
            }
         ],
         "formatted_address" : "Whitefield Road, Pittston, ME 04345, USA",
         "geometry" : {
            "bounds" : {
               "northeast" : {
                  "lat" : 44.2234851,
                  "lng" : -69.692955
               },
               "southwest" : {
                  "lat" : 44.221412,
                  "lng" : -69.7034709
               }
            },
            "location" : {
               "lat" : 44.2214418,
               "lng" : -69.6979539
            },
            "location_type" : "GEOMETRIC_CENTER",
            "viewport" : {
               "northeast" : {
                  "lat" : 44.22379753029149,
                  "lng" : -69.692955
               },
               "southwest" : {
                  "lat" : 44.2210995697085,
                  "lng" : -69.7034709
               }
            }
         },
         "types" : [ "route" ]
      },
      {
         "address_components" : [
            {
               "long_name" : "Whitefield Road",
               "short_name" : "Whitefield Rd",
               "types" : [ "route" ]
            },
            {
               "long_name" : "Henry",
               "short_name" : "Henry",
               "types" : [ "locality", "political" ]
            },
            {
               "long_name" : "Illinois",
               "short_name" : "IL",
               "types" : [ "administrative_area_level_1", "political" ]
            },
            {
               "long_name" : "United States",
               "short_name" : "US",
               "types" : [ "country", "political" ]
            },
            {
               "long_name" : "61537",
               "short_name" : "61537",
               "types" : [ "postal_code" ]
            }
         ],
         "formatted_address" : "Whitefield Road, Henry, IL 61537, USA",
         "geometry" : {
            "bounds" : {
               "northeast" : {
                  "lat" : 41.14859149999999,
                  "lng" : -89.40362069999999
               },
               "southwest" : {
                  "lat" : 41.13341620000001,
                  "lng" : -89.50508019999999
               }
            },
            "location" : {
               "lat" : 41.141162,
               "lng" : -89.45726920000001
            },
            "location_type" : "GEOMETRIC_CENTER",
            "viewport" : {
               "northeast" : {
                  "lat" : 41.14859149999999,
                  "lng" : -89.40362069999999
               },
               "southwest" : {
                  "lat" : 41.13341620000001,
                  "lng" : -89.50508019999999
               }
            }
         },
         "types" : [ "route" ]
      },
      {
         "address_components" : [
            {
               "long_name" : "Whitefield Road",
               "short_name" : "Whitefield Rd",
               "types" : [ "route" ]
            },
            {
               "long_name" : "Macoupin County",
               "short_name" : "Macoupin County",
               "types" : [ "administrative_area_level_2", "political" ]
            },
            {
               "long_name" : "Illinois",
               "short_name" : "IL",
               "types" : [ "administrative_area_level_1", "political" ]
            },
            {
               "long_name" : "United States",
               "short_name" : "US",
               "types" : [ "country", "political" ]
            }
         ],
         "formatted_address" : "Whitefield Road, Illinois, USA",
         "geometry" : {
            "bounds" : {
               "northeast" : {
                  "lat" : 39.1290402,
                  "lng" : -89.9229553
               },
               "southwest" : {
                  "lat" : 39.0711441,
                  "lng" : -89.9232626
               }
            },
            "location" : {
               "lat" : 39.1001809,
               "lng" : -89.9231156
            },
            "location_type" : "GEOMETRIC_CENTER",
            "viewport" : {
               "northeast" : {
                  "lat" : 39.1290402,
                  "lng" : -89.9217599697085
               },
               "southwest" : {
                  "lat" : 39.0711441,
                  "lng" : -89.92445793029151
               }
            }
         },
         "types" : [ "route" ]
      },
      {
         "address_components" : [
            {
               "long_name" : "Whitefield Road",
               "short_name" : "Whitefield Rd",
               "types" : [ "route" ]
            },
            {
               "long_name" : "Bengaluru",
               "short_name" : "Bengaluru",
               "types" : [ "locality", "political" ]
            },
            {
               "long_name" : "Bangalore Urban",
               "short_name" : "Bangalore Urban",
               "types" : [ "administrative_area_level_2", "political" ]
            },
            {
               "long_name" : "Karnataka",
               "short_name" : "KA",
               "types" : [ "administrative_area_level_1", "political" ]
            },
            {
               "long_name" : "India",
               "short_name" : "IN",
               "types" : [ "country", "political" ]
            }
         ],
         "formatted_address" : "Whitefield Road, Bengaluru, Karnataka, India",
         "geometry" : {
            "bounds" : {
               "northeast" : {
                  "lat" : 13.0005311,
                  "lng" : 77.75303699999999
               },
               "southwest" : {
                  "lat" : 12.9817894,
                  "lng" : 77.6792837
               }
            },
            "location" : {
               "lat" : 12.9921048,
               "lng" : 77.71580569999999
            },
            "location_type" : "GEOMETRIC_CENTER",
            "viewport" : {
               "northeast" : {
                  "lat" : 13.0005311,
                  "lng" : 77.75303699999999
               },
               "southwest" : {
                  "lat" : 12.9817894,
                  "lng" : 77.6792837
               }
            }
         },
         "types" : [ "route" ]
      },
      {
         "address_components" : [
            {
               "long_name" : "Whitefield Road",
               "short_name" : "Whitefield Rd",
               "types" : [ "route" ]
            },
            {
               "long_name" : "Churchville",
               "short_name" : "Churchville",
               "types" : [ "locality", "political" ]
            },
            {
               "long_name" : "Bel Air",
               "short_name" : "3, Bel Air",
               "types" : [ "administrative_area_level_3", "political" ]
            },
            {
               "long_name" : "Harford County",
               "short_name" : "Harford County",
               "types" : [ "administrative_area_level_2", "political" ]
            },
            {
               "long_name" : "Maryland",
               "short_name" : "MD",
               "types" : [ "administrative_area_level_1", "political" ]
            },
            {
               "long_name" : "United States",
               "short_name" : "US",
               "types" : [ "country", "political" ]
            },
            {
               "long_name" : "21028",
               "short_name" : "21028",
               "types" : [ "postal_code" ]
            }
         ],
         "formatted_address" : "Whitefield Road, Churchville, MD 21028, USA",
         "geometry" : {
            "bounds" : {
               "northeast" : {
                  "lat" : 39.580709,
                  "lng" : -76.24263599999999
               },
               "southwest" : {
                  "lat" : 39.57183800000001,
                  "lng" : -76.254453
               }
            },
            "location" : {
               "lat" : 39.5744635,
               "lng" : -76.2469315
            },
            "location_type" : "GEOMETRIC_CENTER",
            "viewport" : {
               "northeast" : {
                  "lat" : 39.580709,
                  "lng" : -76.24263599999999
               },
               "southwest" : {
                  "lat" : 39.57183800000001,
                  "lng" : -76.254453
               }
            }
         },
         "types" : [ "route" ]
      },
      {
         "address_components" : [
            {
               "long_name" : "Whitefield Road",
               "short_name" : "Whitefield Rd",
               "types" : [ "route" ]
            },
            {
               "long_name" : "Pasadena",
               "short_name" : "Pasadena",
               "types" : [ "locality", "political" ]
            },
            {
               "long_name" : "Los Angeles County",
               "short_name" : "Los Angeles County",
               "types" : [ "administrative_area_level_2", "political" ]
            },
            {
               "long_name" : "California",
               "short_name" : "CA",
               "types" : [ "administrative_area_level_1", "political" ]
            },
            {
               "long_name" : "United States",
               "short_name" : "US",
               "types" : [ "country", "political" ]
            }
         ],
         "formatted_address" : "Whitefield Road, Pasadena, CA, USA",
         "geometry" : {
            "bounds" : {
               "northeast" : {
                  "lat" : 34.165129,
                  "lng" : -118.0938941
               },
               "southwest" : {
                  "lat" : 34.16416,
                  "lng" : -118.1214912
               }
            },
            "location" : {
               "lat" : 34.1645067,
               "lng" : -118.113071
            },
            "location_type" : "GEOMETRIC_CENTER",
            "viewport" : {
               "northeast" : {
                  "lat" : 34.1659934802915,
                  "lng" : -118.0938941
               },
               "southwest" : {
                  "lat" : 34.1632955197085,
                  "lng" : -118.1214912
               }
            }
         },
         "types" : [ "route" ]
      },
      {
         "address_components" : [
            {
               "long_name" : "Whitefield Road",
               "short_name" : "Whitefield Rd",
               "types" : [ "route" ]
            },
            {
               "long_name" : "Springfield",
               "short_name" : "Springfield",
               "types" : [ "locality", "political" ]
            },
            {
               "long_name" : "Capital",
               "short_name" : "Capital",
               "types" : [ "administrative_area_level_3", "political" ]
            },
            {
               "long_name" : "Sangamon County",
               "short_name" : "Sangamon County",
               "types" : [ "administrative_area_level_2", "political" ]
            },
            {
               "long_name" : "Illinois",
               "short_name" : "IL",
               "types" : [ "administrative_area_level_1", "political" ]
            },
            {
               "long_name" : "United States",
               "short_name" : "US",
               "types" : [ "country", "political" ]
            },
            {
               "long_name" : "62704",
               "short_name" : "62704",
               "types" : [ "postal_code" ]
            }
         ],
         "formatted_address" : "Whitefield Road, Springfield, IL 62704, USA",
         "geometry" : {
            "bounds" : {
               "northeast" : {
                  "lat" : 39.8013658,
                  "lng" : -89.6896471
               },
               "southwest" : {
                  "lat" : 39.7968203,
                  "lng" : -89.6932121
               }
            },
            "location" : {
               "lat" : 39.7983662,
               "lng" : -89.6905592
            },
            "location_type" : "GEOMETRIC_CENTER",
            "viewport" : {
               "northeast" : {
                  "lat" : 39.8013658,
                  "lng" : -89.6896471
               },
               "southwest" : {
                  "lat" : 39.7968203,
                  "lng" : -89.6932121
               }
            }
         },
         "types" : [ "route" ]
      },
      {
         "address_components" : [
            {
               "long_name" : "Whitefield Road",
               "short_name" : "Whitefield Rd",
               "types" : [ "route" ]
            },
            {
               "long_name" : "Pinehurst",
               "short_name" : "Pinehurst",
               "types" : [ "neighborhood", "political" ]
            },
            {
               "long_name" : "Billerica",
               "short_name" : "Billerica",
               "types" : [ "locality", "political" ]
            },
            {
               "long_name" : "Middlesex County",
               "short_name" : "Middlesex County",
               "types" : [ "administrative_area_level_2", "political" ]
            },
            {
               "long_name" : "Massachusetts",
               "short_name" : "MA",
               "types" : [ "administrative_area_level_1", "political" ]
            },
            {
               "long_name" : "United States",
               "short_name" : "US",
               "types" : [ "country", "political" ]
            },
            {
               "long_name" : "01821",
               "short_name" : "01821",
               "types" : [ "postal_code" ]
            }
         ],
         "formatted_address" : "Whitefield Road, Billerica, MA 01821, USA",
         "geometry" : {
            "bounds" : {
               "northeast" : {
                  "lat" : 42.5246501,
                  "lng" : -71.227199
               },
               "southwest" : {
                  "lat" : 42.5223801,
                  "lng" : -71.228934
               }
            },
            "location" : {
               "lat" : 42.5235649,
               "lng" : -71.22800389999999
            },
            "location_type" : "GEOMETRIC_CENTER",
            "viewport" : {
               "northeast" : {
                  "lat" : 42.5248640802915,
                  "lng" : -71.22671751970849
               },
               "southwest" : {
                  "lat" : 42.5221661197085,
                  "lng" : -71.22941548029151
               }
            }
         },
         "types" : [ "route" ]
      },
      {
         "address_components" : [
            {
               "long_name" : "Whitefield Road",
               "short_name" : "Whitefield Rd",
               "types" : [ "route" ]
            },
            {
               "long_name" : "Spring Valley",
               "short_name" : "Spring Valley",
               "types" : [ "locality", "political" ]
            },
            {
               "long_name" : "Ramapo",
               "short_name" : "Ramapo",
               "types" : [ "administrative_area_level_3", "political" ]
            },
            {
               "long_name" : "Rockland County",
               "short_name" : "Rockland County",
               "types" : [ "administrative_area_level_2", "political" ]
            },
            {
               "long_name" : "New York",
               "short_name" : "NY",
               "types" : [ "administrative_area_level_1", "political" ]
            },
            {
               "long_name" : "United States",
               "short_name" : "US",
               "types" : [ "country", "political" ]
            },
            {
               "long_name" : "10977",
               "short_name" : "10977",
               "types" : [ "postal_code" ]
            }
         ],
         "formatted_address" : "Whitefield Road, Spring Valley, NY 10977, USA",
         "geometry" : {
            "bounds" : {
               "northeast" : {
                  "lat" : 41.074891,
                  "lng" : -74.067798
               },
               "southwest" : {
                  "lat" : 41.073495,
                  "lng" : -74.0694329
               }
            },
            "location" : {
               "lat" : 41.074291,
               "lng" : -74.06859899999999
            },
            "location_type" : "GEOMETRIC_CENTER",
            "viewport" : {
               "northeast" : {
                  "lat" : 41.0755419802915,
                  "lng" : -74.06726646970849
               },
               "southwest" : {
                  "lat" : 41.0728440197085,
                  "lng" : -74.06996443029151
               }
            }
         },
         "types" : [ "route" ]
      },
      {
         "address_components" : [
            {
               "long_name" : "Robert Rocky Memorial Drive",
               "short_name" : "Robert Rocky Memorial Dr",
               "types" : [ "route" ]
            },
            {
               "long_name" : "Lincroft",
               "short_name" : "Lincroft",
               "types" : [ "neighborhood", "political" ]
            },
            {
               "long_name" : "Middletown",
               "short_name" : "Middletown",
               "types" : [ "locality", "political" ]
            },
            {
               "long_name" : "Monmouth County",
               "short_name" : "Monmouth County",
               "types" : [ "administrative_area_level_2", "political" ]
            },
            {
               "long_name" : "New Jersey",
               "short_name" : "NJ",
               "types" : [ "administrative_area_level_1", "political" ]
            },
            {
               "long_name" : "United States",
               "short_name" : "US",
               "types" : [ "country", "political" ]
            },
            {
               "long_name" : "07738",
               "short_name" : "07738",
               "types" : [ "postal_code" ]
            }
         ],
         "formatted_address" : "Robert Rocky Memorial Drive, Lincroft, NJ 07738, USA",
         "geometry" : {
            "bounds" : {
               "northeast" : {
                  "lat" : 40.3411398,
                  "lng" : -74.1115411
               },
               "southwest" : {
                  "lat" : 40.339856,
                  "lng" : -74.1122656
               }
            },
            "location" : {
               "lat" : 40.3404186,
               "lng" : -74.1117921
            },
            "location_type" : "GEOMETRIC_CENTER",
            "viewport" : {
               "northeast" : {
                  "lat" : 40.3418468802915,
                  "lng" : -74.1105543697085
               },
               "southwest" : {
                  "lat" : 40.3391489197085,
                  "lng" : -74.11325233029152
               }
            }
         },
         "types" : [ "route" ]
      },
      {
         "address_components" : [
            {
               "long_name" : "Whitefield Road",
               "short_name" : "Whitefield Rd",
               "types" : [ "route" ]
            },
            {
               "long_name" : "Silver Point",
               "short_name" : "Silver Point",
               "types" : [ "locality", "political" ]
            },
            {
               "long_name" : "Putnam County",
               "short_name" : "Putnam County",
               "types" : [ "administrative_area_level_2", "political" ]
            },
            {
               "long_name" : "Tennessee",
               "short_name" : "TN",
               "types" : [ "administrative_area_level_1", "political" ]
            },
            {
               "long_name" : "United States",
               "short_name" : "US",
               "types" : [ "country", "political" ]
            },
            {
               "long_name" : "38582",
               "short_name" : "38582",
               "types" : [ "postal_code" ]
            }
         ],
         "formatted_address" : "Whitefield Road, Silver Point, TN 38582, USA",
         "geometry" : {
            "bounds" : {
               "northeast" : {
                  "lat" : 36.1135026,
                  "lng" : -85.6896151
               },
               "southwest" : {
                  "lat" : 36.111659,
                  "lng" : -85.693602
               }
            },
            "location" : {
               "lat" : 36.1132109,
               "lng" : -85.69156389999999
            },
            "location_type" : "GEOMETRIC_CENTER",
            "viewport" : {
               "northeast" : {
                  "lat" : 36.1139297802915,
                  "lng" : -85.6896151
               },
               "southwest" : {
                  "lat" : 36.1112318197085,
                  "lng" : -85.693602
               }
            }
         },
         "types" : [ "route" ]
      },
      {
         "address_components" : [
            {
               "long_name" : "Whitefield Road",
               "short_name" : "Whitefield Rd",
               "types" : [ "route" ]
            },
            {
               "long_name" : "Lisman",
               "short_name" : "Lisman",
               "types" : [ "locality", "political" ]
            },
            {
               "long_name" : "Choctaw County",
               "short_name" : "Choctaw County",
               "types" : [ "administrative_area_level_2", "political" ]
            },
            {
               "long_name" : "Alabama",
               "short_name" : "AL",
               "types" : [ "administrative_area_level_1", "political" ]
            },
            {
               "long_name" : "United States",
               "short_name" : "US",
               "types" : [ "country", "political" ]
            },
            {
               "long_name" : "36912",
               "short_name" : "36912",
               "types" : [ "postal_code" ]
            }
         ],
         "formatted_address" : "Whitefield Road, Lisman, AL 36912, USA",
         "geometry" : {
            "bounds" : {
               "northeast" : {
                  "lat" : 32.1916442,
                  "lng" : -88.386579
               },
               "southwest" : {
                  "lat" : 32.1903169,
                  "lng" : -88.38677059999999
               }
            },
            "location" : {
               "lat" : 32.1910165,
               "lng" : -88.3867626
            },
            "location_type" : "GEOMETRIC_CENTER",
            "viewport" : {
               "northeast" : {
                  "lat" : 32.1923295302915,
                  "lng" : -88.38532581970848
               },
               "southwest" : {
                  "lat" : 32.1896315697085,
                  "lng" : -88.38802378029149
               }
            }
         },
         "types" : [ "route" ]
      },
      {
         "address_components" : [
            {
               "long_name" : "Whitefield Road",
               "short_name" : "Whitefield Rd",
               "types" : [ "route" ]
            },
            {
               "long_name" : "Dunfermline",
               "short_name" : "Dunfermline",
               "types" : [ "postal_town" ]
            },
            {
               "long_name" : "Fife",
               "short_name" : "Fife",
               "types" : [ "administrative_area_level_2", "political" ]
            },
            {
               "long_name" : "United Kingdom",
               "short_name" : "GB",
               "types" : [ "country", "political" ]
            },
            {
               "long_name" : "KY12 0SY",
               "short_name" : "KY12 0SY",
               "types" : [ "postal_code" ]
            }
         ],
         "formatted_address" : "Whitefield Road, Dunfermline, Fife KY12 0SY, UK",
         "geometry" : {
            "bounds" : {
               "northeast" : {
                  "lat" : 56.086619,
                  "lng" : -3.4223417
               },
               "southwest" : {
                  "lat" : 56.0782476,
                  "lng" : -3.4286883
               }
            },
            "location" : {
               "lat" : 56.0825428,
               "lng" : -3.4252624
            },
            "location_type" : "GEOMETRIC_CENTER",
            "viewport" : {
               "northeast" : {
                  "lat" : 56.086619,
                  "lng" : -3.4223417
               },
               "southwest" : {
                  "lat" : 56.0782476,
                  "lng" : -3.4286883
               }
            }
         },
         "types" : [ "route" ]
      },
      {
         "address_components" : [
            {
               "long_name" : "Whitefield Road",
               "short_name" : "Whitefield Rd",
               "types" : [ "route" ]
            },
            {
               "long_name" : "Bristol",
               "short_name" : "Bristol",
               "types" : [ "locality", "political" ]
            },
            {
               "long_name" : "Bristol",
               "short_name" : "Bristol",
               "types" : [ "postal_town" ]
            },
            {
               "long_name" : "City of Bristol",
               "short_name" : "City of Bristol",
               "types" : [ "administrative_area_level_2", "political" ]
            },
            {
               "long_name" : "United Kingdom",
               "short_name" : "GB",
               "types" : [ "country", "political" ]
            },
            {
               "long_name" : "BS5 7TZ",
               "short_name" : "BS5 7TZ",
               "types" : [ "postal_code" ]
            }
         ],
         "formatted_address" : "Whitefield Road, Bristol, City of Bristol BS5 7TZ, UK",
         "geometry" : {
            "bounds" : {
               "northeast" : {
                  "lat" : 51.4707028,
                  "lng" : -2.5272057
               },
               "southwest" : {
                  "lat" : 51.4673274,
                  "lng" : -2.5386996
               }
            },
            "location" : {
               "lat" : 51.46894899999999,
               "lng" : -2.532376
            },
            "location_type" : "GEOMETRIC_CENTER",
            "viewport" : {
               "northeast" : {
                  "lat" : 51.4707028,
                  "lng" : -2.5272057
               },
               "southwest" : {
                  "lat" : 51.4673274,
                  "lng" : -2.5386996
               }
            }
         },
         "types" : [ "route" ]
      },
      {
         "address_components" : [
            {
               "long_name" : "Whitefield Road",
               "short_name" : "Whitefield Rd",
               "types" : [ "route" ]
            },
            {
               "long_name" : "Bury",
               "short_name" : "Bury",
               "types" : [ "locality", "political" ]
            },
            {
               "long_name" : "Bury",
               "short_name" : "Bury",
               "types" : [ "postal_town" ]
            },
            {
               "long_name" : "Greater Manchester",
               "short_name" : "Gt Man",
               "types" : [ "administrative_area_level_2", "political" ]
            },
            {
               "long_name" : "United Kingdom",
               "short_name" : "GB",
               "types" : [ "country", "political" ]
            },
            {
               "long_name" : "BL9 9PL",
               "short_name" : "BL9 9PL",
               "types" : [ "postal_code" ]
            }
         ],
         "formatted_address" : "Whitefield Road, Bury, Bury BL9 9PL, UK",
         "geometry" : {
            "bounds" : {
               "northeast" : {
                  "lat" : 53.580202,
                  "lng" : -2.2989119
               },
               "southwest" : {
                  "lat" : 53.5753212,
                  "lng" : -2.3046202
               }
            },
            "location" : {
               "lat" : 53.5780487,
               "lng" : -2.3023677
            },
            "location_type" : "GEOMETRIC_CENTER",
            "viewport" : {
               "northeast" : {
                  "lat" : 53.580202,
                  "lng" : -2.2989119
               },
               "southwest" : {
                  "lat" : 53.5753212,
                  "lng" : -2.3046202
               }
            }
         },
         "types" : [ "route" ]
      },
      {
         "address_components" : [
            {
               "long_name" : "Whitefield Road",
               "short_name" : "Whitefield Rd",
               "types" : [ "route" ]
            },
            {
               "long_name" : "Warrington",
               "short_name" : "Warrington",
               "types" : [ "locality", "political" ]
            },
            {
               "long_name" : "Warrington",
               "short_name" : "Warrington",
               "types" : [ "postal_town" ]
            },
            {
               "long_name" : "Warrington",
               "short_name" : "Warrington",
               "types" : [ "administrative_area_level_2", "political" ]
            },
            {
               "long_name" : "United Kingdom",
               "short_name" : "GB",
               "types" : [ "country", "political" ]
            },
            {
               "long_name" : "WA4 6NA",
               "short_name" : "WA4 6NA",
               "types" : [ "postal_code" ]
            }
         ],
         "formatted_address" : "Whitefield Road, Warrington, Warrington WA4 6NA, UK",
         "geometry" : {
            "bounds" : {
               "northeast" : {
                  "lat" : 53.3686483,
                  "lng" : -2.5844001
               },
               "southwest" : {
                  "lat" : 53.3652832,
                  "lng" : -2.5941133
               }
            },
            "location" : {
               "lat" : 53.3658734,
               "lng" : -2.5884489
            },
            "location_type" : "GEOMETRIC_CENTER",
            "viewport" : {
               "northeast" : {
                  "lat" : 53.3686483,
                  "lng" : -2.5844001
               },
               "southwest" : {
                  "lat" : 53.3652832,
                  "lng" : -2.5941133
               }
            }
         },
         "types" : [ "route" ]
      },
      {
         "address_components" : [
            {
               "long_name" : "Whitefield Road",
               "short_name" : "Whitefield Rd",
               "types" : [ "route" ]
            },
            {
               "long_name" : "Holbury",
               "short_name" : "Holbury",
               "types" : [ "locality", "political" ]
            },
            {
               "long_name" : "Southampton",
               "short_name" : "Southampton",
               "types" : [ "postal_town" ]
            },
            {
               "long_name" : "Hampshire",
               "short_name" : "Hants",
               "types" : [ "administrative_area_level_2", "political" ]
            },
            {
               "long_name" : "United Kingdom",
               "short_name" : "GB",
               "types" : [ "country", "political" ]
            },
            {
               "long_name" : "SO45 2HY",
               "short_name" : "SO45 2HY",
               "types" : [ "postal_code" ]
            }
         ],
         "formatted_address" : "Whitefield Road, Holbury, Southampton, Hampshire SO45 2HY, UK",
         "geometry" : {
            "bounds" : {
               "northeast" : {
                  "lat" : 50.8288429,
                  "lng" : -1.3836805
               },
               "southwest" : {
                  "lat" : 50.8250397,
                  "lng" : -1.3881758
               }
            },
            "location" : {
               "lat" : 50.8275434,
               "lng" : -1.386691
            },
            "location_type" : "GEOMETRIC_CENTER",
            "viewport" : {
               "northeast" : {
                  "lat" : 50.8288429,
                  "lng" : -1.3836805
               },
               "southwest" : {
                  "lat" : 50.8250397,
                  "lng" : -1.3881758
               }
            }
         },
         "types" : [ "route" ]
      },
      {
         "address_components" : [
            {
               "long_name" : "Whitefield Road",
               "short_name" : "Whitefield Rd",
               "types" : [ "route" ]
            },
            {
               "long_name" : "Liverpool",
               "short_name" : "Liverpool",
               "types" : [ "locality", "political" ]
            },
            {
               "long_name" : "Liverpool",
               "short_name" : "Liverpool",
               "types" : [ "postal_town" ]
            },
            {
               "long_name" : "Merseyside",
               "short_name" : "Mersyd",
               "types" : [ "administrative_area_level_2", "political" ]
            },
            {
               "long_name" : "United Kingdom",
               "short_name" : "GB",
               "types" : [ "country", "political" ]
            },
            {
               "long_name" : "L6 5DB",
               "short_name" : "L6 5DB",
               "types" : [ "postal_code" ]
            }
         ],
         "formatted_address" : "Whitefield Road, Liverpool, Merseyside L6 5DB, UK",
         "geometry" : {
            "bounds" : {
               "northeast" : {
                  "lat" : 53.42279509999999,
                  "lng" : -2.9498399
               },
               "southwest" : {
                  "lat" : 53.4202065,
                  "lng" : -2.9571433
               }
            },
            "location" : {
               "lat" : 53.42157230000001,
               "lng" : -2.9532241
            },
            "location_type" : "GEOMETRIC_CENTER",
            "viewport" : {
               "northeast" : {
                  "lat" : 53.42284978029149,
                  "lng" : -2.9498399
               },
               "southwest" : {
                  "lat" : 53.42015181970849,
                  "lng" : -2.9571433
               }
            }
         },
         "types" : [ "route" ]
      },
      {
         "address_components" : [
            {
               "long_name" : "Whitefield Road",
               "short_name" : "Whitefield Rd",
               "types" : [ "route" ]
            },
            {
               "long_name" : "New Milton",
               "short_name" : "New Milton",
               "types" : [ "locality", "political" ]
            },
            {
               "long_name" : "New Milton",
               "short_name" : "New Milton",
               "types" : [ "postal_town" ]
            },
            {
               "long_name" : "Hampshire",
               "short_name" : "Hants",
               "types" : [ "administrative_area_level_2", "political" ]
            },
            {
               "long_name" : "United Kingdom",
               "short_name" : "GB",
               "types" : [ "country", "political" ]
            },
            {
               "long_name" : "BH25 6DF",
               "short_name" : "BH25 6DF",
               "types" : [ "postal_code" ]
            }
         ],
         "formatted_address" : "Whitefield Road, New Milton, Hampshire BH25 6DF, UK",
         "geometry" : {
            "bounds" : {
               "northeast" : {
                  "lat" : 50.75524619999999,
                  "lng" : -1.6563768
               },
               "southwest" : {
                  "lat" : 50.75266990000001,
                  "lng" : -1.6599164
               }
            },
            "location" : {
               "lat" : 50.75392650000001,
               "lng" : -1.6584759
            },
            "location_type" : "GEOMETRIC_CENTER",
            "viewport" : {
               "northeast" : {
                  "lat" : 50.7553070302915,
                  "lng" : -1.6563768
               },
               "southwest" : {
                  "lat" : 50.7526090697085,
                  "lng" : -1.6599164
               }
            }
         },
         "types" : [ "route" ]
      },
      {
         "address_components" : [
            {
               "long_name" : "Whitefield Road",
               "short_name" : "Whitefield Rd",
               "types" : [ "route" ]
            },
            {
               "long_name" : "Glasgow",
               "short_name" : "Glasgow",
               "types" : [ "locality", "political" ]
            },
            {
               "long_name" : "Glasgow",
               "short_name" : "Glasgow",
               "types" : [ "postal_town" ]
            },
            {
               "long_name" : "Glasgow City",
               "short_name" : "Glasgow City",
               "types" : [ "administrative_area_level_2", "political" ]
            },
            {
               "long_name" : "United Kingdom",
               "short_name" : "GB",
               "types" : [ "country", "political" ]
            },
            {
               "long_name" : "G51",
               "short_name" : "G51",
               "types" : [ "postal_code_prefix", "postal_code" ]
            }
         ],
         "formatted_address" : "Whitefield Road, Glasgow, Glasgow City G51, UK",
         "geometry" : {
            "bounds" : {
               "northeast" : {
                  "lat" : 55.8557906,
                  "lng" : -4.2998483
               },
               "southwest" : {
                  "lat" : 55.85115279999999,
                  "lng" : -4.3015984
               }
            },
            "location" : {
               "lat" : 55.8536746,
               "lng" : -4.300703599999999
            },
            "location_type" : "GEOMETRIC_CENTER",
            "viewport" : {
               "northeast" : {
                  "lat" : 55.8557906,
                  "lng" : -4.299374369708497
               },
               "southwest" : {
                  "lat" : 55.85115279999999,
                  "lng" : -4.302072330291502
               }
            }
         },
         "types" : [ "route" ]
      },
      {
         "address_components" : [
            {
               "long_name" : "Whitefield Road",
               "short_name" : "Whitefield Rd",
               "types" : [ "route" ]
            },
            {
               "long_name" : "Sale",
               "short_name" : "Sale",
               "types" : [ "locality", "political" ]
            },
            {
               "long_name" : "Sale",
               "short_name" : "Sale",
               "types" : [ "postal_town" ]
            },
            {
               "long_name" : "Greater Manchester",
               "short_name" : "Gt Man",
               "types" : [ "administrative_area_level_2", "political" ]
            },
            {
               "long_name" : "United Kingdom",
               "short_name" : "GB",
               "types" : [ "country", "political" ]
            },
            {
               "long_name" : "M33 6NY",
               "short_name" : "M33 6NY",
               "types" : [ "postal_code" ]
            }
         ],
         "formatted_address" : "Whitefield Road, Sale, Sale M33 6NY, UK",
         "geometry" : {
            "bounds" : {
               "northeast" : {
                  "lat" : 53.42863029999999,
                  "lng" : -2.3284654
               },
               "southwest" : {
                  "lat" : 53.42796269999999,
                  "lng" : -2.3338071
               }
            },
            "location" : {
               "lat" : 53.4282543,
               "lng" : -2.330636
            },
            "location_type" : "GEOMETRIC_CENTER",
            "viewport" : {
               "northeast" : {
                  "lat" : 53.42964548029149,
                  "lng" : -2.3284654
               },
               "southwest" : {
                  "lat" : 53.42694751970849,
                  "lng" : -2.3338071
               }
            }
         },
         "types" : [ "route" ]
      },
      {
         "address_components" : [
            {
               "long_name" : "Whitefield Road",
               "short_name" : "Whitefield Rd",
               "types" : [ "route" ]
            },
            {
               "long_name" : "Tantanoola",
               "short_name" : "Tantanoola",
               "types" : [ "locality", "political" ]
            },
            {
               "long_name" : "South Australia",
               "short_name" : "SA",
               "types" : [ "administrative_area_level_1", "political" ]
            },
            {
               "long_name" : "Australia",
               "short_name" : "AU",
               "types" : [ "country", "political" ]
            },
            {
               "long_name" : "5280",
               "short_name" : "5280",
               "types" : [ "postal_code" ]
            }
         ],
         "formatted_address" : "Whitefield Road, Tantanoola SA 5280, Australia",
         "geometry" : {
            "bounds" : {
               "northeast" : {
                  "lat" : -37.7072378,
                  "lng" : 140.506668
               },
               "southwest" : {
                  "lat" : -37.72488380000001,
                  "lng" : 140.4499511
               }
            },
            "location" : {
               "lat" : -37.7158461,
               "lng" : 140.4766909
            },
            "location_type" : "GEOMETRIC_CENTER",
            "viewport" : {
               "northeast" : {
                  "lat" : -37.7072378,
                  "lng" : 140.506668
               },
               "southwest" : {
                  "lat" : -37.72488380000001,
                  "lng" : 140.4499511
               }
            }
         },
         "types" : [ "route" ]
      },
      {
         "address_components" : [
            {
               "long_name" : "Whitefield Road",
               "short_name" : "Whitefield Rd",
               "types" : [ "route" ]
            },
            {
               "long_name" : "Penwortham",
               "short_name" : "Penwortham",
               "types" : [ "locality", "political" ]
            },
            {
               "long_name" : "Preston",
               "short_name" : "Preston",
               "types" : [ "postal_town" ]
            },
            {
               "long_name" : "Lancashire",
               "short_name" : "Lancs",
               "types" : [ "administrative_area_level_2", "political" ]
            },
            {
               "long_name" : "United Kingdom",
               "short_name" : "GB",
               "types" : [ "country", "political" ]
            },
            {
               "long_name" : "PR1 0XJ",
               "short_name" : "PR1 0XJ",
               "types" : [ "postal_code" ]
            }
         ],
         "formatted_address" : "Whitefield Road, Penwortham, Preston, Lancashire PR1 0XJ, UK",
         "geometry" : {
            "bounds" : {
               "northeast" : {
                  "lat" : 53.74360979999999,
                  "lng" : -2.7334235
               },
               "southwest" : {
                  "lat" : 53.7427196,
                  "lng" : -2.7410602
               }
            },
            "location" : {
               "lat" : 53.7433783,
               "lng" : -2.7377323
            },
            "location_type" : "GEOMETRIC_CENTER",
            "viewport" : {
               "northeast" : {
                  "lat" : 53.7445136802915,
                  "lng" : -2.7334235
               },
               "southwest" : {
                  "lat" : 53.7418157197085,
                  "lng" : -2.7410602
               }
            }
         },
         "types" : [ "route" ]
      },
      {
         "address_components" : [
            {
               "long_name" : "Whitefield Road",
               "short_name" : "Whitefield Rd",
               "types" : [ "route" ]
            },
            {
               "long_name" : "Northampton",
               "short_name" : "Northampton",
               "types" : [ "locality", "political" ]
            },
            {
               "long_name" : "Northampton",
               "short_name" : "Northampton",
               "types" : [ "postal_town" ]
            },
            {
               "long_name" : "Northamptonshire",
               "short_name" : "N'hants",
               "types" : [ "administrative_area_level_2", "political" ]
            },
            {
               "long_name" : "United Kingdom",
               "short_name" : "GB",
               "types" : [ "country", "political" ]
            },
            {
               "long_name" : "NN5 6SL",
               "short_name" : "NN5 6SL",
               "types" : [ "postal_code" ]
            }
         ],
         "formatted_address" : "Whitefield Road, Northampton, Northamptonshire NN5 6SL, UK",
         "geometry" : {
            "bounds" : {
               "northeast" : {
                  "lat" : 52.2531681,
                  "lng" : -0.9435408999999999
               },
               "southwest" : {
                  "lat" : 52.2524387,
                  "lng" : -0.9483604000000001
               }
            },
            "location" : {
               "lat" : 52.2528923,
               "lng" : -0.9460396999999998
            },
            "location_type" : "GEOMETRIC_CENTER",
            "viewport" : {
               "northeast" : {
                  "lat" : 52.2541523802915,
                  "lng" : -0.9435408999999999
               },
               "southwest" : {
                  "lat" : 52.2514544197085,
                  "lng" : -0.9483604000000001
               }
            }
         },
         "types" : [ "route" ]
      }
   ],
   "status" : "OK"
}
