{
   "results" : [
      {
         "address_components" : [
            {
               "long_name" : "Aarey Road",
               "short_name" : "Aarey Rd",
               "types" : [ "route" ]
            },
            {
               "long_name" : "Mumbai",
               "short_name" : "Mumbai",
               "types" : [ "locality", "political" ]
            },
            {
               "long_name" : "Maharashtra",
               "short_name" : "MH",
               "types" : [ "administrative_area_level_1", "political" ]
            },
            {
               "long_name" : "India",
               "short_name" : "IN",
               "types" : [ "country", "political" ]
            }
         ],
         "formatted_address" : "Aarey Road, Mumbai, Maharashtra, India",
         "geometry" : {
            "bounds" : {
               "northeast" : {
                  "lat" : 19.1686559,
                  "lng" : 72.89707489999999
               },
               "southwest" : {
                  "lat" : 19.1332866,
                  "lng" : 72.8454941
               }
            },
            "location" : {
               "lat" : 19.1509681,
               "lng" : 72.87581469999999
            },
            "location_type" : "GEOMETRIC_CENTER",
            "viewport" : {
               "northeast" : {
                  "lat" : 19.1686559,
                  "lng" : 72.89707489999999
               },
               "southwest" : {
                  "lat" : 19.1332866,
                  "lng" : 72.8454941
               }
            }
         },
         "types" : [ "route" ]
      },
      {
         "address_components" : [
            {
               "long_name" : "Aarey Road",
               "short_name" : "Aarey Rd",
               "types" : [ "route" ]
            },
            {
               "long_name" : "Jay Prakash Nagar",
               "short_name" : "Jay Prakash Nagar",
               "types" : [ "sublocality_level_2", "sublocality", "political" ]
            },
            {
               "long_name" : "Goregaon West",
               "short_name" : "Goregaon West",
               "types" : [ "sublocality_level_1", "sublocality", "political" ]
            },
            {
               "long_name" : "Mumbai",
               "short_name" : "Mumbai",
               "types" : [ "locality", "political" ]
            },
            {
               "long_name" : "Mumbai Suburban",
               "short_name" : "Mumbai Suburban",
               "types" : [ "administrative_area_level_2", "political" ]
            },
            {
               "long_name" : "Maharashtra",
               "short_name" : "MH",
               "types" : [ "administrative_area_level_1", "political" ]
            },
            {
               "long_name" : "India",
               "short_name" : "IN",
               "types" : [ "country", "political" ]
            },
            {
               "long_name" : "400063",
               "short_name" : "400063",
               "types" : [ "postal_code" ]
            }
         ],
         "formatted_address" : "Aarey Road, Jay Prakash Nagar, Goregaon West, Mumbai, Maharashtra 400063",
         "geometry" : {
            "location" : {
               "lat" : 19.1668642,
               "lng" : 72.849531
            },
            "location_type" : "GEOMETRIC_CENTER",
            "viewport" : {
               "northeast" : {
                  "lat" : 19.1682131802915,
                  "lng" : 72.85087998029151
               },
               "southwest" : {
                  "lat" : 19.1655152197085,
                  "lng" : 72.84818201970849
               }
            }
         },
         "types" : [ "route" ]
      }
   ],
   "status" : "OK"
}
