{
   "results" : [
      {
         "address_components" : [
            {
               "long_name" : "Airport Road",
               "short_name" : "Airport Rd",
               "types" : [ "route" ]
            },
            {
               "long_name" : "Arkansas",
               "short_name" : "AR",
               "types" : [ "administrative_area_level_1", "political" ]
            },
            {
               "long_name" : "United States",
               "short_name" : "US",
               "types" : [ "country", "political" ]
            }
         ],
         "formatted_address" : "Airport Road, Arkansas, USA",
         "geometry" : {
            "bounds" : {
               "northeast" : {
                  "lat" : 34.4927523,
                  "lng" : -93.08497319999999
               },
               "southwest" : {
                  "lat" : 34.3950269,
                  "lng" : -93.3544107
               }
            },
            "location" : {
               "lat" : 34.445659,
               "lng" : -93.22088789999999
            },
            "location_type" : "GEOMETRIC_CENTER",
            "viewport" : {
               "northeast" : {
                  "lat" : 34.4927523,
                  "lng" : -93.08497319999999
               },
               "southwest" : {
                  "lat" : 34.3950269,
                  "lng" : -93.3544107
               }
            }
         },
         "types" : [ "route" ]
      },
      {
         "address_components" : [
            {
               "long_name" : "Airport Road",
               "short_name" : "Airport Rd",
               "types" : [ "route" ]
            },
            {
               "long_name" : "Temple",
               "short_name" : "Temple",
               "types" : [ "locality", "political" ]
            },
            {
               "long_name" : "Bell County",
               "short_name" : "Bell County",
               "types" : [ "administrative_area_level_2", "political" ]
            },
            {
               "long_name" : "Texas",
               "short_name" : "TX",
               "types" : [ "administrative_area_level_1", "political" ]
            },
            {
               "long_name" : "United States",
               "short_name" : "US",
               "types" : [ "country", "political" ]
            }
         ],
         "formatted_address" : "Airport Road, Temple, TX, USA",
         "geometry" : {
            "bounds" : {
               "northeast" : {
                  "lat" : 31.1757841,
                  "lng" : -97.35894619999999
               },
               "southwest" : {
                  "lat" : 31.1016269,
                  "lng" : -97.43245830000001
               }
            },
            "location" : {
               "lat" : 31.1306799,
               "lng" : -97.4018109
            },
            "location_type" : "GEOMETRIC_CENTER",
            "viewport" : {
               "northeast" : {
                  "lat" : 31.1757841,
                  "lng" : -97.35894619999999
               },
               "southwest" : {
                  "lat" : 31.1016269,
                  "lng" : -97.43245830000001
               }
            }
         },
         "types" : [ "route" ]
      },
      {
         "address_components" : [
            {
               "long_name" : "Ji Chang Lu",
               "short_name" : "Ji Chang Lu",
               "types" : [ "route" ]
            },
            {
               "long_name" : "Daoli Qu",
               "short_name" : "Daoli Qu",
               "types" : [ "sublocality_level_1", "sublocality", "political" ]
            },
            {
               "long_name" : "Haerbin Shi",
               "short_name" : "Haerbin Shi",
               "types" : [ "locality", "political" ]
            },
            {
               "long_name" : "Heilongjiang Sheng",
               "short_name" : "Heilongjiang Sheng",
               "types" : [ "administrative_area_level_1", "political" ]
            },
            {
               "long_name" : "China",
               "short_name" : "CN",
               "types" : [ "country", "political" ]
            }
         ],
         "formatted_address" : "Ji Chang Lu, Daoli Qu, Haerbin Shi, Heilongjiang Sheng, China",
         "geometry" : {
            "bounds" : {
               "northeast" : {
                  "lat" : 45.70945,
                  "lng" : 126.555888
               },
               "southwest" : {
                  "lat" : 45.6355677,
                  "lng" : 126.2566954
               }
            },
            "location" : {
               "lat" : 45.6509014,
               "lng" : 126.410171
            },
            "location_type" : "GEOMETRIC_CENTER",
            "viewport" : {
               "northeast" : {
                  "lat" : 45.70945,
                  "lng" : 126.555888
               },
               "southwest" : {
                  "lat" : 45.6355677,
                  "lng" : 126.2566954
               }
            }
         },
         "types" : [ "route" ]
      },
      {
         "address_components" : [
            {
               "long_name" : "Airport Road",
               "short_name" : "Airport Rd",
               "types" : [ "route" ]
            },
            {
               "long_name" : "Oklahoma City",
               "short_name" : "Oklahoma City",
               "types" : [ "locality", "political" ]
            },
            {
               "long_name" : "Oklahoma County",
               "short_name" : "Oklahoma County",
               "types" : [ "administrative_area_level_2", "political" ]
            },
            {
               "long_name" : "Oklahoma",
               "short_name" : "OK",
               "types" : [ "administrative_area_level_1", "political" ]
            },
            {
               "long_name" : "United States",
               "short_name" : "US",
               "types" : [ "country", "political" ]
            }
         ],
         "formatted_address" : "Airport Road, Oklahoma City, OK, USA",
         "geometry" : {
            "bounds" : {
               "northeast" : {
                  "lat" : 35.42356770000001,
                  "lng" : -97.57919539999999
               },
               "southwest" : {
                  "lat" : 35.4117601,
                  "lng" : -97.65556459999999
               }
            },
            "location" : {
               "lat" : 35.4231477,
               "lng" : -97.6180856
            },
            "location_type" : "GEOMETRIC_CENTER",
            "viewport" : {
               "northeast" : {
                  "lat" : 35.42356770000001,
                  "lng" : -97.57919539999999
               },
               "southwest" : {
                  "lat" : 35.4117601,
                  "lng" : -97.65556459999999
               }
            }
         },
         "types" : [ "route" ]
      },
      {
         "address_components" : [
            {
               "long_name" : "Airport Road",
               "short_name" : "Airport Rd",
               "types" : [ "route" ]
            },
            {
               "long_name" : "Gary",
               "short_name" : "Gary",
               "types" : [ "locality", "political" ]
            },
            {
               "long_name" : "Lake County",
               "short_name" : "Lake County",
               "types" : [ "administrative_area_level_2", "political" ]
            },
            {
               "long_name" : "Indiana",
               "short_name" : "IN",
               "types" : [ "administrative_area_level_1", "political" ]
            },
            {
               "long_name" : "United States",
               "short_name" : "US",
               "types" : [ "country", "political" ]
            },
            {
               "long_name" : "46406",
               "short_name" : "46406",
               "types" : [ "postal_code" ]
            }
         ],
         "formatted_address" : "Airport Road, Gary, IN 46406, USA",
         "geometry" : {
            "bounds" : {
               "northeast" : {
                  "lat" : 41.6395577,
                  "lng" : -87.3759211
               },
               "southwest" : {
                  "lat" : 41.601975,
                  "lng" : -87.43400699999999
               }
            },
            "location" : {
               "lat" : 41.61922999999999,
               "lng" : -87.4069847
            },
            "location_type" : "GEOMETRIC_CENTER",
            "viewport" : {
               "northeast" : {
                  "lat" : 41.6395577,
                  "lng" : -87.3759211
               },
               "southwest" : {
                  "lat" : 41.601975,
                  "lng" : -87.43400699999999
               }
            }
         },
         "types" : [ "route" ]
      },
      {
         "address_components" : [
            {
               "long_name" : "Ji Chang Lu",
               "short_name" : "Ji Chang Lu",
               "types" : [ "route" ]
            },
            {
               "long_name" : "Guiyang Shi",
               "short_name" : "Guiyang Shi",
               "types" : [ "locality", "political" ]
            },
            {
               "long_name" : "Guizhou Sheng",
               "short_name" : "Guizhou Sheng",
               "types" : [ "administrative_area_level_1", "political" ]
            },
            {
               "long_name" : "China",
               "short_name" : "CN",
               "types" : [ "country", "political" ]
            }
         ],
         "formatted_address" : "Ji Chang Lu, Guiyang Shi, Guizhou Sheng, China",
         "geometry" : {
            "bounds" : {
               "northeast" : {
                  "lat" : 26.5607343,
                  "lng" : 106.797611
               },
               "southwest" : {
                  "lat" : 26.532567,
                  "lng" : 106.733266
               }
            },
            "location" : {
               "lat" : 26.5481075,
               "lng" : 106.7715204
            },
            "location_type" : "GEOMETRIC_CENTER",
            "viewport" : {
               "northeast" : {
                  "lat" : 26.5607343,
                  "lng" : 106.797611
               },
               "southwest" : {
                  "lat" : 26.532567,
                  "lng" : 106.733266
               }
            }
         },
         "types" : [ "route" ]
      },
      {
         "address_components" : [
            {
               "long_name" : "Ji Chang Lu",
               "short_name" : "Ji Chang Lu",
               "types" : [ "route" ]
            },
            {
               "long_name" : "Yantai Shi",
               "short_name" : "Yantai Shi",
               "types" : [ "locality", "political" ]
            },
            {
               "long_name" : "Shandong Sheng",
               "short_name" : "Shandong Sheng",
               "types" : [ "administrative_area_level_1", "political" ]
            },
            {
               "long_name" : "China",
               "short_name" : "CN",
               "types" : [ "country", "political" ]
            }
         ],
         "formatted_address" : "Ji Chang Lu, Yantai Shi, Shandong Sheng, China",
         "geometry" : {
            "bounds" : {
               "northeast" : {
                  "lat" : 37.523079,
                  "lng" : 121.371794
               },
               "southwest" : {
                  "lat" : 37.4114515,
                  "lng" : 121.35529
               }
            },
            "location" : {
               "lat" : 37.4673303,
               "lng" : 121.360063
            },
            "location_type" : "GEOMETRIC_CENTER",
            "viewport" : {
               "northeast" : {
                  "lat" : 37.523079,
                  "lng" : 121.371794
               },
               "southwest" : {
                  "lat" : 37.4114515,
                  "lng" : 121.35529
               }
            }
         },
         "types" : [ "route" ]
      },
      {
         "address_components" : [
            {
               "long_name" : "Ji Chang Lu",
               "short_name" : "Ji Chang Lu",
               "types" : [ "route" ]
            },
            {
               "long_name" : "Danyang Shi",
               "short_name" : "Danyang Shi",
               "types" : [ "sublocality_level_1", "sublocality", "political" ]
            },
            {
               "long_name" : "Zhenjiang Shi",
               "short_name" : "Zhenjiang Shi",
               "types" : [ "locality", "political" ]
            },
            {
               "long_name" : "Jiangsu Sheng",
               "short_name" : "Jiangsu Sheng",
               "types" : [ "administrative_area_level_1", "political" ]
            },
            {
               "long_name" : "China",
               "short_name" : "CN",
               "types" : [ "country", "political" ]
            }
         ],
         "formatted_address" : "Ji Chang Lu, Danyang Shi, Zhenjiang Shi, Jiangsu Sheng, China",
         "geometry" : {
            "bounds" : {
               "northeast" : {
                  "lat" : 31.9868037,
                  "lng" : 119.7768023
               },
               "southwest" : {
                  "lat" : 31.9743764,
                  "lng" : 119.6147439
               }
            },
            "location" : {
               "lat" : 31.9857583,
               "lng" : 119.6939863
            },
            "location_type" : "GEOMETRIC_CENTER",
            "viewport" : {
               "northeast" : {
                  "lat" : 31.9868037,
                  "lng" : 119.7768023
               },
               "southwest" : {
                  "lat" : 31.9743764,
                  "lng" : 119.6147439
               }
            }
         },
         "types" : [ "route" ]
      },
      {
         "address_components" : [
            {
               "long_name" : "Ji Chang Lu",
               "short_name" : "Ji Chang Lu",
               "types" : [ "route" ]
            },
            {
               "long_name" : "Suining Xian",
               "short_name" : "Suining Xian",
               "types" : [ "sublocality_level_1", "sublocality", "political" ]
            },
            {
               "long_name" : "Xuzhou Shi",
               "short_name" : "Xuzhou Shi",
               "types" : [ "locality", "political" ]
            },
            {
               "long_name" : "Jiangsu Sheng",
               "short_name" : "Jiangsu Sheng",
               "types" : [ "administrative_area_level_1", "political" ]
            },
            {
               "long_name" : "China",
               "short_name" : "CN",
               "types" : [ "country", "political" ]
            }
         ],
         "formatted_address" : "Ji Chang Lu, Suining Xian, Xuzhou Shi, Jiangsu Sheng, China",
         "geometry" : {
            "bounds" : {
               "northeast" : {
                  "lat" : 34.0484237,
                  "lng" : 117.6396877
               },
               "southwest" : {
                  "lat" : 34.024545,
                  "lng" : 117.5420134
               }
            },
            "location" : {
               "lat" : 34.0350059,
               "lng" : 117.5910195
            },
            "location_type" : "GEOMETRIC_CENTER",
            "viewport" : {
               "northeast" : {
                  "lat" : 34.0484237,
                  "lng" : 117.6396877
               },
               "southwest" : {
                  "lat" : 34.024545,
                  "lng" : 117.5420134
               }
            }
         },
         "types" : [ "route" ]
      },
      {
         "address_components" : [
            {
               "long_name" : "Airport Road",
               "short_name" : "Airport Rd",
               "types" : [ "route" ]
            },
            {
               "long_name" : "Sidney",
               "short_name" : "Sidney",
               "types" : [ "locality", "political" ]
            },
            {
               "long_name" : "Sidney",
               "short_name" : "Sidney",
               "types" : [ "administrative_area_level_3", "political" ]
            },
            {
               "long_name" : "Delaware County",
               "short_name" : "Delaware County",
               "types" : [ "administrative_area_level_2", "political" ]
            },
            {
               "long_name" : "New York",
               "short_name" : "NY",
               "types" : [ "administrative_area_level_1", "political" ]
            },
            {
               "long_name" : "United States",
               "short_name" : "US",
               "types" : [ "country", "political" ]
            },
            {
               "long_name" : "13838",
               "short_name" : "13838",
               "types" : [ "postal_code" ]
            }
         ],
         "formatted_address" : "Airport Road, Sidney, NY 13838, USA",
         "geometry" : {
            "bounds" : {
               "northeast" : {
                  "lat" : 42.3023952,
                  "lng" : -75.4004655
               },
               "southwest" : {
                  "lat" : 42.2908528,
                  "lng" : -75.41260679999999
               }
            },
            "location" : {
               "lat" : 42.2962911,
               "lng" : -75.4062134
            },
            "location_type" : "GEOMETRIC_CENTER",
            "viewport" : {
               "northeast" : {
                  "lat" : 42.3023952,
                  "lng" : -75.4004655
               },
               "southwest" : {
                  "lat" : 42.2908528,
                  "lng" : -75.41260679999999
               }
            }
         },
         "types" : [ "route" ]
      },
      {
         "address_components" : [
            {
               "long_name" : "Airport Road",
               "short_name" : "Airport Rd",
               "types" : [ "route" ]
            },
            {
               "long_name" : "Rolla",
               "short_name" : "Rolla",
               "types" : [ "locality", "political" ]
            },
            {
               "long_name" : "Rolette County",
               "short_name" : "Rolette County",
               "types" : [ "administrative_area_level_2", "political" ]
            },
            {
               "long_name" : "North Dakota",
               "short_name" : "ND",
               "types" : [ "administrative_area_level_1", "political" ]
            },
            {
               "long_name" : "United States",
               "short_name" : "US",
               "types" : [ "country", "political" ]
            },
            {
               "long_name" : "58367",
               "short_name" : "58367",
               "types" : [ "postal_code" ]
            }
         ],
         "formatted_address" : "Airport Road, Rolla, ND 58367, USA",
         "geometry" : {
            "bounds" : {
               "northeast" : {
                  "lat" : 48.97905799999999,
                  "lng" : -99.61346309999999
               },
               "southwest" : {
                  "lat" : 48.7292978,
                  "lng" : -99.615904
               }
            },
            "location" : {
               "lat" : 48.8519726,
               "lng" : -99.6136865
            },
            "location_type" : "GEOMETRIC_CENTER",
            "viewport" : {
               "northeast" : {
                  "lat" : 48.97905799999999,
                  "lng" : -99.61333456970848
               },
               "southwest" : {
                  "lat" : 48.7292978,
                  "lng" : -99.61603253029151
               }
            }
         },
         "types" : [ "route" ]
      },
      {
         "address_components" : [
            {
               "long_name" : "Ji Chang Lu",
               "short_name" : "Ji Chang Lu",
               "types" : [ "route" ]
            },
            {
               "long_name" : "Kunshan Shi",
               "short_name" : "Kunshan Shi",
               "types" : [ "sublocality_level_1", "sublocality", "political" ]
            },
            {
               "long_name" : "Suzhou Shi",
               "short_name" : "Suzhou Shi",
               "types" : [ "locality", "political" ]
            },
            {
               "long_name" : "Jiangsu Sheng",
               "short_name" : "Jiangsu Sheng",
               "types" : [ "administrative_area_level_1", "political" ]
            },
            {
               "long_name" : "China",
               "short_name" : "CN",
               "types" : [ "country", "political" ]
            }
         ],
         "formatted_address" : "Ji Chang Lu, Kunshan Shi, Suzhou Shi, Jiangsu Sheng, China",
         "geometry" : {
            "bounds" : {
               "northeast" : {
                  "lat" : 31.260527,
                  "lng" : 121.0647665
               },
               "southwest" : {
                  "lat" : 31.1890727,
                  "lng" : 121.0352937
               }
            },
            "location" : {
               "lat" : 31.2245279,
               "lng" : 121.0569019
            },
            "location_type" : "GEOMETRIC_CENTER",
            "viewport" : {
               "northeast" : {
                  "lat" : 31.260527,
                  "lng" : 121.0647665
               },
               "southwest" : {
                  "lat" : 31.1890727,
                  "lng" : 121.0352937
               }
            }
         },
         "types" : [ "route" ]
      },
      {
         "address_components" : [
            {
               "long_name" : "Ji Chang Lu",
               "short_name" : "Ji Chang Lu",
               "types" : [ "route" ]
            },
            {
               "long_name" : "Yiwu Shi",
               "short_name" : "Yiwu Shi",
               "types" : [ "sublocality_level_1", "sublocality", "political" ]
            },
            {
               "long_name" : "Jinhua Shi",
               "short_name" : "Jinhua Shi",
               "types" : [ "locality", "political" ]
            },
            {
               "long_name" : "Zhejiang Sheng",
               "short_name" : "Zhejiang Sheng",
               "types" : [ "administrative_area_level_1", "political" ]
            },
            {
               "long_name" : "China",
               "short_name" : "CN",
               "types" : [ "country", "political" ]
            }
         ],
         "formatted_address" : "Ji Chang Lu, Yiwu Shi, Jinhua Shi, Zhejiang Sheng, China",
         "geometry" : {
            "bounds" : {
               "northeast" : {
                  "lat" : 29.3818574,
                  "lng" : 120.0803132
               },
               "southwest" : {
                  "lat" : 29.31217,
                  "lng" : 120.0271496
               }
            },
            "location" : {
               "lat" : 29.3464244,
               "lng" : 120.0519051
            },
            "location_type" : "GEOMETRIC_CENTER",
            "viewport" : {
               "northeast" : {
                  "lat" : 29.3818574,
                  "lng" : 120.0803132
               },
               "southwest" : {
                  "lat" : 29.31217,
                  "lng" : 120.0271496
               }
            }
         },
         "types" : [ "route" ]
      },
      {
         "address_components" : [
            {
               "long_name" : "Airport Road",
               "short_name" : "Airport Rd",
               "types" : [ "route" ]
            },
            {
               "long_name" : "Abuja",
               "short_name" : "Abuja",
               "types" : [ "locality", "political" ]
            },
            {
               "long_name" : "Federal Capital Territory",
               "short_name" : "FCT",
               "types" : [ "administrative_area_level_1", "political" ]
            },
            {
               "long_name" : "Nigeria",
               "short_name" : "NG",
               "types" : [ "country", "political" ]
            }
         ],
         "formatted_address" : "Airport Road, Abuja, Nigeria",
         "geometry" : {
            "bounds" : {
               "northeast" : {
                  "lat" : 9.0395284,
                  "lng" : 7.502029599999999
               },
               "southwest" : {
                  "lat" : 8.9393251,
                  "lng" : 7.1546178
               }
            },
            "location" : {
               "lat" : 8.9645533,
               "lng" : 7.347841499999999
            },
            "location_type" : "GEOMETRIC_CENTER",
            "viewport" : {
               "northeast" : {
                  "lat" : 9.0395284,
                  "lng" : 7.502029599999999
               },
               "southwest" : {
                  "lat" : 8.9393251,
                  "lng" : 7.1546178
               }
            }
         },
         "types" : [ "route" ]
      },
      {
         "address_components" : [
            {
               "long_name" : "Ji Chang Lu",
               "short_name" : "Ji Chang Lu",
               "types" : [ "route" ]
            },
            {
               "long_name" : "Yanhu Qu",
               "short_name" : "Yanhu Qu",
               "types" : [ "sublocality_level_1", "sublocality", "political" ]
            },
            {
               "long_name" : "Yuncheng Shi",
               "short_name" : "Yuncheng Shi",
               "types" : [ "locality", "political" ]
            },
            {
               "long_name" : "Shanxi Sheng",
               "short_name" : "Shanxi Sheng",
               "types" : [ "administrative_area_level_1", "political" ]
            },
            {
               "long_name" : "China",
               "short_name" : "CN",
               "types" : [ "country", "political" ]
            }
         ],
         "formatted_address" : "Ji Chang Lu, Yanhu Qu, Yuncheng Shi, Shanxi Sheng, China",
         "geometry" : {
            "bounds" : {
               "northeast" : {
                  "lat" : 35.0962918,
                  "lng" : 111.0538837
               },
               "southwest" : {
                  "lat" : 35.0401277,
                  "lng" : 111.0042774
               }
            },
            "location" : {
               "lat" : 35.0684576,
               "lng" : 111.0289575
            },
            "location_type" : "GEOMETRIC_CENTER",
            "viewport" : {
               "northeast" : {
                  "lat" : 35.0962918,
                  "lng" : 111.0538837
               },
               "southwest" : {
                  "lat" : 35.0401277,
                  "lng" : 111.0042774
               }
            }
         },
         "types" : [ "route" ]
      },
      {
         "address_components" : [
            {
               "long_name" : "Airport Road",
               "short_name" : "Airport Rd",
               "types" : [ "route" ]
            },
            {
               "long_name" : "Pennsylvania",
               "short_name" : "PA",
               "types" : [ "administrative_area_level_1", "political" ]
            },
            {
               "long_name" : "United States",
               "short_name" : "US",
               "types" : [ "country", "political" ]
            }
         ],
         "formatted_address" : "Airport Road, Pennsylvania, USA",
         "geometry" : {
            "bounds" : {
               "northeast" : {
                  "lat" : 40.7339911,
                  "lng" : -75.412526
               },
               "southwest" : {
                  "lat" : 40.624062,
                  "lng" : -75.44340439999999
               }
            },
            "location" : {
               "lat" : 40.6766745,
               "lng" : -75.4176988
            },
            "location_type" : "GEOMETRIC_CENTER",
            "viewport" : {
               "northeast" : {
                  "lat" : 40.7339911,
                  "lng" : -75.412526
               },
               "southwest" : {
                  "lat" : 40.624062,
                  "lng" : -75.44340439999999
               }
            }
         },
         "types" : [ "route" ]
      },
      {
         "address_components" : [
            {
               "long_name" : "Airport Road",
               "short_name" : "Airport Rd",
               "types" : [ "route" ]
            },
            {
               "long_name" : "Lakeland",
               "short_name" : "Lakeland",
               "types" : [ "locality", "political" ]
            },
            {
               "long_name" : "Florida",
               "short_name" : "FL",
               "types" : [ "administrative_area_level_1", "political" ]
            },
            {
               "long_name" : "United States",
               "short_name" : "US",
               "types" : [ "country", "political" ]
            }
         ],
         "formatted_address" : "Airport Road, Lakeland, FL, USA",
         "geometry" : {
            "bounds" : {
               "northeast" : {
                  "lat" : 32.9454935,
                  "lng" : -82.0116886
               },
               "southwest" : {
                  "lat" : 27.9967107,
                  "lng" : -104.793767
               }
            },
            "location" : {
               "lat" : 30.8727816,
               "lng" : -96.61915759999999
            },
            "location_type" : "GEOMETRIC_CENTER",
            "viewport" : {
               "northeast" : {
                  "lat" : 32.9454935,
                  "lng" : -82.0116886
               },
               "southwest" : {
                  "lat" : 27.9967107,
                  "lng" : -104.793767
               }
            }
         },
         "types" : [ "route" ]
      },
      {
         "address_components" : [
            {
               "long_name" : "Airport Road",
               "short_name" : "Airport Rd",
               "types" : [ "route" ]
            },
            {
               "long_name" : "Sutton",
               "short_name" : "Sutton",
               "types" : [ "locality", "political" ]
            },
            {
               "long_name" : "Eastern",
               "short_name" : "Eastern",
               "types" : [ "administrative_area_level_3", "political" ]
            },
            {
               "long_name" : "Braxton County",
               "short_name" : "Braxton County",
               "types" : [ "administrative_area_level_2", "political" ]
            },
            {
               "long_name" : "West Virginia",
               "short_name" : "WV",
               "types" : [ "administrative_area_level_1", "political" ]
            },
            {
               "long_name" : "United States",
               "short_name" : "US",
               "types" : [ "country", "political" ]
            },
            {
               "long_name" : "26601",
               "short_name" : "26601",
               "types" : [ "postal_code" ]
            }
         ],
         "formatted_address" : "Airport Road, Sutton, WV 26601, USA",
         "geometry" : {
            "bounds" : {
               "northeast" : {
                  "lat" : 38.7093244,
                  "lng" : -80.55512759999999
               },
               "southwest" : {
                  "lat" : 38.6752509,
                  "lng" : -80.67491129999999
               }
            },
            "location" : {
               "lat" : 38.6982593,
               "lng" : -80.6224814
            },
            "location_type" : "GEOMETRIC_CENTER",
            "viewport" : {
               "northeast" : {
                  "lat" : 38.7093244,
                  "lng" : -80.55512759999999
               },
               "southwest" : {
                  "lat" : 38.6752509,
                  "lng" : -80.67491129999999
               }
            }
         },
         "types" : [ "route" ]
      },
      {
         "address_components" : [
            {
               "long_name" : "Ji Chang Lu",
               "short_name" : "Ji Chang Lu",
               "types" : [ "route" ]
            },
            {
               "long_name" : "Liangping Xian",
               "short_name" : "Liangping Xian",
               "types" : [ "sublocality_level_1", "sublocality", "political" ]
            },
            {
               "long_name" : "Chongqing",
               "short_name" : "Chongqing",
               "types" : [ "locality", "political" ]
            },
            {
               "long_name" : "Chongqing Shi",
               "short_name" : "Chongqing Shi",
               "types" : [ "administrative_area_level_1", "political" ]
            },
            {
               "long_name" : "China",
               "short_name" : "CN",
               "types" : [ "country", "political" ]
            }
         ],
         "formatted_address" : "Ji Chang Lu, Liangping Xian, Chongqing Shi, China",
         "geometry" : {
            "bounds" : {
               "northeast" : {
                  "lat" : 30.7141798,
                  "lng" : 107.8172319
               },
               "southwest" : {
                  "lat" : 30.661613,
                  "lng" : 107.778391
               }
            },
            "location" : {
               "lat" : 30.6816018,
               "lng" : 107.8035433
            },
            "location_type" : "GEOMETRIC_CENTER",
            "viewport" : {
               "northeast" : {
                  "lat" : 30.7141798,
                  "lng" : 107.8172319
               },
               "southwest" : {
                  "lat" : 30.661613,
                  "lng" : 107.778391
               }
            }
         },
         "types" : [ "route" ]
      },
      {
         "address_components" : [
            {
               "long_name" : "Ji Chang Lu",
               "short_name" : "Ji Chang Lu",
               "types" : [ "route" ]
            },
            {
               "long_name" : "Yuhuatai Qu",
               "short_name" : "Yuhuatai Qu",
               "types" : [ "sublocality_level_1", "sublocality", "political" ]
            },
            {
               "long_name" : "Nanjing Shi",
               "short_name" : "Nanjing Shi",
               "types" : [ "locality", "political" ]
            },
            {
               "long_name" : "Jiangsu Sheng",
               "short_name" : "Jiangsu Sheng",
               "types" : [ "administrative_area_level_1", "political" ]
            },
            {
               "long_name" : "China",
               "short_name" : "CN",
               "types" : [ "country", "political" ]
            }
         ],
         "formatted_address" : "Ji Chang Lu, Yuhuatai Qu, Nanjing Shi, Jiangsu Sheng, China",
         "geometry" : {
            "bounds" : {
               "northeast" : {
                  "lat" : 31.9924779,
                  "lng" : 118.7833187
               },
               "southwest" : {
                  "lat" : 31.9749062,
                  "lng" : 118.7810034
               }
            },
            "location" : {
               "lat" : 31.9842163,
               "lng" : 118.7819114
            },
            "location_type" : "GEOMETRIC_CENTER",
            "viewport" : {
               "northeast" : {
                  "lat" : 31.9924779,
                  "lng" : 118.7835100302915
               },
               "southwest" : {
                  "lat" : 31.9749062,
                  "lng" : 118.7808120697085
               }
            }
         },
         "types" : [ "route" ]
      },
      {
         "address_components" : [
            {
               "long_name" : "Airport Road",
               "short_name" : "Airport Rd",
               "types" : [ "route" ]
            },
            {
               "long_name" : "Tennessee",
               "short_name" : "TN",
               "types" : [ "administrative_area_level_1", "political" ]
            },
            {
               "long_name" : "United States",
               "short_name" : "US",
               "types" : [ "country", "political" ]
            }
         ],
         "formatted_address" : "Airport Road, Tennessee, USA",
         "geometry" : {
            "bounds" : {
               "northeast" : {
                  "lat" : 35.9896028,
                  "lng" : -84.560092
               },
               "southwest" : {
                  "lat" : 35.9272287,
                  "lng" : -84.690247
               }
            },
            "location" : {
               "lat" : 35.9705585,
               "lng" : -84.62025489999999
            },
            "location_type" : "GEOMETRIC_CENTER",
            "viewport" : {
               "northeast" : {
                  "lat" : 35.9896028,
                  "lng" : -84.560092
               },
               "southwest" : {
                  "lat" : 35.9272287,
                  "lng" : -84.690247
               }
            }
         },
         "types" : [ "route" ]
      },
      {
         "address_components" : [
            {
               "long_name" : "Airport Road",
               "short_name" : "Airport Rd",
               "types" : [ "route" ]
            },
            {
               "long_name" : "Rankin County",
               "short_name" : "Rankin County",
               "types" : [ "administrative_area_level_2", "political" ]
            },
            {
               "long_name" : "Mississippi",
               "short_name" : "MS",
               "types" : [ "administrative_area_level_1", "political" ]
            },
            {
               "long_name" : "United States",
               "short_name" : "US",
               "types" : [ "country", "political" ]
            }
         ],
         "formatted_address" : "Airport Road, Mississippi, USA",
         "geometry" : {
            "bounds" : {
               "northeast" : {
                  "lat" : 32.3382427,
                  "lng" : -90.07398929999999
               },
               "southwest" : {
                  "lat" : 32.283615,
                  "lng" : -90.0929014
               }
            },
            "location" : {
               "lat" : 32.30991960000001,
               "lng" : -90.0872102
            },
            "location_type" : "GEOMETRIC_CENTER",
            "viewport" : {
               "northeast" : {
                  "lat" : 32.3382427,
                  "lng" : -90.07398929999999
               },
               "southwest" : {
                  "lat" : 32.283615,
                  "lng" : -90.0929014
               }
            }
         },
         "types" : [ "route" ]
      },
      {
         "address_components" : [
            {
               "long_name" : "Ji Chang Lu",
               "short_name" : "Ji Chang Lu",
               "types" : [ "route" ]
            },
            {
               "long_name" : "Wuzhong Qu",
               "short_name" : "Wuzhong Qu",
               "types" : [ "sublocality_level_1", "sublocality", "political" ]
            },
            {
               "long_name" : "Suzhou Shi",
               "short_name" : "Suzhou Shi",
               "types" : [ "locality", "political" ]
            },
            {
               "long_name" : "Jiangsu Sheng",
               "short_name" : "Jiangsu Sheng",
               "types" : [ "administrative_area_level_1", "political" ]
            },
            {
               "long_name" : "China",
               "short_name" : "CN",
               "types" : [ "country", "political" ]
            },
            {
               "long_name" : "215127",
               "short_name" : "215127",
               "types" : [ "postal_code" ]
            }
         ],
         "formatted_address" : "Ji Chang Lu, Wuzhong Qu, Suzhou Shi, Jiangsu Sheng, China, 215127",
         "geometry" : {
            "bounds" : {
               "northeast" : {
                  "lat" : 31.2870331,
                  "lng" : 120.8753354
               },
               "southwest" : {
                  "lat" : 31.2763199,
                  "lng" : 120.8208496
               }
            },
            "location" : {
               "lat" : 31.2782197,
               "lng" : 120.847283
            },
            "location_type" : "GEOMETRIC_CENTER",
            "viewport" : {
               "northeast" : {
                  "lat" : 31.2870331,
                  "lng" : 120.8753354
               },
               "southwest" : {
                  "lat" : 31.2763199,
                  "lng" : 120.8208496
               }
            }
         },
         "types" : [ "route" ]
      },
      {
         "address_components" : [
            {
               "long_name" : "Airport Road",
               "short_name" : "A 231",
               "types" : [ "route" ]
            },
            {
               "long_name" : "Port Harcourt",
               "short_name" : "Port Harcourt",
               "types" : [ "locality", "political" ]
            },
            {
               "long_name" : "Rivers",
               "short_name" : "Rivers",
               "types" : [ "administrative_area_level_1", "political" ]
            },
            {
               "long_name" : "Nigeria",
               "short_name" : "NG",
               "types" : [ "country", "political" ]
            }
         ],
         "formatted_address" : "Airport Road, Port Harcourt, Nigeria",
         "geometry" : {
            "bounds" : {
               "northeast" : {
                  "lat" : 4.956504000000001,
                  "lng" : 7.0118347
               },
               "southwest" : {
                  "lat" : 4.8671617,
                  "lng" : 6.9970326
               }
            },
            "location" : {
               "lat" : 4.909979,
               "lng" : 6.9986213
            },
            "location_type" : "GEOMETRIC_CENTER",
            "viewport" : {
               "northeast" : {
                  "lat" : 4.956504000000001,
                  "lng" : 7.0118347
               },
               "southwest" : {
                  "lat" : 4.8671617,
                  "lng" : 6.9970326
               }
            }
         },
         "types" : [ "route" ]
      },
      {
         "address_components" : [
            {
               "long_name" : "Ji Chang Lu",
               "short_name" : "Ji Chang Lu",
               "types" : [ "route" ]
            },
            {
               "long_name" : "Lishui Qu",
               "short_name" : "Lishui Qu",
               "types" : [ "sublocality_level_1", "sublocality", "political" ]
            },
            {
               "long_name" : "Nanjing Shi",
               "short_name" : "Nanjing Shi",
               "types" : [ "locality", "political" ]
            },
            {
               "long_name" : "Jiangsu Sheng",
               "short_name" : "Jiangsu Sheng",
               "types" : [ "administrative_area_level_1", "political" ]
            },
            {
               "long_name" : "China",
               "short_name" : "CN",
               "types" : [ "country", "political" ]
            }
         ],
         "formatted_address" : "Ji Chang Lu, Lishui Qu, Nanjing Shi, Jiangsu Sheng, China",
         "geometry" : {
            "bounds" : {
               "northeast" : {
                  "lat" : 31.6773678,
                  "lng" : 119.0618301
               },
               "southwest" : {
                  "lat" : 31.6748562,
                  "lng" : 119.0187648
               }
            },
            "location" : {
               "lat" : 31.67651729999999,
               "lng" : 119.0410126
            },
            "location_type" : "GEOMETRIC_CENTER",
            "viewport" : {
               "northeast" : {
                  "lat" : 31.6774609802915,
                  "lng" : 119.0618301
               },
               "southwest" : {
                  "lat" : 31.6747630197085,
                  "lng" : 119.0187648
               }
            }
         },
         "types" : [ "route" ]
      },
      {
         "address_components" : [
            {
               "long_name" : "Airport Road",
               "short_name" : "Airport Rd",
               "types" : [ "route" ]
            },
            {
               "long_name" : "Santa Fe",
               "short_name" : "Santa Fe",
               "types" : [ "locality", "political" ]
            },
            {
               "long_name" : "Santa Fe County",
               "short_name" : "Santa Fe County",
               "types" : [ "administrative_area_level_2", "political" ]
            },
            {
               "long_name" : "New Mexico",
               "short_name" : "NM",
               "types" : [ "administrative_area_level_1", "political" ]
            },
            {
               "long_name" : "United States",
               "short_name" : "US",
               "types" : [ "country", "political" ]
            },
            {
               "long_name" : "87507",
               "short_name" : "87507",
               "types" : [ "postal_code" ]
            }
         ],
         "formatted_address" : "Airport Road, Santa Fe, NM 87507, USA",
         "geometry" : {
            "bounds" : {
               "northeast" : {
                  "lat" : 35.641677,
                  "lng" : -106.0172242
               },
               "southwest" : {
                  "lat" : 35.631668,
                  "lng" : -106.071162
               }
            },
            "location" : {
               "lat" : 35.6358912,
               "lng" : -106.0440356
            },
            "location_type" : "GEOMETRIC_CENTER",
            "viewport" : {
               "northeast" : {
                  "lat" : 35.641677,
                  "lng" : -106.0172242
               },
               "southwest" : {
                  "lat" : 35.631668,
                  "lng" : -106.071162
               }
            }
         },
         "types" : [ "route" ]
      },
      {
         "address_components" : [
            {
               "long_name" : "Airport Road",
               "short_name" : "Airport Rd",
               "types" : [ "route" ]
            },
            {
               "long_name" : "Bluefield",
               "short_name" : "Bluefield",
               "types" : [ "locality", "political" ]
            },
            {
               "long_name" : "Mercer County",
               "short_name" : "Mercer County",
               "types" : [ "administrative_area_level_2", "political" ]
            },
            {
               "long_name" : "West Virginia",
               "short_name" : "WV",
               "types" : [ "administrative_area_level_1", "political" ]
            },
            {
               "long_name" : "United States",
               "short_name" : "US",
               "types" : [ "country", "political" ]
            },
            {
               "long_name" : "24701",
               "short_name" : "24701",
               "types" : [ "postal_code" ]
            }
         ],
         "formatted_address" : "Airport Road, Bluefield, WV 24701, USA",
         "geometry" : {
            "bounds" : {
               "northeast" : {
                  "lat" : 37.3061269,
                  "lng" : -81.17424099999999
               },
               "southwest" : {
                  "lat" : 37.282242,
                  "lng" : -81.250466
               }
            },
            "location" : {
               "lat" : 37.2930135,
               "lng" : -81.2108599
            },
            "location_type" : "GEOMETRIC_CENTER",
            "viewport" : {
               "northeast" : {
                  "lat" : 37.3061269,
                  "lng" : -81.17424099999999
               },
               "southwest" : {
                  "lat" : 37.282242,
                  "lng" : -81.250466
               }
            }
         },
         "types" : [ "route" ]
      },
      {
         "address_components" : [
            {
               "long_name" : "Airport Road",
               "short_name" : "Airport Rd",
               "types" : [ "route" ]
            },
            {
               "long_name" : "Savannah",
               "short_name" : "Savannah",
               "types" : [ "locality", "political" ]
            },
            {
               "long_name" : "Hardin County",
               "short_name" : "Hardin County",
               "types" : [ "administrative_area_level_2", "political" ]
            },
            {
               "long_name" : "Tennessee",
               "short_name" : "TN",
               "types" : [ "administrative_area_level_1", "political" ]
            },
            {
               "long_name" : "United States",
               "short_name" : "US",
               "types" : [ "country", "political" ]
            },
            {
               "long_name" : "38372",
               "short_name" : "38372",
               "types" : [ "postal_code" ]
            }
         ],
         "formatted_address" : "Airport Road, Savannah, TN 38372, USA",
         "geometry" : {
            "bounds" : {
               "northeast" : {
                  "lat" : 35.2264563,
                  "lng" : -88.1991682
               },
               "southwest" : {
                  "lat" : 35.14315819999999,
                  "lng" : -88.2505104
               }
            },
            "location" : {
               "lat" : 35.1805233,
               "lng" : -88.2096682
            },
            "location_type" : "GEOMETRIC_CENTER",
            "viewport" : {
               "northeast" : {
                  "lat" : 35.2264563,
                  "lng" : -88.1991682
               },
               "southwest" : {
                  "lat" : 35.14315819999999,
                  "lng" : -88.2505104
               }
            }
         },
         "types" : [ "route" ]
      },
      {
         "address_components" : [
            {
               "long_name" : "Airport Road",
               "short_name" : "Airport Rd",
               "types" : [ "route" ]
            },
            {
               "long_name" : "Chapel Hill",
               "short_name" : "Chapel Hill",
               "types" : [ "locality", "political" ]
            },
            {
               "long_name" : "Chapel Hill",
               "short_name" : "Chapel Hill",
               "types" : [ "administrative_area_level_3", "political" ]
            },
            {
               "long_name" : "Orange County",
               "short_name" : "Orange County",
               "types" : [ "administrative_area_level_2", "political" ]
            },
            {
               "long_name" : "North Carolina",
               "short_name" : "NC",
               "types" : [ "administrative_area_level_1", "political" ]
            },
            {
               "long_name" : "United States",
               "short_name" : "US",
               "types" : [ "country", "political" ]
            }
         ],
         "formatted_address" : "Airport Road, Chapel Hill, NC, USA",
         "geometry" : {
            "bounds" : {
               "northeast" : {
                  "lat" : 35.972635,
                  "lng" : -79.053799
               },
               "southwest" : {
                  "lat" : 35.9152344,
                  "lng" : -79.06576150000001
               }
            },
            "location" : {
               "lat" : 35.94417240000001,
               "lng" : -79.0579334
            },
            "location_type" : "GEOMETRIC_CENTER",
            "viewport" : {
               "northeast" : {
                  "lat" : 35.972635,
                  "lng" : -79.053799
               },
               "southwest" : {
                  "lat" : 35.9152344,
                  "lng" : -79.06576150000001
               }
            }
         },
         "types" : [ "route" ]
      },
      {
         "address_components" : [
            {
               "long_name" : "Airport Road",
               "short_name" : "Airport Rd",
               "types" : [ "route" ]
            },
            {
               "long_name" : "Broome County",
               "short_name" : "Broome County",
               "types" : [ "administrative_area_level_2", "political" ]
            },
            {
               "long_name" : "New York",
               "short_name" : "NY",
               "types" : [ "administrative_area_level_1", "political" ]
            },
            {
               "long_name" : "United States",
               "short_name" : "US",
               "types" : [ "country", "political" ]
            }
         ],
         "formatted_address" : "Airport Road, New York, USA",
         "geometry" : {
            "bounds" : {
               "northeast" : {
                  "lat" : 42.21144109999999,
                  "lng" : -75.936168
               },
               "southwest" : {
                  "lat" : 42.1183498,
                  "lng" : -75.99493799999999
               }
            },
            "location" : {
               "lat" : 42.1743009,
               "lng" : -75.9596305
            },
            "location_type" : "GEOMETRIC_CENTER",
            "viewport" : {
               "northeast" : {
                  "lat" : 42.21144109999999,
                  "lng" : -75.936168
               },
               "southwest" : {
                  "lat" : 42.1183498,
                  "lng" : -75.99493799999999
               }
            }
         },
         "types" : [ "route" ]
      }
   ],
   "status" : "OK"
}
