{
   "results" : [
      {
         "address_components" : [
            {
               "long_name" : "Chembur",
               "short_name" : "Chembur",
               "types" : [ "sublocality_level_1", "sublocality", "political" ]
            },
            {
               "long_name" : "Mumbai",
               "short_name" : "Mumbai",
               "types" : [ "locality", "political" ]
            },
            {
               "long_name" : "Mumbai Suburban",
               "short_name" : "Mumbai Suburban",
               "types" : [ "administrative_area_level_2", "political" ]
            },
            {
               "long_name" : "Maharashtra",
               "short_name" : "MH",
               "types" : [ "administrative_area_level_1", "political" ]
            },
            {
               "long_name" : "India",
               "short_name" : "IN",
               "types" : [ "country", "political" ]
            }
         ],
         "formatted_address" : "Chembur, Mumbai, Maharashtra, India",
         "geometry" : {
            "bounds" : {
               "northeast" : {
                  "lat" : 19.072711,
                  "lng" : 72.9251641
               },
               "southwest" : {
                  "lat" : 19.0214429,
                  "lng" : 72.87719899999999
               }
            },
            "location" : {
               "lat" : 19.0327996,
               "lng" : 72.89635679999999
            },
            "location_type" : "APPROXIMATE",
            "viewport" : {
               "northeast" : {
                  "lat" : 19.072711,
                  "lng" : 72.9251641
               },
               "southwest" : {
                  "lat" : 19.0214429,
                  "lng" : 72.87719899999999
               }
            }
         },
         "partial_match" : true,
         "types" : [ "sublocality_level_1", "sublocality", "political" ]
      },
      {
         "address_components" : [
            {
               "long_name" : "Kurla East",
               "short_name" : "Kurla East",
               "types" : [ "sublocality_level_1", "sublocality", "political" ]
            },
            {
               "long_name" : "Mumbai",
               "short_name" : "Mumbai",
               "types" : [ "locality", "political" ]
            },
            {
               "long_name" : "Mumbai Suburban",
               "short_name" : "Mumbai Suburban",
               "types" : [ "administrative_area_level_2", "political" ]
            },
            {
               "long_name" : "Maharashtra",
               "short_name" : "MH",
               "types" : [ "administrative_area_level_1", "political" ]
            },
            {
               "long_name" : "India",
               "short_name" : "IN",
               "types" : [ "country", "political" ]
            }
         ],
         "formatted_address" : "Kurla East, Mumbai, Maharashtra, India",
         "geometry" : {
            "bounds" : {
               "northeast" : {
                  "lat" : 19.067422,
                  "lng" : 72.8890514
               },
               "southwest" : {
                  "lat" : 19.053466,
                  "lng" : 72.87165709999999
               }
            },
            "location" : {
               "lat" : 19.0620527,
               "lng" : 72.88343549999999
            },
            "location_type" : "APPROXIMATE",
            "viewport" : {
               "northeast" : {
                  "lat" : 19.067422,
                  "lng" : 72.8890514
               },
               "southwest" : {
                  "lat" : 19.053466,
                  "lng" : 72.87165709999999
               }
            }
         },
         "partial_match" : true,
         "types" : [ "sublocality_level_1", "sublocality", "political" ]
      }
   ],
   "status" : "OK"
}
