{
   "results" : [
      {
         "address_components" : [
            {
               "long_name" : "Bhau Patil Road",
               "short_name" : "Bhau Patil Rd",
               "types" : [ "route" ]
            },
            {
               "long_name" : "Bopodi",
               "short_name" : "Bopodi",
               "types" : [ "sublocality_level_1", "sublocality", "political" ]
            },
            {
               "long_name" : "Pune",
               "short_name" : "Pune",
               "types" : [ "locality", "political" ]
            },
            {
               "long_name" : "Pune",
               "short_name" : "Pune",
               "types" : [ "administrative_area_level_2", "political" ]
            },
            {
               "long_name" : "Maharashtra",
               "short_name" : "MH",
               "types" : [ "administrative_area_level_1", "political" ]
            },
            {
               "long_name" : "India",
               "short_name" : "IN",
               "types" : [ "country", "political" ]
            }
         ],
         "formatted_address" : "Bhau Patil Road, Bopodi, Pune, Maharashtra, India",
         "geometry" : {
            "bounds" : {
               "northeast" : {
                  "lat" : 18.5745462,
                  "lng" : 73.8371193
               },
               "southwest" : {
                  "lat" : 18.56254,
                  "lng" : 73.8280549
               }
            },
            "location" : {
               "lat" : 18.5688411,
               "lng" : 73.83233419999999
            },
            "location_type" : "GEOMETRIC_CENTER",
            "viewport" : {
               "northeast" : {
                  "lat" : 18.5745462,
                  "lng" : 73.8371193
               },
               "southwest" : {
                  "lat" : 18.56254,
                  "lng" : 73.8280549
               }
            }
         },
         "partial_match" : true,
         "types" : [ "route" ]
      },
      {
         "address_components" : [
            {
               "long_name" : "Malwana Bhau Road",
               "short_name" : "Malwana Bhau Road",
               "types" : [ "route" ]
            },
            {
               "long_name" : "Malwana",
               "short_name" : "Malwana",
               "types" : [ "locality", "political" ]
            },
            {
               "long_name" : "Gujrat",
               "short_name" : "Gujrat",
               "types" : [ "administrative_area_level_2", "political" ]
            },
            {
               "long_name" : "Punjab",
               "short_name" : "Punjab",
               "types" : [ "administrative_area_level_1", "political" ]
            },
            {
               "long_name" : "Pakistan",
               "short_name" : "PK",
               "types" : [ "country", "political" ]
            }
         ],
         "formatted_address" : "Malwana Bhau Road, Malwana, Pakistan",
         "geometry" : {
            "bounds" : {
               "northeast" : {
                  "lat" : 32.7414302,
                  "lng" : 73.7538385
               },
               "southwest" : {
                  "lat" : 32.7289749,
                  "lng" : 73.7500012
               }
            },
            "location" : {
               "lat" : 32.7350809,
               "lng" : 73.7528944
            },
            "location_type" : "GEOMETRIC_CENTER",
            "viewport" : {
               "northeast" : {
                  "lat" : 32.7414302,
                  "lng" : 73.7538385
               },
               "southwest" : {
                  "lat" : 32.7289749,
                  "lng" : 73.7500012
               }
            }
         },
         "partial_match" : true,
         "types" : [ "route" ]
      },
      {
         "address_components" : [
            {
               "long_name" : "Dr Rajurkar Bhau M",
               "short_name" : "Dr Rajurkar Bhau M",
               "types" : [ "point_of_interest", "establishment" ]
            },
            {
               "long_name" : "Baba Farid Nagar",
               "short_name" : "Baba Farid Nagar",
               "types" : [ "neighborhood", "political" ]
            },
            {
               "long_name" : "Sitabuldi",
               "short_name" : "Sitabuldi",
               "types" : [ "sublocality_level_1", "sublocality", "political" ]
            },
            {
               "long_name" : "Nagpur",
               "short_name" : "Nagpur",
               "types" : [ "locality", "political" ]
            },
            {
               "long_name" : "Nagpur",
               "short_name" : "Nagpur",
               "types" : [ "administrative_area_level_2", "political" ]
            },
            {
               "long_name" : "Maharashtra",
               "short_name" : "MH",
               "types" : [ "administrative_area_level_1", "political" ]
            },
            {
               "long_name" : "India",
               "short_name" : "IN",
               "types" : [ "country", "political" ]
            },
            {
               "long_name" : "440022",
               "short_name" : "440022",
               "types" : [ "postal_code" ]
            }
         ],
         "formatted_address" : "Dr Rajurkar Bhau M, Baba Farid Nagar, Sitabuldi, Nagpur, Maharashtra 440022, India",
         "geometry" : {
            "location" : {
               "lat" : 21.1458004,
               "lng" : 79.0881546
            },
            "location_type" : "APPROXIMATE",
            "viewport" : {
               "northeast" : {
                  "lat" : 21.1471493802915,
                  "lng" : 79.08950358029151
               },
               "southwest" : {
                  "lat" : 21.1444514197085,
                  "lng" : 79.08680561970849
               }
            }
         },
         "partial_match" : true,
         "types" : [ "doctor", "point_of_interest", "health", "establishment" ]
      },
      {
         "address_components" : [
            {
               "long_name" : "Dr Bhau Daji Lad Museum",
               "short_name" : "Dr Bhau Daji Lad Museum",
               "types" : [ "establishment" ]
            },
            {
               "long_name" : "Byculla East",
               "short_name" : "Byculla East",
               "types" : [ "sublocality_level_2", "sublocality", "political" ]
            },
            {
               "long_name" : "Byculla",
               "short_name" : "Byculla",
               "types" : [ "sublocality_level_1", "sublocality", "political" ]
            },
            {
               "long_name" : "Mumbai",
               "short_name" : "Mumbai",
               "types" : [ "locality", "political" ]
            },
            {
               "long_name" : "Mumbai",
               "short_name" : "Mumbai",
               "types" : [ "administrative_area_level_2", "political" ]
            },
            {
               "long_name" : "Maharashtra",
               "short_name" : "MH",
               "types" : [ "administrative_area_level_1", "political" ]
            },
            {
               "long_name" : "India",
               "short_name" : "IN",
               "types" : [ "country", "political" ]
            },
            {
               "long_name" : "400027",
               "short_name" : "400027",
               "types" : [ "postal_code" ]
            }
         ],
         "formatted_address" : "Dr Bhau Daji Lad Museum, Byculla East, Byculla, Mumbai, Maharashtra 400027, India",
         "geometry" : {
            "bounds" : {
               "northeast" : {
                  "lat" : 18.9794673,
                  "lng" : 72.8349661
               },
               "southwest" : {
                  "lat" : 18.9789321,
                  "lng" : 72.83461059999999
               }
            },
            "location" : {
               "lat" : 18.9792263,
               "lng" : 72.8347984
            },
            "location_type" : "APPROXIMATE",
            "viewport" : {
               "northeast" : {
                  "lat" : 18.9805486802915,
                  "lng" : 72.83613733029149
               },
               "southwest" : {
                  "lat" : 18.9778507197085,
                  "lng" : 72.83343936970849
               }
            }
         },
         "partial_match" : true,
         "types" : [ "museum", "establishment" ]
      },
      {
         "address_components" : [
            {
               "long_name" : "Bhau Madhavadas Marg",
               "short_name" : "Bhau Madhavadas Marg",
               "types" : [ "route" ]
            },
            {
               "long_name" : "Kailash Colony",
               "short_name" : "Kailash Colony",
               "types" : [ "sublocality_level_1", "sublocality", "political" ]
            },
            {
               "long_name" : "Ulhasnagar",
               "short_name" : "Ulhasnagar",
               "types" : [ "locality", "political" ]
            },
            {
               "long_name" : "Thane",
               "short_name" : "Thane",
               "types" : [ "administrative_area_level_2", "political" ]
            },
            {
               "long_name" : "Maharashtra",
               "short_name" : "MH",
               "types" : [ "administrative_area_level_1", "political" ]
            },
            {
               "long_name" : "India",
               "short_name" : "IN",
               "types" : [ "country", "political" ]
            },
            {
               "long_name" : "421005",
               "short_name" : "421005",
               "types" : [ "postal_code" ]
            }
         ],
         "formatted_address" : "Bhau Madhavadas Marg, Kailash Colony, Ulhasnagar, Maharashtra 421005, India",
         "geometry" : {
            "bounds" : {
               "northeast" : {
                  "lat" : 19.205272,
                  "lng" : 73.1653113
               },
               "southwest" : {
                  "lat" : 19.2007705,
                  "lng" : 73.163719
               }
            },
            "location" : {
               "lat" : 19.2029524,
               "lng" : 73.1647476
            },
            "location_type" : "GEOMETRIC_CENTER",
            "viewport" : {
               "northeast" : {
                  "lat" : 19.205272,
                  "lng" : 73.16586413029151
               },
               "southwest" : {
                  "lat" : 19.2007705,
                  "lng" : 73.1631661697085
               }
            }
         },
         "partial_match" : true,
         "types" : [ "route" ]
      },
      {
         "address_components" : [
            {
               "long_name" : "Bhau Rangari Road",
               "short_name" : "Bhau Rangari Road",
               "types" : [ "route" ]
            },
            {
               "long_name" : "Pune",
               "short_name" : "Pune",
               "types" : [ "locality", "political" ]
            },
            {
               "long_name" : "Pune",
               "short_name" : "Pune",
               "types" : [ "administrative_area_level_2", "political" ]
            },
            {
               "long_name" : "Maharashtra",
               "short_name" : "MH",
               "types" : [ "administrative_area_level_1", "political" ]
            },
            {
               "long_name" : "India",
               "short_name" : "IN",
               "types" : [ "country", "political" ]
            },
            {
               "long_name" : "411002",
               "short_name" : "411002",
               "types" : [ "postal_code" ]
            }
         ],
         "formatted_address" : "Bhau Rangari Road, Pune, Maharashtra 411002, India",
         "geometry" : {
            "bounds" : {
               "northeast" : {
                  "lat" : 18.5186014,
                  "lng" : 73.85623269999999
               },
               "southwest" : {
                  "lat" : 18.5171005,
                  "lng" : 73.8545424
               }
            },
            "location" : {
               "lat" : 18.5177417,
               "lng" : 73.85512199999999
            },
            "location_type" : "GEOMETRIC_CENTER",
            "viewport" : {
               "northeast" : {
                  "lat" : 18.5191999302915,
                  "lng" : 73.85673653029151
               },
               "southwest" : {
                  "lat" : 18.5165019697085,
                  "lng" : 73.85403856970849
               }
            }
         },
         "partial_match" : true,
         "types" : [ "route" ]
      },
      {
         "address_components" : [
            {
               "long_name" : "Bhau Nagar Road",
               "short_name" : "Bhau Nagar Rd",
               "types" : [ "route" ]
            },
            {
               "long_name" : "Tirupati Nagar Phase II",
               "short_name" : "Tirupati Nagar Phase II",
               "types" : [ "sublocality_level_3", "sublocality", "political" ]
            },
            {
               "long_name" : "Tirupati Nagar",
               "short_name" : "Tirupati Nagar",
               "types" : [ "sublocality_level_2", "sublocality", "political" ]
            },
            {
               "long_name" : "Virar West",
               "short_name" : "Virar West",
               "types" : [ "sublocality_level_1", "sublocality", "political" ]
            },
            {
               "long_name" : "Virar",
               "short_name" : "Virar",
               "types" : [ "locality", "political" ]
            },
            {
               "long_name" : "Thane",
               "short_name" : "Thane",
               "types" : [ "administrative_area_level_2", "political" ]
            },
            {
               "long_name" : "Maharashtra",
               "short_name" : "MH",
               "types" : [ "administrative_area_level_1", "political" ]
            },
            {
               "long_name" : "India",
               "short_name" : "IN",
               "types" : [ "country", "political" ]
            },
            {
               "long_name" : "401303",
               "short_name" : "401303",
               "types" : [ "postal_code" ]
            }
         ],
         "formatted_address" : "Bhau Nagar Road, Tirupati Nagar Phase II, Tirupati Nagar, Virar West, Virar, Maharashtra 401303, India",
         "geometry" : {
            "bounds" : {
               "northeast" : {
                  "lat" : 19.4574121,
                  "lng" : 72.80428169999999
               },
               "southwest" : {
                  "lat" : 19.4570163,
                  "lng" : 72.80116629999999
               }
            },
            "location" : {
               "lat" : 19.4571046,
               "lng" : 72.80291880000001
            },
            "location_type" : "GEOMETRIC_CENTER",
            "viewport" : {
               "northeast" : {
                  "lat" : 19.4585631802915,
                  "lng" : 72.80428169999999
               },
               "southwest" : {
                  "lat" : 19.4558652197085,
                  "lng" : 72.80116629999999
               }
            }
         },
         "partial_match" : true,
         "types" : [ "route" ]
      },
      {
         "address_components" : [
            {
               "long_name" : "Nilkanth Bhau Road",
               "short_name" : "Nilkanth Bhau Road",
               "types" : [ "route" ]
            },
            {
               "long_name" : "Gunand",
               "short_name" : "Gunand",
               "types" : [ "locality", "political" ]
            },
            {
               "long_name" : "Pune",
               "short_name" : "Pune",
               "types" : [ "administrative_area_level_2", "political" ]
            },
            {
               "long_name" : "Maharashtra",
               "short_name" : "MH",
               "types" : [ "administrative_area_level_1", "political" ]
            },
            {
               "long_name" : "India",
               "short_name" : "IN",
               "types" : [ "country", "political" ]
            },
            {
               "long_name" : "412205",
               "short_name" : "412205",
               "types" : [ "postal_code" ]
            }
         ],
         "formatted_address" : "Nilkanth Bhau Road, Gunand, Maharashtra 412205, India",
         "geometry" : {
            "bounds" : {
               "northeast" : {
                  "lat" : 18.149554,
                  "lng" : 74.04061009999999
               },
               "southwest" : {
                  "lat" : 18.1489499,
                  "lng" : 74.040525
               }
            },
            "location" : {
               "lat" : 18.149554,
               "lng" : 74.04061009999999
            },
            "location_type" : "GEOMETRIC_CENTER",
            "viewport" : {
               "northeast" : {
                  "lat" : 18.1506009302915,
                  "lng" : 74.0419165302915
               },
               "southwest" : {
                  "lat" : 18.1479029697085,
                  "lng" : 74.03921856970848
               }
            }
         },
         "partial_match" : true,
         "types" : [ "route" ]
      },
      {
         "address_components" : [
            {
               "long_name" : "Bhaskar Bhau Lane",
               "short_name" : "Bhaskar Bhau Ln",
               "types" : [ "route" ]
            },
            {
               "long_name" : "Gamdevi",
               "short_name" : "Gamdevi",
               "types" : [ "sublocality_level_1", "sublocality", "political" ]
            },
            {
               "long_name" : "Mumbai",
               "short_name" : "Mumbai",
               "types" : [ "locality", "political" ]
            },
            {
               "long_name" : "Mumbai",
               "short_name" : "Mumbai",
               "types" : [ "administrative_area_level_2", "political" ]
            },
            {
               "long_name" : "Maharashtra",
               "short_name" : "MH",
               "types" : [ "administrative_area_level_1", "political" ]
            },
            {
               "long_name" : "India",
               "short_name" : "IN",
               "types" : [ "country", "political" ]
            },
            {
               "long_name" : "400007",
               "short_name" : "400007",
               "types" : [ "postal_code" ]
            }
         ],
         "formatted_address" : "Bhaskar Bhau Lane, Gamdevi, Mumbai, Maharashtra 400007, India",
         "geometry" : {
            "bounds" : {
               "northeast" : {
                  "lat" : 18.9595289,
                  "lng" : 72.81331849999999
               },
               "southwest" : {
                  "lat" : 18.9591846,
                  "lng" : 72.81298509999999
               }
            },
            "location" : {
               "lat" : 18.9595289,
               "lng" : 72.8133182
            },
            "location_type" : "GEOMETRIC_CENTER",
            "viewport" : {
               "northeast" : {
                  "lat" : 18.9607057302915,
                  "lng" : 72.81450078029151
               },
               "southwest" : {
                  "lat" : 18.9580077697085,
                  "lng" : 72.81180281970849
               }
            }
         },
         "partial_match" : true,
         "types" : [ "route" ]
      },
      {
         "address_components" : [
            {
               "long_name" : "Jalan Bau Baharudin",
               "short_name" : "Jl. Bau Baharudin",
               "types" : [ "route" ]
            },
            {
               "long_name" : "Tempe",
               "short_name" : "Tempe",
               "types" : [ "administrative_area_level_3", "political" ]
            },
            {
               "long_name" : "Kabupaten Wajo",
               "short_name" : "Kabupaten Wajo",
               "types" : [ "administrative_area_level_2", "political" ]
            },
            {
               "long_name" : "Sulawesi Selatan",
               "short_name" : "Sulawesi Selatan",
               "types" : [ "administrative_area_level_1", "political" ]
            },
            {
               "long_name" : "Indonesia",
               "short_name" : "ID",
               "types" : [ "country", "political" ]
            },
            {
               "long_name" : "90911",
               "short_name" : "90911",
               "types" : [ "postal_code" ]
            }
         ],
         "formatted_address" : "Jalan Bau Baharudin, Tempe, Kabupaten Wajo, Sulawesi Selatan 90911, Indonesia",
         "geometry" : {
            "bounds" : {
               "northeast" : {
                  "lat" : -4.1208384,
                  "lng" : 120.0391609
               },
               "southwest" : {
                  "lat" : -4.122556299999999,
                  "lng" : 120.03403
               }
            },
            "location" : {
               "lat" : -4.122144,
               "lng" : 120.0366783
            },
            "location_type" : "GEOMETRIC_CENTER",
            "viewport" : {
               "northeast" : {
                  "lat" : -4.120348369708497,
                  "lng" : 120.0391609
               },
               "southwest" : {
                  "lat" : -4.123046330291501,
                  "lng" : 120.03403
               }
            }
         },
         "partial_match" : true,
         "types" : [ "route" ]
      },
      {
         "address_components" : [
            {
               "long_name" : "Jalan Bahu Rekso",
               "short_name" : "Jl. Bahu Rekso",
               "types" : [ "route" ]
            },
            {
               "long_name" : "Legok Kalong",
               "short_name" : "Legok Kalong",
               "types" : [ "administrative_area_level_4", "political" ]
            },
            {
               "long_name" : "Kecamatan Karanganyar",
               "short_name" : "Kec. Karanganyar",
               "types" : [ "administrative_area_level_3", "political" ]
            },
            {
               "long_name" : "Pekalongan",
               "short_name" : "Pekalongan",
               "types" : [ "administrative_area_level_2", "political" ]
            },
            {
               "long_name" : "Jawa Tengah",
               "short_name" : "Jawa Tengah",
               "types" : [ "administrative_area_level_1", "political" ]
            },
            {
               "long_name" : "Indonesia",
               "short_name" : "ID",
               "types" : [ "country", "political" ]
            },
            {
               "long_name" : "51182",
               "short_name" : "51182",
               "types" : [ "postal_code" ]
            }
         ],
         "formatted_address" : "Jalan Bahu Rekso, Kecamatan Karanganyar, Pekalongan, Jawa Tengah 51182, Indonesia",
         "geometry" : {
            "bounds" : {
               "northeast" : {
                  "lat" : -7.032733599999999,
                  "lng" : 109.6316338
               },
               "southwest" : {
                  "lat" : -7.0414542,
                  "lng" : 109.6269337
               }
            },
            "location" : {
               "lat" : -7.037205399999999,
               "lng" : 109.6297012
            },
            "location_type" : "GEOMETRIC_CENTER",
            "viewport" : {
               "northeast" : {
                  "lat" : -7.032733599999999,
                  "lng" : 109.6316338
               },
               "southwest" : {
                  "lat" : -7.0414542,
                  "lng" : 109.6269337
               }
            }
         },
         "partial_match" : true,
         "types" : [ "route" ]
      },
      {
         "address_components" : [
            {
               "long_name" : "Jalan Bahu Reksa",
               "short_name" : "Jl. Bahu Reksa",
               "types" : [ "route" ]
            },
            {
               "long_name" : "Central Karang",
               "short_name" : "Central Karang",
               "types" : [ "administrative_area_level_4", "political" ]
            },
            {
               "long_name" : "Karang Tengah",
               "short_name" : "Karang Tengah",
               "types" : [ "administrative_area_level_3", "political" ]
            },
            {
               "long_name" : "Kota Tangerang",
               "short_name" : "Kota Tgr",
               "types" : [ "administrative_area_level_2", "political" ]
            },
            {
               "long_name" : "Banten",
               "short_name" : "Banten",
               "types" : [ "administrative_area_level_1", "political" ]
            },
            {
               "long_name" : "Indonesia",
               "short_name" : "ID",
               "types" : [ "country", "political" ]
            },
            {
               "long_name" : "15157",
               "short_name" : "15157",
               "types" : [ "postal_code" ]
            }
         ],
         "formatted_address" : "Jalan Bahu Reksa, Karang Tengah, Kota Tangerang, Banten 15157, Indonesia",
         "geometry" : {
            "bounds" : {
               "northeast" : {
                  "lat" : -6.2158916,
                  "lng" : 106.7062106
               },
               "southwest" : {
                  "lat" : -6.216239,
                  "lng" : 106.705428
               }
            },
            "location" : {
               "lat" : -6.216086,
               "lng" : 106.705819
            },
            "location_type" : "GEOMETRIC_CENTER",
            "viewport" : {
               "northeast" : {
                  "lat" : -6.214716319708497,
                  "lng" : 106.7071682802915
               },
               "southwest" : {
                  "lat" : -6.217414280291502,
                  "lng" : 106.7044703197085
               }
            }
         },
         "partial_match" : true,
         "types" : [ "route" ]
      },
      {
         "address_components" : [
            {
               "long_name" : "Bhau Tatoba Toraskar Marg",
               "short_name" : "Bhau Tatoba Toraskar Marg",
               "types" : [ "route" ]
            },
            {
               "long_name" : "Mhada Colony",
               "short_name" : "Mhada Colony",
               "types" : [ "sublocality_level_2", "sublocality", "political" ]
            },
            {
               "long_name" : "Andheri West",
               "short_name" : "Andheri West",
               "types" : [ "sublocality_level_1", "sublocality", "political" ]
            },
            {
               "long_name" : "Mumbai",
               "short_name" : "Mumbai",
               "types" : [ "locality", "political" ]
            },
            {
               "long_name" : "Maharashtra",
               "short_name" : "MH",
               "types" : [ "administrative_area_level_1", "political" ]
            },
            {
               "long_name" : "India",
               "short_name" : "IN",
               "types" : [ "country", "political" ]
            }
         ],
         "formatted_address" : "Bhau Tatoba Toraskar Marg, Mhada Colony, Andheri West, Mumbai, Maharashtra, India",
         "geometry" : {
            "bounds" : {
               "northeast" : {
                  "lat" : 19.151967,
                  "lng" : 72.8327546
               },
               "southwest" : {
                  "lat" : 19.1458939,
                  "lng" : 72.8300325
               }
            },
            "location" : {
               "lat" : 19.1489582,
               "lng" : 72.8313538
            },
            "location_type" : "GEOMETRIC_CENTER",
            "viewport" : {
               "northeast" : {
                  "lat" : 19.151967,
                  "lng" : 72.8327546
               },
               "southwest" : {
                  "lat" : 19.1458939,
                  "lng" : 72.8300325
               }
            }
         },
         "partial_match" : true,
         "types" : [ "route" ]
      },
      {
         "address_components" : [
            {
               "long_name" : "Ram Bhau Barve Marg",
               "short_name" : "Ram Bhau Barve Marg",
               "types" : [ "route" ]
            },
            {
               "long_name" : "Vile Parle East",
               "short_name" : "Vile Parle East",
               "types" : [ "sublocality_level_2", "sublocality", "political" ]
            },
            {
               "long_name" : "Vile Parle",
               "short_name" : "Vile Parle",
               "types" : [ "sublocality_level_1", "sublocality", "political" ]
            },
            {
               "long_name" : "Mumbai",
               "short_name" : "Mumbai",
               "types" : [ "locality", "political" ]
            },
            {
               "long_name" : "Mumbai Suburban",
               "short_name" : "Mumbai Suburban",
               "types" : [ "administrative_area_level_2", "political" ]
            },
            {
               "long_name" : "Maharashtra",
               "short_name" : "MH",
               "types" : [ "administrative_area_level_1", "political" ]
            },
            {
               "long_name" : "India",
               "short_name" : "IN",
               "types" : [ "country", "political" ]
            },
            {
               "long_name" : "400057",
               "short_name" : "400057",
               "types" : [ "postal_code" ]
            }
         ],
         "formatted_address" : "Ram Bhau Barve Marg, Vile Parle East, Vile Parle, Mumbai, Maharashtra 400057, India",
         "geometry" : {
            "bounds" : {
               "northeast" : {
                  "lat" : 19.1037552,
                  "lng" : 72.852485
               },
               "southwest" : {
                  "lat" : 19.1010236,
                  "lng" : 72.85183500000001
               }
            },
            "location" : {
               "lat" : 19.101986,
               "lng" : 72.8522947
            },
            "location_type" : "GEOMETRIC_CENTER",
            "viewport" : {
               "northeast" : {
                  "lat" : 19.1037552,
                  "lng" : 72.85350898029152
               },
               "southwest" : {
                  "lat" : 19.1010236,
                  "lng" : 72.85081101970852
               }
            }
         },
         "partial_match" : true,
         "types" : [ "route" ]
      },
      {
         "address_components" : [
            {
               "long_name" : "Bhau Saheb Dandekar Marg",
               "short_name" : "Bhau Saheb Dandekar Marg",
               "types" : [ "route" ]
            },
            {
               "long_name" : "Vishnu Nagar",
               "short_name" : "Vishnu Nagar",
               "types" : [ "sublocality_level_1", "sublocality", "political" ]
            },
            {
               "long_name" : "Palghar",
               "short_name" : "Palghar",
               "types" : [ "locality", "political" ]
            },
            {
               "long_name" : "Thane",
               "short_name" : "Thane",
               "types" : [ "administrative_area_level_2", "political" ]
            },
            {
               "long_name" : "Maharashtra",
               "short_name" : "MH",
               "types" : [ "administrative_area_level_1", "political" ]
            },
            {
               "long_name" : "India",
               "short_name" : "IN",
               "types" : [ "country", "political" ]
            },
            {
               "long_name" : "401404",
               "short_name" : "401404",
               "types" : [ "postal_code" ]
            }
         ],
         "formatted_address" : "Bhau Saheb Dandekar Marg, Vishnu Nagar, Palghar, Maharashtra 401404, India",
         "geometry" : {
            "bounds" : {
               "northeast" : {
                  "lat" : 19.6953951,
                  "lng" : 72.76845399999999
               },
               "southwest" : {
                  "lat" : 19.6931728,
                  "lng" : 72.76738109999999
               }
            },
            "location" : {
               "lat" : 19.6944228,
               "lng" : 72.7679042
            },
            "location_type" : "GEOMETRIC_CENTER",
            "viewport" : {
               "northeast" : {
                  "lat" : 19.6956329302915,
                  "lng" : 72.7692665302915
               },
               "southwest" : {
                  "lat" : 19.6929349697085,
                  "lng" : 72.7665685697085
               }
            }
         },
         "partial_match" : true,
         "types" : [ "route" ]
      },
      {
         "address_components" : [
            {
               "long_name" : "Bhau Maharaj Bol Road",
               "short_name" : "Bhau Maharaj Bol Rd",
               "types" : [ "route" ]
            },
            {
               "long_name" : "Mandai",
               "short_name" : "Mandai",
               "types" : [ "sublocality_level_2", "sublocality", "political" ]
            },
            {
               "long_name" : "Shukrawar Peth",
               "short_name" : "Shukrawar Peth",
               "types" : [ "sublocality_level_1", "sublocality", "political" ]
            },
            {
               "long_name" : "Pune",
               "short_name" : "Pune",
               "types" : [ "locality", "political" ]
            },
            {
               "long_name" : "Pune",
               "short_name" : "Pune",
               "types" : [ "administrative_area_level_2", "political" ]
            },
            {
               "long_name" : "Maharashtra",
               "short_name" : "MH",
               "types" : [ "administrative_area_level_1", "political" ]
            },
            {
               "long_name" : "India",
               "short_name" : "IN",
               "types" : [ "country", "political" ]
            },
            {
               "long_name" : "411002",
               "short_name" : "411002",
               "types" : [ "postal_code" ]
            }
         ],
         "formatted_address" : "Bhau Maharaj Bol Road, Mandai, Shukrawar Peth, Pune, Maharashtra 411002, India",
         "geometry" : {
            "bounds" : {
               "northeast" : {
                  "lat" : 18.5133872,
                  "lng" : 73.85529799999999
               },
               "southwest" : {
                  "lat" : 18.5118936,
                  "lng" : 73.85470500000001
               }
            },
            "location" : {
               "lat" : 18.5124759,
               "lng" : 73.85512319999999
            },
            "location_type" : "GEOMETRIC_CENTER",
            "viewport" : {
               "northeast" : {
                  "lat" : 18.5139893802915,
                  "lng" : 73.85635048029151
               },
               "southwest" : {
                  "lat" : 18.5112914197085,
                  "lng" : 73.8536525197085
               }
            }
         },
         "partial_match" : true,
         "types" : [ "route" ]
      },
      {
         "address_components" : [
            {
               "long_name" : "Dr. Maher J. Bahu, MD",
               "short_name" : "Dr. Maher J. Bahu, MD",
               "types" : [ "point_of_interest", "establishment" ]
            },
            {
               "long_name" : "44555",
               "short_name" : "44555",
               "types" : [ "street_number" ]
            },
            {
               "long_name" : "Woodward Avenue",
               "short_name" : "Woodward Ave",
               "types" : [ "route" ]
            },
            {
               "long_name" : "Pontiac",
               "short_name" : "Pontiac",
               "types" : [ "locality", "political" ]
            },
            {
               "long_name" : "Oakland County",
               "short_name" : "Oakland County",
               "types" : [ "administrative_area_level_2", "political" ]
            },
            {
               "long_name" : "Michigan",
               "short_name" : "MI",
               "types" : [ "administrative_area_level_1", "political" ]
            },
            {
               "long_name" : "United States",
               "short_name" : "US",
               "types" : [ "country", "political" ]
            },
            {
               "long_name" : "48341",
               "short_name" : "48341",
               "types" : [ "postal_code" ]
            },
            {
               "long_name" : "5033",
               "short_name" : "5033",
               "types" : [ "postal_code_suffix" ]
            }
         ],
         "formatted_address" : "Dr. Maher J. Bahu, MD, 44555 Woodward Avenue, Pontiac, MI 48341, USA",
         "geometry" : {
            "location" : {
               "lat" : 42.6162725,
               "lng" : -83.27740419999999
            },
            "location_type" : "APPROXIMATE",
            "viewport" : {
               "northeast" : {
                  "lat" : 42.6176214802915,
                  "lng" : -83.2760552197085
               },
               "southwest" : {
                  "lat" : 42.6149235197085,
                  "lng" : -83.2787531802915
               }
            }
         },
         "partial_match" : true,
         "types" : [ "doctor", "point_of_interest", "health", "establishment" ]
      }
   ],
   "status" : "OK"
}
