{
   "results" : [
      {
         "address_components" : [
            {
               "long_name" : "GB Road",
               "short_name" : "GB Rd",
               "types" : [ "route" ]
            },
            {
               "long_name" : "Gaya",
               "short_name" : "Gaya",
               "types" : [ "locality", "political" ]
            },
            {
               "long_name" : "Gaya",
               "short_name" : "Gaya",
               "types" : [ "administrative_area_level_2", "political" ]
            },
            {
               "long_name" : "Bihar",
               "short_name" : "BR",
               "types" : [ "administrative_area_level_1", "political" ]
            },
            {
               "long_name" : "India",
               "short_name" : "IN",
               "types" : [ "country", "political" ]
            },
            {
               "long_name" : "823001",
               "short_name" : "823001",
               "types" : [ "postal_code" ]
            }
         ],
         "formatted_address" : "GB Road, Gaya, Bihar 823001, India",
         "geometry" : {
            "bounds" : {
               "northeast" : {
                  "lat" : 24.8047525,
                  "lng" : 85.0102263
               },
               "southwest" : {
                  "lat" : 24.776114,
                  "lng" : 85.00406269999999
               }
            },
            "location" : {
               "lat" : 24.7904651,
               "lng" : 85.0075075
            },
            "location_type" : "GEOMETRIC_CENTER",
            "viewport" : {
               "northeast" : {
                  "lat" : 24.8047525,
                  "lng" : 85.0102263
               },
               "southwest" : {
                  "lat" : 24.776114,
                  "lng" : 85.00406269999999
               }
            }
         },
         "types" : [ "route" ]
      },
      {
         "address_components" : [
            {
               "long_name" : "Swami Shradhanand Marg",
               "short_name" : "Swami Shradhanand Marg",
               "types" : [ "route" ]
            },
            {
               "long_name" : "New Delhi",
               "short_name" : "New Delhi",
               "types" : [ "locality", "political" ]
            },
            {
               "long_name" : "Delhi",
               "short_name" : "DL",
               "types" : [ "administrative_area_level_1", "political" ]
            },
            {
               "long_name" : "India",
               "short_name" : "IN",
               "types" : [ "country", "political" ]
            },
            {
               "long_name" : "110006",
               "short_name" : "110006",
               "types" : [ "postal_code" ]
            }
         ],
         "formatted_address" : "Garstin Bastion Road, New Delhi, Delhi 110006, India",
         "geometry" : {
            "bounds" : {
               "northeast" : {
                  "lat" : 28.6570826,
                  "lng" : 77.2237234
               },
               "southwest" : {
                  "lat" : 28.6451447,
                  "lng" : 77.21862709999999
               }
            },
            "location" : {
               "lat" : 28.6507064,
               "lng" : 77.2206039
            },
            "location_type" : "GEOMETRIC_CENTER",
            "viewport" : {
               "northeast" : {
                  "lat" : 28.6570826,
                  "lng" : 77.2237234
               },
               "southwest" : {
                  "lat" : 28.6451447,
                  "lng" : 77.21862709999999
               }
            }
         },
         "types" : [ "route" ]
      },
      {
         "address_components" : [
            {
               "long_name" : "GB Road",
               "short_name" : "GB Rd",
               "types" : [ "route" ]
            },
            {
               "long_name" : "Sherghati",
               "short_name" : "Sherghati",
               "types" : [ "locality", "political" ]
            },
            {
               "long_name" : "Gaya",
               "short_name" : "Gaya",
               "types" : [ "administrative_area_level_2", "political" ]
            },
            {
               "long_name" : "Bihar",
               "short_name" : "BR",
               "types" : [ "administrative_area_level_1", "political" ]
            },
            {
               "long_name" : "India",
               "short_name" : "IN",
               "types" : [ "country", "political" ]
            },
            {
               "long_name" : "824211",
               "short_name" : "824211",
               "types" : [ "postal_code" ]
            }
         ],
         "formatted_address" : "GB Road, Sherghati, Bihar 824211, India",
         "geometry" : {
            "bounds" : {
               "northeast" : {
                  "lat" : 24.565128,
                  "lng" : 84.79965079999999
               },
               "southwest" : {
                  "lat" : 24.5613946,
                  "lng" : 84.7906249
               }
            },
            "location" : {
               "lat" : 24.5636248,
               "lng" : 84.7951207
            },
            "location_type" : "GEOMETRIC_CENTER",
            "viewport" : {
               "northeast" : {
                  "lat" : 24.565128,
                  "lng" : 84.79965079999999
               },
               "southwest" : {
                  "lat" : 24.5613946,
                  "lng" : 84.7906249
               }
            }
         },
         "types" : [ "route" ]
      },
      {
         "address_components" : [
            {
               "long_name" : "GB Road",
               "short_name" : "GB Rd",
               "types" : [ "route" ]
            },
            {
               "long_name" : "Kavesar",
               "short_name" : "Kavesar",
               "types" : [ "sublocality_level_2", "sublocality", "political" ]
            },
            {
               "long_name" : "Thane West",
               "short_name" : "Thane West",
               "types" : [ "sublocality_level_1", "sublocality", "political" ]
            },
            {
               "long_name" : "Thane",
               "short_name" : "Thane",
               "types" : [ "locality", "political" ]
            },
            {
               "long_name" : "Thane",
               "short_name" : "Thane",
               "types" : [ "administrative_area_level_2", "political" ]
            },
            {
               "long_name" : "Maharashtra",
               "short_name" : "MH",
               "types" : [ "administrative_area_level_1", "political" ]
            },
            {
               "long_name" : "India",
               "short_name" : "IN",
               "types" : [ "country", "political" ]
            },
            {
               "long_name" : "400615",
               "short_name" : "400615",
               "types" : [ "postal_code" ]
            }
         ],
         "formatted_address" : "GB Road, Kavesar, Thane West, Thane, Maharashtra 400615, India",
         "geometry" : {
            "bounds" : {
               "northeast" : {
                  "lat" : 19.2649473,
                  "lng" : 72.97490619999999
               },
               "southwest" : {
                  "lat" : 19.2607011,
                  "lng" : 72.9715056
               }
            },
            "location" : {
               "lat" : 19.2621769,
               "lng" : 72.9742133
            },
            "location_type" : "GEOMETRIC_CENTER",
            "viewport" : {
               "northeast" : {
                  "lat" : 19.2649473,
                  "lng" : 72.97490619999999
               },
               "southwest" : {
                  "lat" : 19.2607011,
                  "lng" : 72.9715056
               }
            }
         },
         "types" : [ "route" ]
      },
      {
         "address_components" : [
            {
               "long_name" : "GB Road",
               "short_name" : "GB Rd",
               "types" : [ "route" ]
            },
            {
               "long_name" : "Kulathoor",
               "short_name" : "Kulathoor",
               "types" : [ "sublocality_level_1", "sublocality", "political" ]
            },
            {
               "long_name" : "Thiruvananthapuram",
               "short_name" : "TVM",
               "types" : [ "locality", "political" ]
            },
            {
               "long_name" : "Thiruvananthapuram",
               "short_name" : "TVM",
               "types" : [ "administrative_area_level_2", "political" ]
            },
            {
               "long_name" : "Kerala",
               "short_name" : "KL",
               "types" : [ "administrative_area_level_1", "political" ]
            },
            {
               "long_name" : "India",
               "short_name" : "IN",
               "types" : [ "country", "political" ]
            },
            {
               "long_name" : "695011",
               "short_name" : "695011",
               "types" : [ "postal_code" ]
            }
         ],
         "formatted_address" : "GB Road, Kulathoor, Thiruvananthapuram, Kerala 695011, India",
         "geometry" : {
            "bounds" : {
               "northeast" : {
                  "lat" : 8.530154,
                  "lng" : 76.888897
               },
               "southwest" : {
                  "lat" : 8.5294261,
                  "lng" : 76.88578649999999
               }
            },
            "location" : {
               "lat" : 8.5295162,
               "lng" : 76.88726299999999
            },
            "location_type" : "GEOMETRIC_CENTER",
            "viewport" : {
               "northeast" : {
                  "lat" : 8.531139030291502,
                  "lng" : 76.888897
               },
               "southwest" : {
                  "lat" : 8.528441069708498,
                  "lng" : 76.88578649999999
               }
            }
         },
         "types" : [ "route" ]
      },
      {
         "address_components" : [
            {
               "long_name" : "Road",
               "short_name" : "Road",
               "types" : [ "route" ]
            },
            {
               "long_name" : "Sherborne",
               "short_name" : "Sherborne",
               "types" : [ "locality", "political" ]
            },
            {
               "long_name" : "Sherborne",
               "short_name" : "Sherborne",
               "types" : [ "postal_town" ]
            },
            {
               "long_name" : "Dorset",
               "short_name" : "Dorset",
               "types" : [ "administrative_area_level_2", "political" ]
            },
            {
               "long_name" : "England",
               "short_name" : "England",
               "types" : [ "administrative_area_level_1", "political" ]
            },
            {
               "long_name" : "United Kingdom",
               "short_name" : "GB",
               "types" : [ "country", "political" ]
            },
            {
               "long_name" : "DT9 3AP",
               "short_name" : "DT9 3AP",
               "types" : [ "postal_code" ]
            }
         ],
         "formatted_address" : "Road, Sherborne, Dorset DT9 3AP, UK",
         "geometry" : {
            "bounds" : {
               "northeast" : {
                  "lat" : 50.9479297,
                  "lng" : -2.5171512
               },
               "southwest" : {
                  "lat" : 50.94754349999999,
                  "lng" : -2.517398
               }
            },
            "location" : {
               "lat" : 50.9479297,
               "lng" : -2.517398
            },
            "location_type" : "GEOMETRIC_CENTER",
            "viewport" : {
               "northeast" : {
                  "lat" : 50.94908558029149,
                  "lng" : -2.515925619708498
               },
               "southwest" : {
                  "lat" : 50.94638761970849,
                  "lng" : -2.518623580291502
               }
            }
         },
         "types" : [ "route" ]
      },
      {
         "address_components" : [
            {
               "long_name" : "G.B. Road",
               "short_name" : "G.B. Rd",
               "types" : [ "route" ]
            },
            {
               "long_name" : "Nagerbazar",
               "short_name" : "Nagerbazar",
               "types" : [ "sublocality_level_2", "sublocality", "political" ]
            },
            {
               "long_name" : "Kamardanga",
               "short_name" : "Kamardanga",
               "types" : [ "sublocality_level_1", "sublocality", "political" ]
            },
            {
               "long_name" : "Kolkata",
               "short_name" : "Kolkata",
               "types" : [ "locality", "political" ]
            },
            {
               "long_name" : "North 24 Parganas",
               "short_name" : "North 24 Parganas",
               "types" : [ "administrative_area_level_2", "political" ]
            },
            {
               "long_name" : "West Bengal",
               "short_name" : "WB",
               "types" : [ "administrative_area_level_1", "political" ]
            },
            {
               "long_name" : "India",
               "short_name" : "IN",
               "types" : [ "country", "political" ]
            },
            {
               "long_name" : "700028",
               "short_name" : "700028",
               "types" : [ "postal_code" ]
            }
         ],
         "formatted_address" : "G.B. Road, Nagerbazar, Kamardanga, Kolkata, West Bengal 700028, India",
         "geometry" : {
            "bounds" : {
               "northeast" : {
                  "lat" : 22.6234878,
                  "lng" : 88.4179
               },
               "southwest" : {
                  "lat" : 22.621323,
                  "lng" : 88.41736109999999
               }
            },
            "location" : {
               "lat" : 22.6224325,
               "lng" : 88.41767569999999
            },
            "location_type" : "GEOMETRIC_CENTER",
            "viewport" : {
               "northeast" : {
                  "lat" : 22.6237543802915,
                  "lng" : 88.41897953029151
               },
               "southwest" : {
                  "lat" : 22.6210564197085,
                  "lng" : 88.4162815697085
               }
            }
         },
         "types" : [ "route" ]
      },
      {
         "address_components" : [
            {
               "long_name" : "Road",
               "short_name" : "Road",
               "types" : [ "route" ]
            },
            {
               "long_name" : "Kirkintilloch",
               "short_name" : "Kirkintilloch",
               "types" : [ "locality", "political" ]
            },
            {
               "long_name" : "Glasgow",
               "short_name" : "Glasgow",
               "types" : [ "postal_town" ]
            },
            {
               "long_name" : "East Dunbartonshire",
               "short_name" : "East Dunbartonshire",
               "types" : [ "administrative_area_level_2", "political" ]
            },
            {
               "long_name" : "Scotland",
               "short_name" : "Scotland",
               "types" : [ "administrative_area_level_1", "political" ]
            },
            {
               "long_name" : "United Kingdom",
               "short_name" : "GB",
               "types" : [ "country", "political" ]
            },
            {
               "long_name" : "G66 1PG",
               "short_name" : "G66 1PG",
               "types" : [ "postal_code" ]
            }
         ],
         "formatted_address" : "Road, Kirkintilloch, Glasgow, East Dunbartonshire G66 1PG, UK",
         "geometry" : {
            "bounds" : {
               "northeast" : {
                  "lat" : 55.9393152,
                  "lng" : -4.1539558
               },
               "southwest" : {
                  "lat" : 55.9391434,
                  "lng" : -4.1541592
               }
            },
            "location" : {
               "lat" : 55.9393014,
               "lng" : -4.153972
            },
            "location_type" : "GEOMETRIC_CENTER",
            "viewport" : {
               "northeast" : {
                  "lat" : 55.9405782802915,
                  "lng" : -4.152708519708498
               },
               "southwest" : {
                  "lat" : 55.9378803197085,
                  "lng" : -4.155406480291503
               }
            }
         },
         "types" : [ "route" ]
      },
      {
         "address_components" : [
            {
               "long_name" : "GB Road",
               "short_name" : "GB Rd",
               "types" : [ "route" ]
            },
            {
               "long_name" : "Owale",
               "short_name" : "Owale",
               "types" : [ "sublocality_level_2", "sublocality", "political" ]
            },
            {
               "long_name" : "Thane West",
               "short_name" : "Thane West",
               "types" : [ "sublocality_level_1", "sublocality", "political" ]
            },
            {
               "long_name" : "Thane",
               "short_name" : "Thane",
               "types" : [ "locality", "political" ]
            },
            {
               "long_name" : "Thane",
               "short_name" : "Thane",
               "types" : [ "administrative_area_level_2", "political" ]
            },
            {
               "long_name" : "Maharashtra",
               "short_name" : "MH",
               "types" : [ "administrative_area_level_1", "political" ]
            },
            {
               "long_name" : "India",
               "short_name" : "IN",
               "types" : [ "country", "political" ]
            },
            {
               "long_name" : "400615",
               "short_name" : "400615",
               "types" : [ "postal_code" ]
            }
         ],
         "formatted_address" : "GB Road, Owale, Thane West, Thane, Maharashtra 400615, India",
         "geometry" : {
            "bounds" : {
               "northeast" : {
                  "lat" : 19.2732388,
                  "lng" : 72.9587173
               },
               "southwest" : {
                  "lat" : 19.2730386,
                  "lng" : 72.9580287
               }
            },
            "location" : {
               "lat" : 19.2732372,
               "lng" : 72.9581884
            },
            "location_type" : "GEOMETRIC_CENTER",
            "viewport" : {
               "northeast" : {
                  "lat" : 19.2744876802915,
                  "lng" : 72.9597219802915
               },
               "southwest" : {
                  "lat" : 19.2717897197085,
                  "lng" : 72.95702401970848
               }
            }
         },
         "types" : [ "route" ]
      },
      {
         "address_components" : [
            {
               "long_name" : "GB Road",
               "short_name" : "GB Rd",
               "types" : [ "route" ]
            },
            {
               "long_name" : "Ajmere Gate",
               "short_name" : "Ajmere Gate",
               "types" : [ "sublocality_level_1", "sublocality", "political" ]
            },
            {
               "long_name" : "New Delhi",
               "short_name" : "New Delhi",
               "types" : [ "locality", "political" ]
            },
            {
               "long_name" : "Central Delhi",
               "short_name" : "Central Delhi",
               "types" : [ "administrative_area_level_2", "political" ]
            },
            {
               "long_name" : "Delhi",
               "short_name" : "DL",
               "types" : [ "administrative_area_level_1", "political" ]
            },
            {
               "long_name" : "India",
               "short_name" : "IN",
               "types" : [ "country", "political" ]
            },
            {
               "long_name" : "110006",
               "short_name" : "110006",
               "types" : [ "postal_code" ]
            }
         ],
         "formatted_address" : "GB Road, Ajmere Gate, New Delhi, Delhi 110006, India",
         "geometry" : {
            "bounds" : {
               "northeast" : {
                  "lat" : 28.6472829,
                  "lng" : 77.22303309999999
               },
               "southwest" : {
                  "lat" : 28.6472369,
                  "lng" : 77.2229572
               }
            },
            "location" : {
               "lat" : 28.6472829,
               "lng" : 77.22303309999999
            },
            "location_type" : "GEOMETRIC_CENTER",
            "viewport" : {
               "northeast" : {
                  "lat" : 28.6486088802915,
                  "lng" : 77.2243441302915
               },
               "southwest" : {
                  "lat" : 28.6459109197085,
                  "lng" : 77.22164616970849
               }
            }
         },
         "types" : [ "route" ]
      },
      {
         "address_components" : [
            {
               "long_name" : "GB Road",
               "short_name" : "GB Rd",
               "types" : [ "route" ]
            },
            {
               "long_name" : "India",
               "short_name" : "IN",
               "types" : [ "country", "political" ]
            }
         ],
         "formatted_address" : "GB Road",
         "geometry" : {
            "bounds" : {
               "northeast" : {
                  "lat" : 29.3328375,
                  "lng" : 76.34542119999999
               },
               "southwest" : {
                  "lat" : 29.3317384,
                  "lng" : 76.3405477
               }
            },
            "location" : {
               "lat" : 29.33228799999999,
               "lng" : 76.34298439999999
            },
            "location_type" : "GEOMETRIC_CENTER",
            "viewport" : {
               "northeast" : {
                  "lat" : 29.3336369302915,
                  "lng" : 76.34542119999999
               },
               "southwest" : {
                  "lat" : 29.3309389697085,
                  "lng" : 76.3405477
               }
            }
         },
         "types" : [ "route" ]
      }
   ],
   "status" : "OK"
}
