{
   "results" : [
      {
         "address_components" : [
            {
               "long_name" : "Gokhale Road",
               "short_name" : "Gokhale Rd",
               "types" : [ "route" ]
            },
            {
               "long_name" : "Chinna Chokkikulam",
               "short_name" : "Chinna Chokkikulam",
               "types" : [ "sublocality_level_1", "sublocality", "political" ]
            },
            {
               "long_name" : "Madurai",
               "short_name" : "Madurai",
               "types" : [ "locality", "political" ]
            },
            {
               "long_name" : "Madurai",
               "short_name" : "Madurai",
               "types" : [ "administrative_area_level_2", "political" ]
            },
            {
               "long_name" : "Tamil Nadu",
               "short_name" : "TN",
               "types" : [ "administrative_area_level_1", "political" ]
            },
            {
               "long_name" : "India",
               "short_name" : "IN",
               "types" : [ "country", "political" ]
            },
            {
               "long_name" : "625002",
               "short_name" : "625002",
               "types" : [ "postal_code" ]
            }
         ],
         "formatted_address" : "Gokhale Road, Chinna Chokkikulam, Madurai, Tamil Nadu 625002, India",
         "geometry" : {
            "bounds" : {
               "northeast" : {
                  "lat" : 9.9387816,
                  "lng" : 78.1368289
               },
               "southwest" : {
                  "lat" : 9.931665299999999,
                  "lng" : 78.1326832
               }
            },
            "location" : {
               "lat" : 9.935466,
               "lng" : 78.1345173
            },
            "location_type" : "GEOMETRIC_CENTER",
            "viewport" : {
               "northeast" : {
                  "lat" : 9.9387816,
                  "lng" : 78.1368289
               },
               "southwest" : {
                  "lat" : 9.931665299999999,
                  "lng" : 78.1326832
               }
            }
         },
         "types" : [ "route" ]
      },
      {
         "address_components" : [
            {
               "long_name" : "Gokhale Road",
               "short_name" : "Gokhale Rd",
               "types" : [ "route" ]
            },
            {
               "long_name" : "Mumbai",
               "short_name" : "Mumbai",
               "types" : [ "locality", "political" ]
            },
            {
               "long_name" : "Mumbai",
               "short_name" : "Mumbai",
               "types" : [ "administrative_area_level_2", "political" ]
            },
            {
               "long_name" : "Maharashtra",
               "short_name" : "MH",
               "types" : [ "administrative_area_level_1", "political" ]
            },
            {
               "long_name" : "India",
               "short_name" : "IN",
               "types" : [ "country", "political" ]
            }
         ],
         "formatted_address" : "Gokhale Road, Mumbai, Maharashtra, India",
         "geometry" : {
            "bounds" : {
               "northeast" : {
                  "lat" : 19.0250736,
                  "lng" : 72.8405161
               },
               "southwest" : {
                  "lat" : 19.0062616,
                  "lng" : 72.8299086
               }
            },
            "location" : {
               "lat" : 19.015998,
               "lng" : 72.83482149999999
            },
            "location_type" : "GEOMETRIC_CENTER",
            "viewport" : {
               "northeast" : {
                  "lat" : 19.0250736,
                  "lng" : 72.8405161
               },
               "southwest" : {
                  "lat" : 19.0062616,
                  "lng" : 72.8299086
               }
            }
         },
         "types" : [ "route" ]
      },
      {
         "address_components" : [
            {
               "long_name" : "Gokhale Road",
               "short_name" : "Gokhale Rd",
               "types" : [ "route" ]
            },
            {
               "long_name" : "Thane West",
               "short_name" : "Thane West",
               "types" : [ "sublocality_level_1", "sublocality", "political" ]
            },
            {
               "long_name" : "Thane",
               "short_name" : "Thane",
               "types" : [ "locality", "political" ]
            },
            {
               "long_name" : "Maharashtra",
               "short_name" : "MH",
               "types" : [ "administrative_area_level_1", "political" ]
            },
            {
               "long_name" : "India",
               "short_name" : "IN",
               "types" : [ "country", "political" ]
            }
         ],
         "formatted_address" : "Gokhale Road, Thane West, Thane, Maharashtra, India",
         "geometry" : {
            "bounds" : {
               "northeast" : {
                  "lat" : 19.1889626,
                  "lng" : 72.9770039
               },
               "southwest" : {
                  "lat" : 19.1865197,
                  "lng" : 72.9639907
               }
            },
            "location" : {
               "lat" : 19.1871116,
               "lng" : 72.97070409999999
            },
            "location_type" : "GEOMETRIC_CENTER",
            "viewport" : {
               "northeast" : {
                  "lat" : 19.1890901302915,
                  "lng" : 72.9770039
               },
               "southwest" : {
                  "lat" : 19.18639216970849,
                  "lng" : 72.9639907
               }
            }
         },
         "types" : [ "route" ]
      },
      {
         "address_components" : [
            {
               "long_name" : "Gokhale Road",
               "short_name" : "Gokhale Rd",
               "types" : [ "route" ]
            },
            {
               "long_name" : "Jinja",
               "short_name" : "Jinja",
               "types" : [ "locality", "political" ]
            },
            {
               "long_name" : "Jinja",
               "short_name" : "Jinja",
               "types" : [ "administrative_area_level_2", "political" ]
            },
            {
               "long_name" : "Eastern Region",
               "short_name" : "Eastern Region",
               "types" : [ "administrative_area_level_1", "political" ]
            },
            {
               "long_name" : "Uganda",
               "short_name" : "UG",
               "types" : [ "country", "political" ]
            }
         ],
         "formatted_address" : "Gokhale Road, Jinja, Uganda",
         "geometry" : {
            "bounds" : {
               "northeast" : {
                  "lat" : 0.4383429,
                  "lng" : 33.2149193
               },
               "southwest" : {
                  "lat" : 0.4325616,
                  "lng" : 33.2049855
               }
            },
            "location" : {
               "lat" : 0.4352246,
               "lng" : 33.2090712
            },
            "location_type" : "GEOMETRIC_CENTER",
            "viewport" : {
               "northeast" : {
                  "lat" : 0.4383429,
                  "lng" : 33.2149193
               },
               "southwest" : {
                  "lat" : 0.4325616,
                  "lng" : 33.2049855
               }
            }
         },
         "types" : [ "route" ]
      },
      {
         "address_components" : [
            {
               "long_name" : "Gokhale Road",
               "short_name" : "Gokhale Rd",
               "types" : [ "route" ]
            },
            {
               "long_name" : "Jamshed Quarters",
               "short_name" : "Jamshed Quarters",
               "types" : [ "neighborhood", "political" ]
            },
            {
               "long_name" : "Jamshed Town",
               "short_name" : "Jamshed Town",
               "types" : [ "sublocality_level_1", "sublocality", "political" ]
            },
            {
               "long_name" : "Karachi",
               "short_name" : "Karachi",
               "types" : [ "locality", "political" ]
            },
            {
               "long_name" : "Karachi District",
               "short_name" : "Karachi District",
               "types" : [ "administrative_area_level_2", "political" ]
            },
            {
               "long_name" : "Sindh",
               "short_name" : "Sindh",
               "types" : [ "administrative_area_level_1", "political" ]
            },
            {
               "long_name" : "Pakistan",
               "short_name" : "PK",
               "types" : [ "country", "political" ]
            }
         ],
         "formatted_address" : "Gokhale Road, Karachi, Pakistan",
         "geometry" : {
            "bounds" : {
               "northeast" : {
                  "lat" : 24.8857783,
                  "lng" : 67.0435411
               },
               "southwest" : {
                  "lat" : 24.8812721,
                  "lng" : 67.0419169
               }
            },
            "location" : {
               "lat" : 24.8835294,
               "lng" : 67.04263229999999
            },
            "location_type" : "GEOMETRIC_CENTER",
            "viewport" : {
               "northeast" : {
                  "lat" : 24.8857783,
                  "lng" : 67.0440779802915
               },
               "southwest" : {
                  "lat" : 24.8812721,
                  "lng" : 67.0413800197085
               }
            }
         },
         "types" : [ "route" ]
      },
      {
         "address_components" : [
            {
               "long_name" : "Gokhale Road",
               "short_name" : "Gokhale Rd",
               "types" : [ "route" ]
            },
            {
               "long_name" : "Rajarajeshwari Nagar",
               "short_name" : "Rajarajeshwari Nagar",
               "types" : [ "sublocality_level_1", "sublocality", "political" ]
            },
            {
               "long_name" : "Bengaluru",
               "short_name" : "Bengaluru",
               "types" : [ "locality", "political" ]
            },
            {
               "long_name" : "Bangalore Urban",
               "short_name" : "Bangalore Urban",
               "types" : [ "administrative_area_level_2", "political" ]
            },
            {
               "long_name" : "Karnataka",
               "short_name" : "KA",
               "types" : [ "administrative_area_level_1", "political" ]
            },
            {
               "long_name" : "India",
               "short_name" : "IN",
               "types" : [ "country", "political" ]
            },
            {
               "long_name" : "560098",
               "short_name" : "560098",
               "types" : [ "postal_code" ]
            }
         ],
         "formatted_address" : "Gokhale Road, Rajarajeshwari Nagar, Bengaluru, Karnataka 560098, India",
         "geometry" : {
            "bounds" : {
               "northeast" : {
                  "lat" : 12.9173617,
                  "lng" : 77.5209622
               },
               "southwest" : {
                  "lat" : 12.9170033,
                  "lng" : 77.5171465
               }
            },
            "location" : {
               "lat" : 12.917223,
               "lng" : 77.518929
            },
            "location_type" : "GEOMETRIC_CENTER",
            "viewport" : {
               "northeast" : {
                  "lat" : 12.9185314802915,
                  "lng" : 77.5209622
               },
               "southwest" : {
                  "lat" : 12.9158335197085,
                  "lng" : 77.5171465
               }
            }
         },
         "types" : [ "route" ]
      },
      {
         "address_components" : [
            {
               "long_name" : "Gokhale Road",
               "short_name" : "Gokhale Rd",
               "types" : [ "route" ]
            },
            {
               "long_name" : "Padanapalam",
               "short_name" : "Padanapalam",
               "types" : [ "sublocality_level_1", "sublocality", "political" ]
            },
            {
               "long_name" : "Kannur",
               "short_name" : "Kannur",
               "types" : [ "locality", "political" ]
            },
            {
               "long_name" : "Kannur",
               "short_name" : "Kannur",
               "types" : [ "administrative_area_level_2", "political" ]
            },
            {
               "long_name" : "Kerala",
               "short_name" : "KL",
               "types" : [ "administrative_area_level_1", "political" ]
            },
            {
               "long_name" : "India",
               "short_name" : "IN",
               "types" : [ "country", "political" ]
            },
            {
               "long_name" : "670003",
               "short_name" : "670003",
               "types" : [ "postal_code" ]
            }
         ],
         "formatted_address" : "Gokhale Road, Padanapalam, Kannur, Kerala 670003, India",
         "geometry" : {
            "bounds" : {
               "northeast" : {
                  "lat" : 11.8698144,
                  "lng" : 75.36251759999999
               },
               "southwest" : {
                  "lat" : 11.868822,
                  "lng" : 75.35945439999999
               }
            },
            "location" : {
               "lat" : 11.8689733,
               "lng" : 75.3608947
            },
            "location_type" : "GEOMETRIC_CENTER",
            "viewport" : {
               "northeast" : {
                  "lat" : 11.8706671802915,
                  "lng" : 75.36251759999999
               },
               "southwest" : {
                  "lat" : 11.8679692197085,
                  "lng" : 75.35945439999999
               }
            }
         },
         "types" : [ "route" ]
      },
      {
         "address_components" : [
            {
               "long_name" : "Gokhale Road",
               "short_name" : "Gokhale Rd",
               "types" : [ "route" ]
            },
            {
               "long_name" : "Bhowanipore",
               "short_name" : "Bhowanipore",
               "types" : [ "sublocality_level_1", "sublocality", "political" ]
            },
            {
               "long_name" : "Kolkata",
               "short_name" : "Kolkata",
               "types" : [ "locality", "political" ]
            },
            {
               "long_name" : "Kolkata",
               "short_name" : "Kolkata",
               "types" : [ "administrative_area_level_2", "political" ]
            },
            {
               "long_name" : "West Bengal",
               "short_name" : "WB",
               "types" : [ "administrative_area_level_1", "political" ]
            },
            {
               "long_name" : "India",
               "short_name" : "IN",
               "types" : [ "country", "political" ]
            },
            {
               "long_name" : "700020",
               "short_name" : "700020",
               "types" : [ "postal_code" ]
            }
         ],
         "formatted_address" : "Gokhale Road, Bhowanipore, Kolkata, West Bengal 700020, India",
         "geometry" : {
            "bounds" : {
               "northeast" : {
                  "lat" : 22.5415675,
                  "lng" : 88.34627879999999
               },
               "southwest" : {
                  "lat" : 22.5376327,
                  "lng" : 88.34522160000002
               }
            },
            "location" : {
               "lat" : 22.5397057,
               "lng" : 88.34558919999999
            },
            "location_type" : "GEOMETRIC_CENTER",
            "viewport" : {
               "northeast" : {
                  "lat" : 22.5415675,
                  "lng" : 88.34709918029152
               },
               "southwest" : {
                  "lat" : 22.5376327,
                  "lng" : 88.3444012197085
               }
            }
         },
         "types" : [ "route" ]
      },
      {
         "address_components" : [
            {
               "long_name" : "Gokhale Road",
               "short_name" : "Gokhale Rd",
               "types" : [ "route" ]
            },
            {
               "long_name" : "Ambika Nagar",
               "short_name" : "Ambika Nagar",
               "types" : [ "sublocality_level_2", "sublocality", "political" ]
            },
            {
               "long_name" : "Dombivli West",
               "short_name" : "Dombivli West",
               "types" : [ "sublocality_level_1", "sublocality", "political" ]
            },
            {
               "long_name" : "Dombivli",
               "short_name" : "Dombivli",
               "types" : [ "locality", "political" ]
            },
            {
               "long_name" : "Thane",
               "short_name" : "Thane",
               "types" : [ "administrative_area_level_2", "political" ]
            },
            {
               "long_name" : "Maharashtra",
               "short_name" : "MH",
               "types" : [ "administrative_area_level_1", "political" ]
            },
            {
               "long_name" : "India",
               "short_name" : "IN",
               "types" : [ "country", "political" ]
            },
            {
               "long_name" : "421202",
               "short_name" : "421202",
               "types" : [ "postal_code" ]
            }
         ],
         "formatted_address" : "Gokhale Road, Ambika Nagar, Dombivli West, Dombivli, Maharashtra 421202, India",
         "geometry" : {
            "bounds" : {
               "northeast" : {
                  "lat" : 19.2225733,
                  "lng" : 73.0898309
               },
               "southwest" : {
                  "lat" : 19.2210445,
                  "lng" : 73.08793989999999
               }
            },
            "location" : {
               "lat" : 19.2220022,
               "lng" : 73.08913889999999
            },
            "location_type" : "GEOMETRIC_CENTER",
            "viewport" : {
               "northeast" : {
                  "lat" : 19.2231578802915,
                  "lng" : 73.09023438029149
               },
               "southwest" : {
                  "lat" : 19.2204599197085,
                  "lng" : 73.08753641970848
               }
            }
         },
         "types" : [ "route" ]
      },
      {
         "address_components" : [
            {
               "long_name" : "Gokhale Road",
               "short_name" : "Gokhale Rd",
               "types" : [ "route" ]
            },
            {
               "long_name" : "Kandivali West",
               "short_name" : "Kandivali West",
               "types" : [ "sublocality_level_1", "sublocality", "political" ]
            },
            {
               "long_name" : "Mumbai",
               "short_name" : "Mumbai",
               "types" : [ "locality", "political" ]
            },
            {
               "long_name" : "Maharashtra",
               "short_name" : "MH",
               "types" : [ "administrative_area_level_1", "political" ]
            },
            {
               "long_name" : "India",
               "short_name" : "IN",
               "types" : [ "country", "political" ]
            }
         ],
         "formatted_address" : "Gokhale Road, Kandivali West, Mumbai, Maharashtra, India",
         "geometry" : {
            "bounds" : {
               "northeast" : {
                  "lat" : 19.2102194,
                  "lng" : 72.837997
               },
               "southwest" : {
                  "lat" : 19.205908,
                  "lng" : 72.835218
               }
            },
            "location" : {
               "lat" : 19.2082031,
               "lng" : 72.8377792
            },
            "location_type" : "GEOMETRIC_CENTER",
            "viewport" : {
               "northeast" : {
                  "lat" : 19.2102194,
                  "lng" : 72.837997
               },
               "southwest" : {
                  "lat" : 19.205908,
                  "lng" : 72.835218
               }
            }
         },
         "types" : [ "route" ]
      },
      {
         "address_components" : [
            {
               "long_name" : "Gokhale Road",
               "short_name" : "Gokhale Rd",
               "types" : [ "route" ]
            },
            {
               "long_name" : "Vile Parle East",
               "short_name" : "Vile Parle East",
               "types" : [ "sublocality_level_2", "sublocality", "political" ]
            },
            {
               "long_name" : "Vile Parle",
               "short_name" : "Vile Parle",
               "types" : [ "sublocality_level_1", "sublocality", "political" ]
            },
            {
               "long_name" : "Mumbai",
               "short_name" : "Mumbai",
               "types" : [ "locality", "political" ]
            },
            {
               "long_name" : "Mumbai Suburban",
               "short_name" : "Mumbai Suburban",
               "types" : [ "administrative_area_level_2", "political" ]
            },
            {
               "long_name" : "Maharashtra",
               "short_name" : "MH",
               "types" : [ "administrative_area_level_1", "political" ]
            },
            {
               "long_name" : "India",
               "short_name" : "IN",
               "types" : [ "country", "political" ]
            },
            {
               "long_name" : "400057",
               "short_name" : "400057",
               "types" : [ "postal_code" ]
            }
         ],
         "formatted_address" : "Gokhale Road, Vile Parle East, Vile Parle, Mumbai, Maharashtra 400057, India",
         "geometry" : {
            "bounds" : {
               "northeast" : {
                  "lat" : 19.0980747,
                  "lng" : 72.845804
               },
               "southwest" : {
                  "lat" : 19.097225,
                  "lng" : 72.8442613
               }
            },
            "location" : {
               "lat" : 19.0977512,
               "lng" : 72.845804
            },
            "location_type" : "GEOMETRIC_CENTER",
            "viewport" : {
               "northeast" : {
                  "lat" : 19.0989988302915,
                  "lng" : 72.8463816302915
               },
               "southwest" : {
                  "lat" : 19.0963008697085,
                  "lng" : 72.8436836697085
               }
            }
         },
         "types" : [ "route" ]
      },
      {
         "address_components" : [
            {
               "long_name" : "Gokhale Road",
               "short_name" : "Gokhale Rd",
               "types" : [ "route" ]
            },
            {
               "long_name" : "Hanuman Chowk",
               "short_name" : "Hanuman Chowk",
               "types" : [ "sublocality_level_2", "sublocality", "political" ]
            },
            {
               "long_name" : "Mulund East",
               "short_name" : "Mulund East",
               "types" : [ "sublocality_level_1", "sublocality", "political" ]
            },
            {
               "long_name" : "Mumbai",
               "short_name" : "Mumbai",
               "types" : [ "locality", "political" ]
            },
            {
               "long_name" : "Mumbai Suburban",
               "short_name" : "Mumbai Suburban",
               "types" : [ "administrative_area_level_2", "political" ]
            },
            {
               "long_name" : "Maharashtra",
               "short_name" : "MH",
               "types" : [ "administrative_area_level_1", "political" ]
            },
            {
               "long_name" : "India",
               "short_name" : "IN",
               "types" : [ "country", "political" ]
            },
            {
               "long_name" : "400081",
               "short_name" : "400081",
               "types" : [ "postal_code" ]
            }
         ],
         "formatted_address" : "Gokhale Road, Hanuman Chowk, Mulund East, Mumbai, Maharashtra 400081",
         "geometry" : {
            "location" : {
               "lat" : 19.1713196,
               "lng" : 72.9567393
            },
            "location_type" : "GEOMETRIC_CENTER",
            "viewport" : {
               "northeast" : {
                  "lat" : 19.1726685802915,
                  "lng" : 72.95808828029149
               },
               "southwest" : {
                  "lat" : 19.1699706197085,
                  "lng" : 72.95539031970848
               }
            }
         },
         "types" : [ "route" ]
      },
      {
         "address_components" : [
            {
               "long_name" : "Gokhale Road",
               "short_name" : "Gokhale Rd",
               "types" : [ "route" ]
            },
            {
               "long_name" : "Urankawadi",
               "short_name" : "Urankawadi",
               "types" : [ "neighborhood", "political" ]
            },
            {
               "long_name" : "Mangal Wadi",
               "short_name" : "Mangal Wadi",
               "types" : [ "sublocality_level_2", "sublocality", "political" ]
            },
            {
               "long_name" : "Girgaon",
               "short_name" : "Girgaon",
               "types" : [ "sublocality_level_1", "sublocality", "political" ]
            },
            {
               "long_name" : "Mumbai",
               "short_name" : "Mumbai",
               "types" : [ "locality", "political" ]
            },
            {
               "long_name" : "Mumbai",
               "short_name" : "Mumbai",
               "types" : [ "administrative_area_level_2", "political" ]
            },
            {
               "long_name" : "Maharashtra",
               "short_name" : "MH",
               "types" : [ "administrative_area_level_1", "political" ]
            },
            {
               "long_name" : "India",
               "short_name" : "IN",
               "types" : [ "country", "political" ]
            },
            {
               "long_name" : "400004",
               "short_name" : "400004",
               "types" : [ "postal_code" ]
            }
         ],
         "formatted_address" : "Gokhale Road, Urankawadi, Mangal Wadi, Girgaon, Mumbai, Maharashtra 400004, India",
         "geometry" : {
            "bounds" : {
               "northeast" : {
                  "lat" : 18.9547887,
                  "lng" : 72.822773
               },
               "southwest" : {
                  "lat" : 18.95396,
                  "lng" : 72.82204999999999
               }
            },
            "location" : {
               "lat" : 18.954377,
               "lng" : 72.822577
            },
            "location_type" : "GEOMETRIC_CENTER",
            "viewport" : {
               "northeast" : {
                  "lat" : 18.95572333029151,
                  "lng" : 72.8237604802915
               },
               "southwest" : {
                  "lat" : 18.9530253697085,
                  "lng" : 72.82106251970849
               }
            }
         },
         "types" : [ "route" ]
      }
   ],
   "status" : "OK"
}
