{
   "results" : [
      {
         "address_components" : [
            {
               "long_name" : "Flyover",
               "short_name" : "Flyover",
               "types" : [ "route" ]
            },
            {
               "long_name" : "Dhuri",
               "short_name" : "Dhuri",
               "types" : [ "locality", "political" ]
            },
            {
               "long_name" : "Sangrur",
               "short_name" : "Sangrur",
               "types" : [ "administrative_area_level_2", "political" ]
            },
            {
               "long_name" : "Punjab",
               "short_name" : "PB",
               "types" : [ "administrative_area_level_1", "political" ]
            },
            {
               "long_name" : "India",
               "short_name" : "IN",
               "types" : [ "country", "political" ]
            },
            {
               "long_name" : "148024",
               "short_name" : "148024",
               "types" : [ "postal_code" ]
            }
         ],
         "formatted_address" : "Flyover, Dhuri, Punjab 148024, India",
         "geometry" : {
            "bounds" : {
               "northeast" : {
                  "lat" : 30.3820862,
                  "lng" : 75.863051
               },
               "southwest" : {
                  "lat" : 30.3676147,
                  "lng" : 75.8522785
               }
            },
            "location" : {
               "lat" : 30.377242,
               "lng" : 75.85517569999999
            },
            "location_type" : "GEOMETRIC_CENTER",
            "viewport" : {
               "northeast" : {
                  "lat" : 30.3820862,
                  "lng" : 75.863051
               },
               "southwest" : {
                  "lat" : 30.3676147,
                  "lng" : 75.8522785
               }
            }
         },
         "types" : [ "route" ]
      },
      {
         "address_components" : [
            {
               "long_name" : "Flyover",
               "short_name" : "Flyover",
               "types" : [ "route" ]
            },
            {
               "long_name" : "Guru Nanak Colony",
               "short_name" : "Guru Nanak Colony",
               "types" : [ "sublocality_level_1", "sublocality", "political" ]
            },
            {
               "long_name" : "Fazilka",
               "short_name" : "Fazilka",
               "types" : [ "locality", "political" ]
            },
            {
               "long_name" : "Fazilka",
               "short_name" : "Fazilka",
               "types" : [ "administrative_area_level_2", "political" ]
            },
            {
               "long_name" : "Punjab",
               "short_name" : "PB",
               "types" : [ "administrative_area_level_1", "political" ]
            },
            {
               "long_name" : "India",
               "short_name" : "IN",
               "types" : [ "country", "political" ]
            },
            {
               "long_name" : "152123",
               "short_name" : "152123",
               "types" : [ "postal_code" ]
            }
         ],
         "formatted_address" : "Flyover, Guru Nanak Colony, Fazilka, Punjab 152123, India",
         "geometry" : {
            "bounds" : {
               "northeast" : {
                  "lat" : 30.4142472,
                  "lng" : 74.03606789999999
               },
               "southwest" : {
                  "lat" : 30.405304,
                  "lng" : 74.03388219999999
               }
            },
            "location" : {
               "lat" : 30.4134663,
               "lng" : 74.0358315
            },
            "location_type" : "GEOMETRIC_CENTER",
            "viewport" : {
               "northeast" : {
                  "lat" : 30.4142472,
                  "lng" : 74.0363240302915
               },
               "southwest" : {
                  "lat" : 30.405304,
                  "lng" : 74.03362606970849
               }
            }
         },
         "types" : [ "route" ]
      },
      {
         "address_components" : [
            {
               "long_name" : "Flyover",
               "short_name" : "Flyover",
               "types" : [ "route" ]
            },
            {
               "long_name" : "Mahabirstan",
               "short_name" : "Mahabirstan",
               "types" : [ "sublocality_level_1", "sublocality", "political" ]
            },
            {
               "long_name" : "Bongaigaon",
               "short_name" : "Bongaigaon",
               "types" : [ "locality", "political" ]
            },
            {
               "long_name" : "Bongaigaon",
               "short_name" : "Bongaigaon",
               "types" : [ "administrative_area_level_2", "political" ]
            },
            {
               "long_name" : "Assam",
               "short_name" : "AS",
               "types" : [ "administrative_area_level_1", "political" ]
            },
            {
               "long_name" : "India",
               "short_name" : "IN",
               "types" : [ "country", "political" ]
            },
            {
               "long_name" : "783380",
               "short_name" : "783380",
               "types" : [ "postal_code" ]
            }
         ],
         "formatted_address" : "Flyover, Mahabirstan, Bongaigaon, Assam 783380, India",
         "geometry" : {
            "bounds" : {
               "northeast" : {
                  "lat" : 26.477179,
                  "lng" : 90.55517789999999
               },
               "southwest" : {
                  "lat" : 26.475459,
                  "lng" : 90.55075289999999
               }
            },
            "location" : {
               "lat" : 26.4769111,
               "lng" : 90.5529033
            },
            "location_type" : "GEOMETRIC_CENTER",
            "viewport" : {
               "northeast" : {
                  "lat" : 26.4776679802915,
                  "lng" : 90.55517789999999
               },
               "southwest" : {
                  "lat" : 26.4749700197085,
                  "lng" : 90.55075289999999
               }
            }
         },
         "types" : [ "route" ]
      },
      {
         "address_components" : [
            {
               "long_name" : "Flyover",
               "short_name" : "Flyover",
               "types" : [ "route" ]
            },
            {
               "long_name" : "Nabha",
               "short_name" : "Nabha",
               "types" : [ "locality", "political" ]
            },
            {
               "long_name" : "Patiala",
               "short_name" : "Patiala",
               "types" : [ "administrative_area_level_2", "political" ]
            },
            {
               "long_name" : "Punjab",
               "short_name" : "PB",
               "types" : [ "administrative_area_level_1", "political" ]
            },
            {
               "long_name" : "India",
               "short_name" : "IN",
               "types" : [ "country", "political" ]
            },
            {
               "long_name" : "147201",
               "short_name" : "147201",
               "types" : [ "postal_code" ]
            }
         ],
         "formatted_address" : "Flyover, Nabha, Punjab 147201, India",
         "geometry" : {
            "bounds" : {
               "northeast" : {
                  "lat" : 30.3670713,
                  "lng" : 76.13669159999999
               },
               "southwest" : {
                  "lat" : 30.3637665,
                  "lng" : 76.13496959999999
               }
            },
            "location" : {
               "lat" : 30.3655021,
               "lng" : 76.1354202
            },
            "location_type" : "GEOMETRIC_CENTER",
            "viewport" : {
               "northeast" : {
                  "lat" : 30.3670713,
                  "lng" : 76.13717958029149
               },
               "southwest" : {
                  "lat" : 30.3637665,
                  "lng" : 76.13448161970848
               }
            }
         },
         "types" : [ "route" ]
      },
      {
         "address_components" : [
            {
               "long_name" : "FLYOVER",
               "short_name" : "FLYOVER",
               "types" : [ "route" ]
            },
            {
               "long_name" : "Shergarhi",
               "short_name" : "Shergarhi",
               "types" : [ "sublocality_level_2", "sublocality", "political" ]
            },
            {
               "long_name" : "Batmaloo",
               "short_name" : "Batmaloo",
               "types" : [ "sublocality_level_1", "sublocality", "political" ]
            },
            {
               "long_name" : "Srinagar",
               "short_name" : "Srinagar",
               "types" : [ "locality", "political" ]
            },
            {
               "long_name" : "Srinagar",
               "short_name" : "Srinagar",
               "types" : [ "administrative_area_level_2", "political" ]
            },
            {
               "long_name" : "190009",
               "short_name" : "190009",
               "types" : [ "postal_code" ]
            }
         ],
         "formatted_address" : "FLYOVER, Shergarhi, Batmaloo, Srinagar, 190009",
         "geometry" : {
            "bounds" : {
               "northeast" : {
                  "lat" : 34.0725258,
                  "lng" : 74.8062583
               },
               "southwest" : {
                  "lat" : 34.0715383,
                  "lng" : 74.80146189999999
               }
            },
            "location" : {
               "lat" : 34.0716017,
               "lng" : 74.8037332
            },
            "location_type" : "GEOMETRIC_CENTER",
            "viewport" : {
               "northeast" : {
                  "lat" : 34.0733810302915,
                  "lng" : 74.8062583
               },
               "southwest" : {
                  "lat" : 34.0706830697085,
                  "lng" : 74.80146189999999
               }
            }
         },
         "types" : [ "route" ]
      },
      {
         "address_components" : [
            {
               "long_name" : "Flyover",
               "short_name" : "Flyover",
               "types" : [ "route" ]
            },
            {
               "long_name" : "Rampur",
               "short_name" : "Rampur",
               "types" : [ "locality", "political" ]
            },
            {
               "long_name" : "Rampur",
               "short_name" : "Rampur",
               "types" : [ "administrative_area_level_2", "political" ]
            },
            {
               "long_name" : "Uttar Pradesh",
               "short_name" : "UP",
               "types" : [ "administrative_area_level_1", "political" ]
            },
            {
               "long_name" : "India",
               "short_name" : "IN",
               "types" : [ "country", "political" ]
            },
            {
               "long_name" : "244901",
               "short_name" : "244901",
               "types" : [ "postal_code" ]
            }
         ],
         "formatted_address" : "Flyover, Rampur, Uttar Pradesh 244901, India",
         "geometry" : {
            "bounds" : {
               "northeast" : {
                  "lat" : 28.784727,
                  "lng" : 79.02040479999999
               },
               "southwest" : {
                  "lat" : 28.7772844,
                  "lng" : 79.0187064
               }
            },
            "location" : {
               "lat" : 28.7809262,
               "lng" : 79.0195468
            },
            "location_type" : "GEOMETRIC_CENTER",
            "viewport" : {
               "northeast" : {
                  "lat" : 28.784727,
                  "lng" : 79.02090458029151
               },
               "southwest" : {
                  "lat" : 28.7772844,
                  "lng" : 79.01820661970849
               }
            }
         },
         "types" : [ "route" ]
      },
      {
         "address_components" : [
            {
               "long_name" : "Flyover",
               "short_name" : "Flyover",
               "types" : [ "route" ]
            },
            {
               "long_name" : "Lal Singh Nagar",
               "short_name" : "Lal Singh Nagar",
               "types" : [ "sublocality_level_1", "sublocality", "political" ]
            },
            {
               "long_name" : "Bathinda",
               "short_name" : "Bathinda",
               "types" : [ "locality", "political" ]
            },
            {
               "long_name" : "Bathinda",
               "short_name" : "Bathinda",
               "types" : [ "administrative_area_level_2", "political" ]
            },
            {
               "long_name" : "Punjab",
               "short_name" : "PB",
               "types" : [ "administrative_area_level_1", "political" ]
            },
            {
               "long_name" : "India",
               "short_name" : "IN",
               "types" : [ "country", "political" ]
            },
            {
               "long_name" : "151001",
               "short_name" : "151001",
               "types" : [ "postal_code" ]
            }
         ],
         "formatted_address" : "Flyover, Lal Singh Nagar, Bathinda, Punjab 151001, India",
         "geometry" : {
            "bounds" : {
               "northeast" : {
                  "lat" : 30.1802656,
                  "lng" : 74.9220064
               },
               "southwest" : {
                  "lat" : 30.1764915,
                  "lng" : 74.9123067
               }
            },
            "location" : {
               "lat" : 30.1795062,
               "lng" : 74.915864
            },
            "location_type" : "GEOMETRIC_CENTER",
            "viewport" : {
               "northeast" : {
                  "lat" : 30.1802656,
                  "lng" : 74.9220064
               },
               "southwest" : {
                  "lat" : 30.1764915,
                  "lng" : 74.9123067
               }
            }
         },
         "types" : [ "route" ]
      },
      {
         "address_components" : [
            {
               "long_name" : "Flyover",
               "short_name" : "Flyover",
               "types" : [ "route" ]
            },
            {
               "long_name" : "Police Colony",
               "short_name" : "Police Colony",
               "types" : [ "sublocality_level_1", "sublocality", "political" ]
            },
            {
               "long_name" : "Dimapur",
               "short_name" : "DMR",
               "types" : [ "locality", "political" ]
            },
            {
               "long_name" : "Dimapur",
               "short_name" : "Dimapur",
               "types" : [ "administrative_area_level_2", "political" ]
            },
            {
               "long_name" : "Nagaland",
               "short_name" : "NL",
               "types" : [ "administrative_area_level_1", "political" ]
            },
            {
               "long_name" : "India",
               "short_name" : "IN",
               "types" : [ "country", "political" ]
            },
            {
               "long_name" : "797112",
               "short_name" : "797112",
               "types" : [ "postal_code" ]
            }
         ],
         "formatted_address" : "Flyover, Police Colony, Dimapur, Nagaland 797112, India",
         "geometry" : {
            "bounds" : {
               "northeast" : {
                  "lat" : 25.9091415,
                  "lng" : 93.7307946
               },
               "southwest" : {
                  "lat" : 25.9072104,
                  "lng" : 93.72658489999999
               }
            },
            "location" : {
               "lat" : 25.9085002,
               "lng" : 93.72820209999999
            },
            "location_type" : "GEOMETRIC_CENTER",
            "viewport" : {
               "northeast" : {
                  "lat" : 25.9095249302915,
                  "lng" : 93.7307946
               },
               "southwest" : {
                  "lat" : 25.9068269697085,
                  "lng" : 93.72658489999999
               }
            }
         },
         "types" : [ "route" ]
      },
      {
         "address_components" : [
            {
               "long_name" : "Flyover",
               "short_name" : "Flyover",
               "types" : [ "route" ]
            },
            {
               "long_name" : "Nalgonda",
               "short_name" : "Nalgonda",
               "types" : [ "administrative_area_level_2", "political" ]
            },
            {
               "long_name" : "Telangana",
               "short_name" : "Telangana",
               "types" : [ "administrative_area_level_1", "political" ]
            },
            {
               "long_name" : "India",
               "short_name" : "IN",
               "types" : [ "country", "political" ]
            }
         ],
         "formatted_address" : "Flyover, Telangana, India",
         "geometry" : {
            "bounds" : {
               "northeast" : {
                  "lat" : 17.5557112,
                  "lng" : 78.94059
               },
               "southwest" : {
                  "lat" : 17.5486922,
                  "lng" : 78.93831899999999
               }
            },
            "location" : {
               "lat" : 17.5519589,
               "lng" : 78.9402343
            },
            "location_type" : "GEOMETRIC_CENTER",
            "viewport" : {
               "northeast" : {
                  "lat" : 17.5557112,
                  "lng" : 78.94080348029149
               },
               "southwest" : {
                  "lat" : 17.5486922,
                  "lng" : 78.93810551970849
               }
            }
         },
         "types" : [ "route" ]
      },
      {
         "address_components" : [
            {
               "long_name" : "Chandran Nagar Main Road",
               "short_name" : "Chandran Nagar Main Road",
               "types" : [ "route" ]
            },
            {
               "long_name" : "Tirupattur",
               "short_name" : "Tirupattur",
               "types" : [ "locality", "political" ]
            },
            {
               "long_name" : "Vellore",
               "short_name" : "Vellore",
               "types" : [ "administrative_area_level_2", "political" ]
            },
            {
               "long_name" : "Tamil Nadu",
               "short_name" : "TN",
               "types" : [ "administrative_area_level_1", "political" ]
            },
            {
               "long_name" : "India",
               "short_name" : "IN",
               "types" : [ "country", "political" ]
            },
            {
               "long_name" : "635601",
               "short_name" : "635601",
               "types" : [ "postal_code" ]
            }
         ],
         "formatted_address" : "Chandran Nagar Main Road, Tirupattur, Tamil Nadu 635601, India",
         "geometry" : {
            "bounds" : {
               "northeast" : {
                  "lat" : 12.494587,
                  "lng" : 78.5594469
               },
               "southwest" : {
                  "lat" : 12.4843729,
                  "lng" : 78.55088189999999
               }
            },
            "location" : {
               "lat" : 12.488916,
               "lng" : 78.55598860000001
            },
            "location_type" : "GEOMETRIC_CENTER",
            "viewport" : {
               "northeast" : {
                  "lat" : 12.494587,
                  "lng" : 78.5594469
               },
               "southwest" : {
                  "lat" : 12.4843729,
                  "lng" : 78.55088189999999
               }
            }
         },
         "types" : [ "route" ]
      },
      {
         "address_components" : [
            {
               "long_name" : "flyover",
               "short_name" : "flyover",
               "types" : [ "route" ]
            },
            {
               "long_name" : "Mahavir Colony",
               "short_name" : "Mahavir Colony",
               "types" : [ "neighborhood", "political" ]
            },
            {
               "long_name" : "Abohar",
               "short_name" : "Abohar",
               "types" : [ "locality", "political" ]
            },
            {
               "long_name" : "Fazilka",
               "short_name" : "Fazilka",
               "types" : [ "administrative_area_level_2", "political" ]
            },
            {
               "long_name" : "Punjab",
               "short_name" : "PB",
               "types" : [ "administrative_area_level_1", "political" ]
            },
            {
               "long_name" : "India",
               "short_name" : "IN",
               "types" : [ "country", "political" ]
            },
            {
               "long_name" : "152116",
               "short_name" : "152116",
               "types" : [ "postal_code" ]
            }
         ],
         "formatted_address" : "flyover, Mahavir Colony, Abohar, Punjab 152116, India",
         "geometry" : {
            "bounds" : {
               "northeast" : {
                  "lat" : 30.1437487,
                  "lng" : 74.20615769999999
               },
               "southwest" : {
                  "lat" : 30.1382449,
                  "lng" : 74.2056314
               }
            },
            "location" : {
               "lat" : 30.140817,
               "lng" : 74.2060575
            },
            "location_type" : "GEOMETRIC_CENTER",
            "viewport" : {
               "northeast" : {
                  "lat" : 30.1437487,
                  "lng" : 74.20724353029151
               },
               "southwest" : {
                  "lat" : 30.1382449,
                  "lng" : 74.2045455697085
               }
            }
         },
         "types" : [ "route" ]
      },
      {
         "address_components" : [
            {
               "long_name" : "Flyover",
               "short_name" : "Flyover",
               "types" : [ "route" ]
            },
            {
               "long_name" : "Anantapur",
               "short_name" : "Anantapur",
               "types" : [ "locality", "political" ]
            },
            {
               "long_name" : "Anantapuram",
               "short_name" : "Anantapuram",
               "types" : [ "administrative_area_level_2", "political" ]
            },
            {
               "long_name" : "Andhra Pradesh",
               "short_name" : "AP",
               "types" : [ "administrative_area_level_1", "political" ]
            },
            {
               "long_name" : "India",
               "short_name" : "IN",
               "types" : [ "country", "political" ]
            }
         ],
         "formatted_address" : "Flyover, Anantapur, Andhra Pradesh, India",
         "geometry" : {
            "bounds" : {
               "northeast" : {
                  "lat" : 14.6909683,
                  "lng" : 77.5983864
               },
               "southwest" : {
                  "lat" : 14.6883482,
                  "lng" : 77.59578069999999
               }
            },
            "location" : {
               "lat" : 14.689179,
               "lng" : 77.5967843
            },
            "location_type" : "GEOMETRIC_CENTER",
            "viewport" : {
               "northeast" : {
                  "lat" : 14.6910072302915,
                  "lng" : 77.59843253029149
               },
               "southwest" : {
                  "lat" : 14.6883092697085,
                  "lng" : 77.59573456970848
               }
            }
         },
         "types" : [ "route" ]
      },
      {
         "address_components" : [
            {
               "long_name" : "Flyover",
               "short_name" : "Flyover",
               "types" : [ "route" ]
            },
            {
               "long_name" : "Sector 14",
               "short_name" : "Sector 14",
               "types" : [ "sublocality_level_1", "sublocality", "political" ]
            },
            {
               "long_name" : "Karnal",
               "short_name" : "Karnal",
               "types" : [ "locality", "political" ]
            },
            {
               "long_name" : "Karnal",
               "short_name" : "Karnal",
               "types" : [ "administrative_area_level_2", "political" ]
            },
            {
               "long_name" : "Haryana",
               "short_name" : "HR",
               "types" : [ "administrative_area_level_1", "political" ]
            },
            {
               "long_name" : "India",
               "short_name" : "IN",
               "types" : [ "country", "political" ]
            },
            {
               "long_name" : "132001",
               "short_name" : "132001",
               "types" : [ "postal_code" ]
            }
         ],
         "formatted_address" : "Flyover, Sector 14, Karnal, Haryana 132001, India",
         "geometry" : {
            "bounds" : {
               "northeast" : {
                  "lat" : 29.6775724,
                  "lng" : 77.0042622
               },
               "southwest" : {
                  "lat" : 29.6719351,
                  "lng" : 76.9979103
               }
            },
            "location" : {
               "lat" : 29.6740163,
               "lng" : 77.00170079999999
            },
            "location_type" : "GEOMETRIC_CENTER",
            "viewport" : {
               "northeast" : {
                  "lat" : 29.6775724,
                  "lng" : 77.0042622
               },
               "southwest" : {
                  "lat" : 29.6719351,
                  "lng" : 76.9979103
               }
            }
         },
         "types" : [ "route" ]
      },
      {
         "address_components" : [
            {
               "long_name" : "Flyover",
               "short_name" : "Flyover",
               "types" : [ "route" ]
            },
            {
               "long_name" : "Anand",
               "short_name" : "Anand",
               "types" : [ "administrative_area_level_2", "political" ]
            },
            {
               "long_name" : "Gujarat",
               "short_name" : "GJ",
               "types" : [ "administrative_area_level_1", "political" ]
            },
            {
               "long_name" : "India",
               "short_name" : "IN",
               "types" : [ "country", "political" ]
            },
            {
               "long_name" : "387310",
               "short_name" : "387310",
               "types" : [ "postal_code" ]
            }
         ],
         "formatted_address" : "Flyover, Gujarat 387310, India",
         "geometry" : {
            "bounds" : {
               "northeast" : {
                  "lat" : 22.6324607,
                  "lng" : 72.9475075
               },
               "southwest" : {
                  "lat" : 22.6309605,
                  "lng" : 72.9457158
               }
            },
            "location" : {
               "lat" : 22.6320894,
               "lng" : 72.9469979
            },
            "location_type" : "GEOMETRIC_CENTER",
            "viewport" : {
               "northeast" : {
                  "lat" : 22.6330595802915,
                  "lng" : 72.9479606302915
               },
               "southwest" : {
                  "lat" : 22.6303616197085,
                  "lng" : 72.9452626697085
               }
            }
         },
         "types" : [ "route" ]
      },
      {
         "address_components" : [
            {
               "long_name" : "Flyover",
               "short_name" : "Flyover",
               "types" : [ "route" ]
            },
            {
               "long_name" : "Anand",
               "short_name" : "Anand",
               "types" : [ "administrative_area_level_2", "political" ]
            },
            {
               "long_name" : "Gujarat",
               "short_name" : "GJ",
               "types" : [ "administrative_area_level_1", "political" ]
            },
            {
               "long_name" : "India",
               "short_name" : "IN",
               "types" : [ "country", "political" ]
            },
            {
               "long_name" : "388306",
               "short_name" : "388306",
               "types" : [ "postal_code" ]
            }
         ],
         "formatted_address" : "Flyover, Gujarat 388306, India",
         "geometry" : {
            "bounds" : {
               "northeast" : {
                  "lat" : 22.5028663,
                  "lng" : 73.0623128
               },
               "southwest" : {
                  "lat" : 22.4952409,
                  "lng" : 73.05692549999999
               }
            },
            "location" : {
               "lat" : 22.4983385,
               "lng" : 73.05781069999999
            },
            "location_type" : "GEOMETRIC_CENTER",
            "viewport" : {
               "northeast" : {
                  "lat" : 22.5028663,
                  "lng" : 73.0623128
               },
               "southwest" : {
                  "lat" : 22.4952409,
                  "lng" : 73.05692549999999
               }
            }
         },
         "types" : [ "route" ]
      },
      {
         "address_components" : [
            {
               "long_name" : "Flyover",
               "short_name" : "Flyover",
               "types" : [ "route" ]
            },
            {
               "long_name" : "Ramakrishna Rao Peta",
               "short_name" : "Ramakrishna Rao Peta",
               "types" : [ "sublocality_level_1", "sublocality", "political" ]
            },
            {
               "long_name" : "Kakinada",
               "short_name" : "Kakinada",
               "types" : [ "locality", "political" ]
            },
            {
               "long_name" : "East Godavari",
               "short_name" : "East Godavari",
               "types" : [ "administrative_area_level_2", "political" ]
            },
            {
               "long_name" : "Andhra Pradesh",
               "short_name" : "AP",
               "types" : [ "administrative_area_level_1", "political" ]
            },
            {
               "long_name" : "India",
               "short_name" : "IN",
               "types" : [ "country", "political" ]
            },
            {
               "long_name" : "533001",
               "short_name" : "533001",
               "types" : [ "postal_code" ]
            }
         ],
         "formatted_address" : "Flyover, Ramakrishna Rao Peta, Kakinada, Andhra Pradesh 533001, India",
         "geometry" : {
            "bounds" : {
               "northeast" : {
                  "lat" : 16.9626115,
                  "lng" : 82.2382169
               },
               "southwest" : {
                  "lat" : 16.9616377,
                  "lng" : 82.2377006
               }
            },
            "location" : {
               "lat" : 16.962428,
               "lng" : 82.2377006
            },
            "location_type" : "GEOMETRIC_CENTER",
            "viewport" : {
               "northeast" : {
                  "lat" : 16.96347358029151,
                  "lng" : 82.2393077302915
               },
               "southwest" : {
                  "lat" : 16.9607756197085,
                  "lng" : 82.23660976970849
               }
            }
         },
         "types" : [ "route" ]
      },
      {
         "address_components" : [
            {
               "long_name" : "Flyover",
               "short_name" : "Flyover",
               "types" : [ "route" ]
            },
            {
               "long_name" : "Bedwa",
               "short_name" : "Bedwa",
               "types" : [ "locality", "political" ]
            },
            {
               "long_name" : "Anand",
               "short_name" : "Anand",
               "types" : [ "administrative_area_level_2", "political" ]
            },
            {
               "long_name" : "Gujarat",
               "short_name" : "GJ",
               "types" : [ "administrative_area_level_1", "political" ]
            },
            {
               "long_name" : "India",
               "short_name" : "IN",
               "types" : [ "country", "political" ]
            },
            {
               "long_name" : "388330",
               "short_name" : "388330",
               "types" : [ "postal_code" ]
            }
         ],
         "formatted_address" : "Flyover, Bedwa, Gujarat 388330, India",
         "geometry" : {
            "bounds" : {
               "northeast" : {
                  "lat" : 22.53326,
                  "lng" : 73.0430746
               },
               "southwest" : {
                  "lat" : 22.5323136,
                  "lng" : 73.041299
               }
            },
            "location" : {
               "lat" : 22.5327868,
               "lng" : 73.0421868
            },
            "location_type" : "GEOMETRIC_CENTER",
            "viewport" : {
               "northeast" : {
                  "lat" : 22.5341357802915,
                  "lng" : 73.04353578029151
               },
               "southwest" : {
                  "lat" : 22.5314378197085,
                  "lng" : 73.0408378197085
               }
            }
         },
         "types" : [ "route" ]
      },
      {
         "address_components" : [
            {
               "long_name" : "Flyover",
               "short_name" : "Flyover",
               "types" : [ "route" ]
            },
            {
               "long_name" : "Vasna",
               "short_name" : "Vasna",
               "types" : [ "locality", "political" ]
            },
            {
               "long_name" : "Bharuch",
               "short_name" : "Bharuch",
               "types" : [ "administrative_area_level_2", "political" ]
            },
            {
               "long_name" : "Gujarat",
               "short_name" : "GJ",
               "types" : [ "administrative_area_level_1", "political" ]
            },
            {
               "long_name" : "India",
               "short_name" : "IN",
               "types" : [ "country", "political" ]
            },
            {
               "long_name" : "393110",
               "short_name" : "393110",
               "types" : [ "postal_code" ]
            }
         ],
         "formatted_address" : "Flyover, Vasna, Gujarat 393110, India",
         "geometry" : {
            "bounds" : {
               "northeast" : {
                  "lat" : 21.6534067,
                  "lng" : 73.2035702
               },
               "southwest" : {
                  "lat" : 21.6528874,
                  "lng" : 73.2029534
               }
            },
            "location" : {
               "lat" : 21.653229,
               "lng" : 73.2032997
            },
            "location_type" : "GEOMETRIC_CENTER",
            "viewport" : {
               "northeast" : {
                  "lat" : 21.6544960302915,
                  "lng" : 73.2046107802915
               },
               "southwest" : {
                  "lat" : 21.65179806970849,
                  "lng" : 73.2019128197085
               }
            }
         },
         "types" : [ "route" ]
      },
      {
         "address_components" : [
            {
               "long_name" : "Flyover",
               "short_name" : "Flyover",
               "types" : [ "route" ]
            },
            {
               "long_name" : "Kheda",
               "short_name" : "Kheda",
               "types" : [ "administrative_area_level_2", "political" ]
            },
            {
               "long_name" : "Gujarat",
               "short_name" : "GJ",
               "types" : [ "administrative_area_level_1", "political" ]
            },
            {
               "long_name" : "India",
               "short_name" : "IN",
               "types" : [ "country", "political" ]
            },
            {
               "long_name" : "387430",
               "short_name" : "387430",
               "types" : [ "postal_code" ]
            }
         ],
         "formatted_address" : "Flyover, Gujarat 387430, India",
         "geometry" : {
            "bounds" : {
               "northeast" : {
                  "lat" : 22.8656637,
                  "lng" : 72.8062765
               },
               "southwest" : {
                  "lat" : 22.8650211,
                  "lng" : 72.80491929999999
               }
            },
            "location" : {
               "lat" : 22.8655648,
               "lng" : 72.80609939999999
            },
            "location_type" : "GEOMETRIC_CENTER",
            "viewport" : {
               "northeast" : {
                  "lat" : 22.8666913802915,
                  "lng" : 72.80694688029151
               },
               "southwest" : {
                  "lat" : 22.8639934197085,
                  "lng" : 72.8042489197085
               }
            }
         },
         "types" : [ "route" ]
      },
      {
         "address_components" : [
            {
               "long_name" : "Flyover",
               "short_name" : "Flyover",
               "types" : [ "route" ]
            },
            {
               "long_name" : "Dodka",
               "short_name" : "Dodka",
               "types" : [ "locality", "political" ]
            },
            {
               "long_name" : "Vadodara",
               "short_name" : "Vadodara",
               "types" : [ "administrative_area_level_2", "political" ]
            },
            {
               "long_name" : "Gujarat",
               "short_name" : "GJ",
               "types" : [ "administrative_area_level_1", "political" ]
            },
            {
               "long_name" : "India",
               "short_name" : "IN",
               "types" : [ "country", "political" ]
            },
            {
               "long_name" : "391745",
               "short_name" : "391745",
               "types" : [ "postal_code" ]
            }
         ],
         "formatted_address" : "Flyover, Dodka, Gujarat 391745, India",
         "geometry" : {
            "bounds" : {
               "northeast" : {
                  "lat" : 22.4632199,
                  "lng" : 73.115961
               },
               "southwest" : {
                  "lat" : 22.4631335,
                  "lng" : 73.1152582
               }
            },
            "location" : {
               "lat" : 22.4631767,
               "lng" : 73.1156096
            },
            "location_type" : "GEOMETRIC_CENTER",
            "viewport" : {
               "northeast" : {
                  "lat" : 22.4645256802915,
                  "lng" : 73.11695858029151
               },
               "southwest" : {
                  "lat" : 22.4618277197085,
                  "lng" : 73.1142606197085
               }
            }
         },
         "types" : [ "route" ]
      },
      {
         "address_components" : [
            {
               "long_name" : "Flyover",
               "short_name" : "Flyover",
               "types" : [ "premise" ]
            },
            {
               "long_name" : "Loni Road",
               "short_name" : "Loni Rd",
               "types" : [ "route" ]
            },
            {
               "long_name" : "Gokalpur",
               "short_name" : "Gokalpur",
               "types" : [ "sublocality_level_1", "sublocality", "political" ]
            },
            {
               "long_name" : "New Delhi",
               "short_name" : "New Delhi",
               "types" : [ "locality", "political" ]
            },
            {
               "long_name" : "North East Delhi",
               "short_name" : "North East Delhi",
               "types" : [ "administrative_area_level_2", "political" ]
            },
            {
               "long_name" : "Delhi",
               "short_name" : "DL",
               "types" : [ "administrative_area_level_1", "political" ]
            },
            {
               "long_name" : "India",
               "short_name" : "IN",
               "types" : [ "country", "political" ]
            },
            {
               "long_name" : "110094",
               "short_name" : "110094",
               "types" : [ "postal_code" ]
            }
         ],
         "formatted_address" : "Flyover, Loni Road, Gokalpur, New Delhi, Delhi 110094, India",
         "geometry" : {
            "location" : {
               "lat" : 28.7010343,
               "lng" : 77.29148959999999
            },
            "location_type" : "ROOFTOP",
            "viewport" : {
               "northeast" : {
                  "lat" : 28.7023832802915,
                  "lng" : 77.2928385802915
               },
               "southwest" : {
                  "lat" : 28.6996853197085,
                  "lng" : 77.2901406197085
               }
            }
         },
         "types" : [ "premise" ]
      },
      {
         "address_components" : [
            {
               "long_name" : "Flyover",
               "short_name" : "Flyover",
               "types" : [ "route" ]
            },
            {
               "long_name" : "Kidwaipuri",
               "short_name" : "Kidwaipuri",
               "types" : [ "sublocality_level_1", "sublocality", "political" ]
            },
            {
               "long_name" : "Patna",
               "short_name" : "Patna",
               "types" : [ "locality", "political" ]
            },
            {
               "long_name" : "Patna",
               "short_name" : "Patna",
               "types" : [ "administrative_area_level_2", "political" ]
            },
            {
               "long_name" : "Bihar",
               "short_name" : "BR",
               "types" : [ "administrative_area_level_1", "political" ]
            },
            {
               "long_name" : "India",
               "short_name" : "IN",
               "types" : [ "country", "political" ]
            },
            {
               "long_name" : "800028",
               "short_name" : "800028",
               "types" : [ "postal_code" ]
            }
         ],
         "formatted_address" : "Flyover, Kidwaipuri, Patna, Bihar 800028, India",
         "geometry" : {
            "bounds" : {
               "northeast" : {
                  "lat" : 25.6107477,
                  "lng" : 85.12570199999999
               },
               "southwest" : {
                  "lat" : 25.6103873,
                  "lng" : 85.1255438
               }
            },
            "location" : {
               "lat" : 25.610581,
               "lng" : 85.12566149999999
            },
            "location_type" : "GEOMETRIC_CENTER",
            "viewport" : {
               "northeast" : {
                  "lat" : 25.6119164802915,
                  "lng" : 85.12697188029151
               },
               "southwest" : {
                  "lat" : 25.6092185197085,
                  "lng" : 85.12427391970849
               }
            }
         },
         "types" : [ "route" ]
      },
      {
         "address_components" : [
            {
               "long_name" : "Flyover",
               "short_name" : "Flyover",
               "types" : [ "premise" ]
            },
            {
               "long_name" : "Mangal Pandey Marg",
               "short_name" : "Mangal Pandey Marg",
               "types" : [ "route" ]
            },
            {
               "long_name" : "Gokalpuri",
               "short_name" : "Gokalpuri",
               "types" : [ "sublocality_level_2", "sublocality", "political" ]
            },
            {
               "long_name" : "Gokalpur",
               "short_name" : "Gokalpur",
               "types" : [ "sublocality_level_1", "sublocality", "political" ]
            },
            {
               "long_name" : "New Delhi",
               "short_name" : "New Delhi",
               "types" : [ "locality", "political" ]
            },
            {
               "long_name" : "North East Delhi",
               "short_name" : "North East Delhi",
               "types" : [ "administrative_area_level_2", "political" ]
            },
            {
               "long_name" : "Delhi",
               "short_name" : "DL",
               "types" : [ "administrative_area_level_1", "political" ]
            },
            {
               "long_name" : "India",
               "short_name" : "IN",
               "types" : [ "country", "political" ]
            },
            {
               "long_name" : "110094",
               "short_name" : "110094",
               "types" : [ "postal_code" ]
            }
         ],
         "formatted_address" : "Flyover, Mangal Pandey Marg, Gokalpuri, Gokalpur, New Delhi, Delhi 110094, India",
         "geometry" : {
            "location" : {
               "lat" : 28.7019002,
               "lng" : 77.2833708
            },
            "location_type" : "ROOFTOP",
            "viewport" : {
               "northeast" : {
                  "lat" : 28.7032491802915,
                  "lng" : 77.28471978029151
               },
               "southwest" : {
                  "lat" : 28.7005512197085,
                  "lng" : 77.2820218197085
               }
            }
         },
         "types" : [ "premise" ]
      },
      {
         "address_components" : [
            {
               "long_name" : "Flyover",
               "short_name" : "Flyover",
               "types" : [ "premise" ]
            },
            {
               "long_name" : "Sultania Road",
               "short_name" : "Sultania Rd",
               "types" : [ "route" ]
            },
            {
               "long_name" : "Bhopal",
               "short_name" : "Bhopal",
               "types" : [ "locality", "political" ]
            },
            {
               "long_name" : "Bhopal",
               "short_name" : "Bhopal",
               "types" : [ "administrative_area_level_2", "political" ]
            },
            {
               "long_name" : "Madhya Pradesh",
               "short_name" : "MP",
               "types" : [ "administrative_area_level_1", "political" ]
            },
            {
               "long_name" : "India",
               "short_name" : "IN",
               "types" : [ "country", "political" ]
            },
            {
               "long_name" : "462001",
               "short_name" : "462001",
               "types" : [ "postal_code" ]
            }
         ],
         "formatted_address" : "Flyover, Sultania Road, Bhopal, Madhya Pradesh 462001, India",
         "geometry" : {
            "bounds" : {
               "northeast" : {
                  "lat" : 23.2624607,
                  "lng" : 77.3927271
               },
               "southwest" : {
                  "lat" : 23.2609328,
                  "lng" : 77.3854959
               }
            },
            "location" : {
               "lat" : 23.2616968,
               "lng" : 77.38911150000001
            },
            "location_type" : "ROOFTOP",
            "viewport" : {
               "northeast" : {
                  "lat" : 23.2630457302915,
                  "lng" : 77.3927271
               },
               "southwest" : {
                  "lat" : 23.2603477697085,
                  "lng" : 77.3854959
               }
            }
         },
         "types" : [ "premise" ]
      },
      {
         "address_components" : [
            {
               "long_name" : "Flyover",
               "short_name" : "Flyover",
               "types" : [ "premise" ]
            },
            {
               "long_name" : "Mehrana-Charkhi Dadri Road",
               "short_name" : "Mehrana-Charkhi Dadri Rd",
               "types" : [ "route" ]
            },
            {
               "long_name" : "Charkhi Dadri",
               "short_name" : "Charkhi Dadri",
               "types" : [ "locality", "political" ]
            },
            {
               "long_name" : "Bhiwani",
               "short_name" : "Bhiwani",
               "types" : [ "administrative_area_level_2", "political" ]
            },
            {
               "long_name" : "Haryana",
               "short_name" : "HR",
               "types" : [ "administrative_area_level_1", "political" ]
            },
            {
               "long_name" : "India",
               "short_name" : "IN",
               "types" : [ "country", "political" ]
            },
            {
               "long_name" : "127306",
               "short_name" : "127306",
               "types" : [ "postal_code" ]
            }
         ],
         "formatted_address" : "Flyover, Mehrana-Charkhi Dadri Road, Charkhi Dadri, Haryana 127306, India",
         "geometry" : {
            "bounds" : {
               "northeast" : {
                  "lat" : 28.5972018,
                  "lng" : 76.2893093
               },
               "southwest" : {
                  "lat" : 28.5919453,
                  "lng" : 76.2813163
               }
            },
            "location" : {
               "lat" : 28.5945736,
               "lng" : 76.2853128
            },
            "location_type" : "ROOFTOP",
            "viewport" : {
               "northeast" : {
                  "lat" : 28.5972018,
                  "lng" : 76.2893093
               },
               "southwest" : {
                  "lat" : 28.5919453,
                  "lng" : 76.2813163
               }
            }
         },
         "types" : [ "premise" ]
      }
   ],
   "status" : "OK"
}
