{
   "results" : [
      {
         "address_components" : [
            {
               "long_name" : "Kalina",
               "short_name" : "Kalina",
               "types" : [ "sublocality_level_2", "sublocality", "political" ]
            },
            {
               "long_name" : "Santacruz East",
               "short_name" : "Santacruz East",
               "types" : [ "sublocality_level_1", "sublocality", "political" ]
            },
            {
               "long_name" : "Mumbai",
               "short_name" : "Mumbai",
               "types" : [ "locality", "political" ]
            },
            {
               "long_name" : "Mumbai Suburban",
               "short_name" : "Mumbai Suburban",
               "types" : [ "administrative_area_level_2", "political" ]
            },
            {
               "long_name" : "Maharashtra",
               "short_name" : "MH",
               "types" : [ "administrative_area_level_1", "political" ]
            },
            {
               "long_name" : "India",
               "short_name" : "IN",
               "types" : [ "country", "political" ]
            }
         ],
         "formatted_address" : "Kalina, Santacruz East, Mumbai, Maharashtra, India",
         "geometry" : {
            "bounds" : {
               "northeast" : {
                  "lat" : 19.0813191,
                  "lng" : 72.876282
               },
               "southwest" : {
                  "lat" : 19.0652199,
                  "lng" : 72.84921299999999
               }
            },
            "location" : {
               "lat" : 19.076277,
               "lng" : 72.8653997
            },
            "location_type" : "APPROXIMATE",
            "viewport" : {
               "northeast" : {
                  "lat" : 19.0813191,
                  "lng" : 72.876282
               },
               "southwest" : {
                  "lat" : 19.0652199,
                  "lng" : 72.84921299999999
               }
            }
         },
         "partial_match" : true,
         "types" : [ "sublocality_level_2", "sublocality", "political" ]
      },
      {
         "address_components" : [
            {
               "long_name" : "Santacruz",
               "short_name" : "Santacruz",
               "types" : [ "train_station", "transit_station", "establishment" ]
            },
            {
               "long_name" : "MG Road",
               "short_name" : "MG Rd",
               "types" : [ "route" ]
            },
            {
               "long_name" : "Sen Nagar",
               "short_name" : "Sen Nagar",
               "types" : [ "sublocality_level_2", "sublocality", "political" ]
            },
            {
               "long_name" : "Santacruz West",
               "short_name" : "Santacruz West",
               "types" : [ "sublocality_level_1", "sublocality", "political" ]
            },
            {
               "long_name" : "Mumbai",
               "short_name" : "Mumbai",
               "types" : [ "locality", "political" ]
            },
            {
               "long_name" : "Mumbai",
               "short_name" : "Mumbai",
               "types" : [ "administrative_area_level_2", "political" ]
            },
            {
               "long_name" : "Maharashtra",
               "short_name" : "MH",
               "types" : [ "administrative_area_level_1", "political" ]
            },
            {
               "long_name" : "India",
               "short_name" : "IN",
               "types" : [ "country", "political" ]
            },
            {
               "long_name" : "400055",
               "short_name" : "400055",
               "types" : [ "postal_code" ]
            }
         ],
         "formatted_address" : "Santacruz, MG Road, Sen Nagar, Santacruz West, Mumbai, Maharashtra 400055, India",
         "geometry" : {
            "bounds" : {
               "northeast" : {
                  "lat" : 19.0845774,
                  "lng" : 72.8420983
               },
               "southwest" : {
                  "lat" : 19.0802618,
                  "lng" : 72.84127219999999
               }
            },
            "location" : {
               "lat" : 19.0825552,
               "lng" : 72.84176269999999
            },
            "location_type" : "APPROXIMATE",
            "viewport" : {
               "northeast" : {
                  "lat" : 19.0845774,
                  "lng" : 72.84303423029151
               },
               "southwest" : {
                  "lat" : 19.0802618,
                  "lng" : 72.8403362697085
               }
            }
         },
         "partial_match" : true,
         "types" : [ "train_station", "transit_station", "establishment" ]
      }
   ],
   "status" : "OK"
}
