{
   "results" : [
      {
         "address_components" : [
            {
               "long_name" : "Road",
               "short_name" : "Road",
               "types" : [ "route" ]
            },
            {
               "long_name" : "Tërbuf",
               "short_name" : "Tërbuf",
               "types" : [ "locality", "political" ]
            },
            {
               "long_name" : "Lushnjë District",
               "short_name" : "Lushnjë District",
               "types" : [ "administrative_area_level_2", "political" ]
            },
            {
               "long_name" : "Fier",
               "short_name" : "Fier",
               "types" : [ "administrative_area_level_1", "political" ]
            },
            {
               "long_name" : "Albania",
               "short_name" : "AL",
               "types" : [ "country", "political" ]
            }
         ],
         "formatted_address" : "Road, Tërbuf, Albania",
         "geometry" : {
            "bounds" : {
               "northeast" : {
                  "lat" : 41.0519309,
                  "lng" : 19.6289155
               },
               "southwest" : {
                  "lat" : 40.99144320000001,
                  "lng" : 19.606299
               }
            },
            "location" : {
               "lat" : 41.0172619,
               "lng" : 19.6189021
            },
            "location_type" : "GEOMETRIC_CENTER",
            "viewport" : {
               "northeast" : {
                  "lat" : 41.0519309,
                  "lng" : 19.6289155
               },
               "southwest" : {
                  "lat" : 40.99144320000001,
                  "lng" : 19.606299
               }
            }
         },
         "partial_match" : true,
         "types" : [ "route" ]
      },
      {
         "address_components" : [
            {
               "long_name" : "Road",
               "short_name" : "Road",
               "types" : [ "route" ]
            },
            {
               "long_name" : "Damaneh",
               "short_name" : "Damaneh",
               "types" : [ "locality", "political" ]
            },
            {
               "long_name" : "Fereidan",
               "short_name" : "Fereidan",
               "types" : [ "administrative_area_level_2", "political" ]
            },
            {
               "long_name" : "Isfahan",
               "short_name" : "Isfahan",
               "types" : [ "administrative_area_level_1", "political" ]
            },
            {
               "long_name" : "Iran",
               "short_name" : "IR",
               "types" : [ "country", "political" ]
            }
         ],
         "formatted_address" : "Isfahan, Damaneh, Road, Iran",
         "geometry" : {
            "bounds" : {
               "northeast" : {
                  "lat" : 33.0241135,
                  "lng" : 50.4899454
               },
               "southwest" : {
                  "lat" : 33.0081597,
                  "lng" : 50.4830797
               }
            },
            "location" : {
               "lat" : 33.0150505,
               "lng" : 50.4890701
            },
            "location_type" : "GEOMETRIC_CENTER",
            "viewport" : {
               "northeast" : {
                  "lat" : 33.0241135,
                  "lng" : 50.4899454
               },
               "southwest" : {
                  "lat" : 33.0081597,
                  "lng" : 50.4830797
               }
            }
         },
         "partial_match" : true,
         "types" : [ "route" ]
      },
      {
         "address_components" : [
            {
               "long_name" : "Road",
               "short_name" : "Road",
               "types" : [ "route" ]
            },
            {
               "long_name" : "Matli",
               "short_name" : "Matli",
               "types" : [ "locality", "political" ]
            },
            {
               "long_name" : "Badin",
               "short_name" : "Badin",
               "types" : [ "administrative_area_level_2", "political" ]
            },
            {
               "long_name" : "Sindh",
               "short_name" : "Sindh",
               "types" : [ "administrative_area_level_1", "political" ]
            },
            {
               "long_name" : "Pakistan",
               "short_name" : "PK",
               "types" : [ "country", "political" ]
            }
         ],
         "formatted_address" : "Road, Matli, Pakistan",
         "geometry" : {
            "bounds" : {
               "northeast" : {
                  "lat" : 25.0479814,
                  "lng" : 68.65230799999999
               },
               "southwest" : {
                  "lat" : 25.043474,
                  "lng" : 68.6507173
               }
            },
            "location" : {
               "lat" : 25.0457679,
               "lng" : 68.65129259999999
            },
            "location_type" : "GEOMETRIC_CENTER",
            "viewport" : {
               "northeast" : {
                  "lat" : 25.0479814,
                  "lng" : 68.6528616302915
               },
               "southwest" : {
                  "lat" : 25.043474,
                  "lng" : 68.65016366970849
               }
            }
         },
         "partial_match" : true,
         "types" : [ "route" ]
      },
      {
         "address_components" : [
            {
               "long_name" : "Road",
               "short_name" : "Road",
               "types" : [ "route" ]
            },
            {
               "long_name" : "Dinajpur",
               "short_name" : "Dinajpur",
               "types" : [ "administrative_area_level_2", "political" ]
            },
            {
               "long_name" : "Rangpur Division",
               "short_name" : "Rangpur Division",
               "types" : [ "administrative_area_level_1", "political" ]
            },
            {
               "long_name" : "Bangladesh",
               "short_name" : "BD",
               "types" : [ "country", "political" ]
            }
         ],
         "formatted_address" : "Road, Bangladesh",
         "geometry" : {
            "bounds" : {
               "northeast" : {
                  "lat" : 25.6226915,
                  "lng" : 88.49869389999999
               },
               "southwest" : {
                  "lat" : 25.6208973,
                  "lng" : 88.49172449999999
               }
            },
            "location" : {
               "lat" : 25.621953,
               "lng" : 88.49481399999999
            },
            "location_type" : "GEOMETRIC_CENTER",
            "viewport" : {
               "northeast" : {
                  "lat" : 25.62314338029151,
                  "lng" : 88.49869389999999
               },
               "southwest" : {
                  "lat" : 25.6204454197085,
                  "lng" : 88.49172449999999
               }
            }
         },
         "partial_match" : true,
         "types" : [ "route" ]
      },
      {
         "address_components" : [
            {
               "long_name" : "Road",
               "short_name" : "Road",
               "types" : [ "route" ]
            },
            {
               "long_name" : "Friend Ship Nagar",
               "short_name" : "Friend Ship Nagar",
               "types" : [ "sublocality_level_1", "sublocality", "political" ]
            },
            {
               "long_name" : "Chavakkad",
               "short_name" : "Chavakkad",
               "types" : [ "locality", "political" ]
            },
            {
               "long_name" : "Thrissur",
               "short_name" : "TSR",
               "types" : [ "administrative_area_level_2", "political" ]
            },
            {
               "long_name" : "Kerala",
               "short_name" : "KL",
               "types" : [ "administrative_area_level_1", "political" ]
            },
            {
               "long_name" : "India",
               "short_name" : "IN",
               "types" : [ "country", "political" ]
            },
            {
               "long_name" : "680506",
               "short_name" : "680506",
               "types" : [ "postal_code" ]
            }
         ],
         "formatted_address" : "Road, Friend Ship Nagar, Chavakkad, Kerala 680506, India",
         "geometry" : {
            "bounds" : {
               "northeast" : {
                  "lat" : 10.5919013,
                  "lng" : 76.029562
               },
               "southwest" : {
                  "lat" : 10.5900151,
                  "lng" : 76.0258291
               }
            },
            "location" : {
               "lat" : 10.5908032,
               "lng" : 76.0277512
            },
            "location_type" : "GEOMETRIC_CENTER",
            "viewport" : {
               "northeast" : {
                  "lat" : 10.5923071802915,
                  "lng" : 76.029562
               },
               "southwest" : {
                  "lat" : 10.5896092197085,
                  "lng" : 76.0258291
               }
            }
         },
         "partial_match" : true,
         "types" : [ "route" ]
      },
      {
         "address_components" : [
            {
               "long_name" : "Road",
               "short_name" : "Road",
               "types" : [ "route" ]
            },
            {
               "long_name" : "Al Rehhan",
               "short_name" : "Al Rehhan",
               "types" : [ "neighborhood", "political" ]
            },
            {
               "long_name" : "Abu Dhabi",
               "short_name" : "Abu Dhabi",
               "types" : [ "locality", "political" ]
            },
            {
               "long_name" : "Abu Dhabi",
               "short_name" : "Abu Dhabi",
               "types" : [ "administrative_area_level_1", "political" ]
            },
            {
               "long_name" : "United Arab Emirates",
               "short_name" : "AE",
               "types" : [ "country", "political" ]
            }
         ],
         "formatted_address" : "Road - Abu Dhabi - United Arab Emirates",
         "geometry" : {
            "bounds" : {
               "northeast" : {
                  "lat" : 24.428762,
                  "lng" : 54.4323134
               },
               "southwest" : {
                  "lat" : 24.4281561,
                  "lng" : 54.4315347
               }
            },
            "location" : {
               "lat" : 24.4284384,
               "lng" : 54.4318539
            },
            "location_type" : "GEOMETRIC_CENTER",
            "viewport" : {
               "northeast" : {
                  "lat" : 24.4298080302915,
                  "lng" : 54.4332730302915
               },
               "southwest" : {
                  "lat" : 24.4271100697085,
                  "lng" : 54.4305750697085
               }
            }
         },
         "partial_match" : true,
         "types" : [ "route" ]
      },
      {
         "address_components" : [
            {
               "long_name" : "Road",
               "short_name" : "Road",
               "types" : [ "route" ]
            },
            {
               "long_name" : "Manjari Khurd",
               "short_name" : "Manjari Khurd",
               "types" : [ "locality", "political" ]
            },
            {
               "long_name" : "Pune",
               "short_name" : "Pune",
               "types" : [ "administrative_area_level_2", "political" ]
            },
            {
               "long_name" : "Maharashtra",
               "short_name" : "MH",
               "types" : [ "administrative_area_level_1", "political" ]
            },
            {
               "long_name" : "India",
               "short_name" : "IN",
               "types" : [ "country", "political" ]
            },
            {
               "long_name" : "412207",
               "short_name" : "412207",
               "types" : [ "postal_code" ]
            }
         ],
         "formatted_address" : "Road, Manjari Khurd, Maharashtra 412207, India",
         "geometry" : {
            "bounds" : {
               "northeast" : {
                  "lat" : 18.5308562,
                  "lng" : 73.99572280000001
               },
               "southwest" : {
                  "lat" : 18.5295341,
                  "lng" : 73.9956294
               }
            },
            "location" : {
               "lat" : 18.5308562,
               "lng" : 73.99572280000001
            },
            "location_type" : "GEOMETRIC_CENTER",
            "viewport" : {
               "northeast" : {
                  "lat" : 18.5315441302915,
                  "lng" : 73.99702508029151
               },
               "southwest" : {
                  "lat" : 18.52884616970849,
                  "lng" : 73.9943271197085
               }
            }
         },
         "partial_match" : true,
         "types" : [ "route" ]
      },
      {
         "address_components" : [
            {
               "long_name" : "Rua S",
               "short_name" : "R. S",
               "types" : [ "route" ]
            },
            {
               "long_name" : "Imbariê",
               "short_name" : "Imbariê",
               "types" : [ "neighborhood", "political" ]
            },
            {
               "long_name" : "Duque de Caxias",
               "short_name" : "Duque de Caxias",
               "types" : [ "locality", "political" ]
            },
            {
               "long_name" : "Duque de Caxias",
               "short_name" : "Duque de Caxias",
               "types" : [ "administrative_area_level_2", "political" ]
            },
            {
               "long_name" : "Rio de Janeiro",
               "short_name" : "RJ",
               "types" : [ "administrative_area_level_1", "political" ]
            },
            {
               "long_name" : "Brazil",
               "short_name" : "BR",
               "types" : [ "country", "political" ]
            },
            {
               "long_name" : "25237",
               "short_name" : "25237",
               "types" : [ "postal_code_prefix", "postal_code" ]
            }
         ],
         "formatted_address" : "Rua S - Imbariê, Duque de Caxias - RJ, Brazil",
         "geometry" : {
            "bounds" : {
               "northeast" : {
                  "lat" : -22.6308212,
                  "lng" : -43.2205121
               },
               "southwest" : {
                  "lat" : -22.6323855,
                  "lng" : -43.2218035
               }
            },
            "location" : {
               "lat" : -22.6323855,
               "lng" : -43.2218035
            },
            "location_type" : "GEOMETRIC_CENTER",
            "viewport" : {
               "northeast" : {
                  "lat" : -22.6302543697085,
                  "lng" : -43.2198088197085
               },
               "southwest" : {
                  "lat" : -22.6329523302915,
                  "lng" : -43.2225067802915
               }
            }
         },
         "partial_match" : true,
         "types" : [ "route" ]
      },
      {
         "address_components" : [
            {
               "long_name" : "Rue Sud",
               "short_name" : "Rue S",
               "types" : [ "route" ]
            },
            {
               "long_name" : "Taouzianet",
               "short_name" : "Taouzianet",
               "types" : [ "locality", "political" ]
            },
            {
               "long_name" : "Wilaya de Batna",
               "short_name" : "Wilaya de Batna",
               "types" : [ "administrative_area_level_1", "political" ]
            },
            {
               "long_name" : "Algeria",
               "short_name" : "DZ",
               "types" : [ "country", "political" ]
            }
         ],
         "formatted_address" : "Rue Sud, Taouzianet, Algeria",
         "geometry" : {
            "bounds" : {
               "northeast" : {
                  "lat" : 35.5097637,
                  "lng" : 6.811053999999999
               },
               "southwest" : {
                  "lat" : 35.5094856,
                  "lng" : 6.8096022
               }
            },
            "location" : {
               "lat" : 35.5096546,
               "lng" : 6.8104656
            },
            "location_type" : "GEOMETRIC_CENTER",
            "viewport" : {
               "northeast" : {
                  "lat" : 35.5109736302915,
                  "lng" : 6.811677080291502
               },
               "southwest" : {
                  "lat" : 35.5082756697085,
                  "lng" : 6.808979119708497
               }
            }
         },
         "partial_match" : true,
         "types" : [ "route" ]
      },
      {
         "address_components" : [
            {
               "long_name" : "Route Du Sud",
               "short_name" : "Route Du S",
               "types" : [ "route" ]
            },
            {
               "long_name" : "Plum",
               "short_name" : "Plum",
               "types" : [ "locality", "political" ]
            },
            {
               "long_name" : "Mont-Dore",
               "short_name" : "Mont-Dore",
               "types" : [ "administrative_area_level_2", "political" ]
            },
            {
               "long_name" : "Province Sud",
               "short_name" : "Province Sud",
               "types" : [ "administrative_area_level_1", "political" ]
            },
            {
               "long_name" : "New Caledonia",
               "short_name" : "NC",
               "types" : [ "country", "political" ]
            }
         ],
         "formatted_address" : "Route Du Sud, Plum, New Caledonia",
         "geometry" : {
            "bounds" : {
               "northeast" : {
                  "lat" : -22.2709434,
                  "lng" : 166.6892266
               },
               "southwest" : {
                  "lat" : -22.3042147,
                  "lng" : 166.6229922
               }
            },
            "location" : {
               "lat" : -22.2896126,
               "lng" : 166.653564
            },
            "location_type" : "GEOMETRIC_CENTER",
            "viewport" : {
               "northeast" : {
                  "lat" : -22.2709434,
                  "lng" : 166.6892266
               },
               "southwest" : {
                  "lat" : -22.3042147,
                  "lng" : 166.6229922
               }
            }
         },
         "partial_match" : true,
         "types" : [ "route" ]
      },
      {
         "address_components" : [
            {
               "long_name" : "Route Du Sud",
               "short_name" : "Route Du S",
               "types" : [ "route" ]
            },
            {
               "long_name" : "Mont-Dore",
               "short_name" : "Mont-Dore",
               "types" : [ "administrative_area_level_2", "political" ]
            },
            {
               "long_name" : "Province Sud",
               "short_name" : "Province Sud",
               "types" : [ "administrative_area_level_1", "political" ]
            },
            {
               "long_name" : "New Caledonia",
               "short_name" : "NC",
               "types" : [ "country", "political" ]
            }
         ],
         "formatted_address" : "Route Du Sud, New Caledonia",
         "geometry" : {
            "bounds" : {
               "northeast" : {
                  "lat" : -22.2355362,
                  "lng" : 166.6227669
               },
               "southwest" : {
                  "lat" : -22.2729985,
                  "lng" : 166.5850564
               }
            },
            "location" : {
               "lat" : -22.2514027,
               "lng" : 166.6088167
            },
            "location_type" : "GEOMETRIC_CENTER",
            "viewport" : {
               "northeast" : {
                  "lat" : -22.2355362,
                  "lng" : 166.6227669
               },
               "southwest" : {
                  "lat" : -22.2729985,
                  "lng" : 166.5850564
               }
            }
         },
         "partial_match" : true,
         "types" : [ "route" ]
      },
      {
         "address_components" : [
            {
               "long_name" : "Route Du Sud",
               "short_name" : "Route Du S",
               "types" : [ "route" ]
            },
            {
               "long_name" : "Nouméa",
               "short_name" : "Nouméa",
               "types" : [ "locality", "political" ]
            },
            {
               "long_name" : "Dumbéa",
               "short_name" : "Dumbéa",
               "types" : [ "administrative_area_level_2", "political" ]
            },
            {
               "long_name" : "Province Sud",
               "short_name" : "Province Sud",
               "types" : [ "administrative_area_level_1", "political" ]
            },
            {
               "long_name" : "New Caledonia",
               "short_name" : "NC",
               "types" : [ "country", "political" ]
            }
         ],
         "formatted_address" : "Route Du Sud, Nouméa, New Caledonia",
         "geometry" : {
            "bounds" : {
               "northeast" : {
                  "lat" : -22.2233143,
                  "lng" : 166.4724301
               },
               "southwest" : {
                  "lat" : -22.2240905,
                  "lng" : 166.4683429
               }
            },
            "location" : {
               "lat" : -22.2238583,
               "lng" : 166.4702842
            },
            "location_type" : "GEOMETRIC_CENTER",
            "viewport" : {
               "northeast" : {
                  "lat" : -22.22235341970849,
                  "lng" : 166.4724301
               },
               "southwest" : {
                  "lat" : -22.2250513802915,
                  "lng" : 166.4683429
               }
            }
         },
         "partial_match" : true,
         "types" : [ "route" ]
      },
      {
         "address_components" : [
            {
               "long_name" : "L Road",
               "short_name" : "L Rd",
               "types" : [ "route" ]
            },
            {
               "long_name" : "Kearney County",
               "short_name" : "Kearney County",
               "types" : [ "administrative_area_level_2", "political" ]
            },
            {
               "long_name" : "Nebraska",
               "short_name" : "NE",
               "types" : [ "administrative_area_level_1", "political" ]
            },
            {
               "long_name" : "United States",
               "short_name" : "US",
               "types" : [ "country", "political" ]
            }
         ],
         "formatted_address" : "L Road, Nebraska, USA",
         "geometry" : {
            "bounds" : {
               "northeast" : {
                  "lat" : 40.4958051,
                  "lng" : -98.77534
               },
               "southwest" : {
                  "lat" : 40.4929591,
                  "lng" : -98.9400041
               }
            },
            "location" : {
               "lat" : 40.495386,
               "lng" : -98.8567338
            },
            "location_type" : "GEOMETRIC_CENTER",
            "viewport" : {
               "northeast" : {
                  "lat" : 40.4958051,
                  "lng" : -98.77534
               },
               "southwest" : {
                  "lat" : 40.4929591,
                  "lng" : -98.9400041
               }
            }
         },
         "partial_match" : true,
         "types" : [ "route" ]
      },
      {
         "address_components" : [
            {
               "long_name" : "Road J Northeast",
               "short_name" : "Rd J NE",
               "types" : [ "route" ]
            },
            {
               "long_name" : "Grant County",
               "short_name" : "Grant County",
               "types" : [ "administrative_area_level_2", "political" ]
            },
            {
               "long_name" : "Washington",
               "short_name" : "WA",
               "types" : [ "administrative_area_level_1", "political" ]
            },
            {
               "long_name" : "United States",
               "short_name" : "US",
               "types" : [ "country", "political" ]
            }
         ],
         "formatted_address" : "Road J Northeast, Washington, USA",
         "geometry" : {
            "bounds" : {
               "northeast" : {
                  "lat" : 47.4482935,
                  "lng" : -119.256149
               },
               "southwest" : {
                  "lat" : 47.1457761,
                  "lng" : -119.2897184
               }
            },
            "location" : {
               "lat" : 47.2974829,
               "lng" : -119.2770571
            },
            "location_type" : "GEOMETRIC_CENTER",
            "viewport" : {
               "northeast" : {
                  "lat" : 47.4482935,
                  "lng" : -119.256149
               },
               "southwest" : {
                  "lat" : 47.1457761,
                  "lng" : -119.2897184
               }
            }
         },
         "partial_match" : true,
         "types" : [ "route" ]
      },
      {
         "address_components" : [
            {
               "long_name" : "S Avenue",
               "short_name" : "S Ave",
               "types" : [ "route" ]
            },
            {
               "long_name" : "Boone County",
               "short_name" : "Boone County",
               "types" : [ "administrative_area_level_2", "political" ]
            },
            {
               "long_name" : "Iowa",
               "short_name" : "IA",
               "types" : [ "administrative_area_level_1", "political" ]
            },
            {
               "long_name" : "United States",
               "short_name" : "US",
               "types" : [ "country", "political" ]
            }
         ],
         "formatted_address" : "S Avenue, Iowa, USA",
         "geometry" : {
            "bounds" : {
               "northeast" : {
                  "lat" : 42.1375099,
                  "lng" : -93.8094546
               },
               "southwest" : {
                  "lat" : 41.8779511,
                  "lng" : -93.82157699999999
               }
            },
            "location" : {
               "lat" : 42.0069871,
               "lng" : -93.81534240000001
            },
            "location_type" : "GEOMETRIC_CENTER",
            "viewport" : {
               "northeast" : {
                  "lat" : 42.1375099,
                  "lng" : -93.8094546
               },
               "southwest" : {
                  "lat" : 41.8779511,
                  "lng" : -93.82157699999999
               }
            }
         },
         "partial_match" : true,
         "types" : [ "route" ]
      },
      {
         "address_components" : [
            {
               "long_name" : "Boulevard du Sud",
               "short_name" : "Boulevard du S",
               "types" : [ "route" ]
            },
            {
               "long_name" : "Colomiers",
               "short_name" : "Colomiers",
               "types" : [ "locality", "political" ]
            },
            {
               "long_name" : "Haute-Garonne",
               "short_name" : "31",
               "types" : [ "administrative_area_level_2", "political" ]
            },
            {
               "long_name" : "Midi-Pyrénées",
               "short_name" : "Midi-Pyrénées",
               "types" : [ "administrative_area_level_1", "political" ]
            },
            {
               "long_name" : "France",
               "short_name" : "FR",
               "types" : [ "country", "political" ]
            },
            {
               "long_name" : "31770",
               "short_name" : "31770",
               "types" : [ "postal_code" ]
            }
         ],
         "formatted_address" : "Boulevard du Sud, 31770 Colomiers, France",
         "geometry" : {
            "bounds" : {
               "northeast" : {
                  "lat" : 43.604842,
                  "lng" : 1.3506272
               },
               "southwest" : {
                  "lat" : 43.602228,
                  "lng" : 1.335332
               }
            },
            "location" : {
               "lat" : 43.6022512,
               "lng" : 1.3432156
            },
            "location_type" : "GEOMETRIC_CENTER",
            "viewport" : {
               "northeast" : {
                  "lat" : 43.60488398029149,
                  "lng" : 1.3506272
               },
               "southwest" : {
                  "lat" : 43.6021860197085,
                  "lng" : 1.335332
               }
            }
         },
         "partial_match" : true,
         "types" : [ "route" ]
      },
      {
         "address_components" : [
            {
               "long_name" : "Road L",
               "short_name" : "Rd L",
               "types" : [ "route" ]
            },
            {
               "long_name" : "Cortez",
               "short_name" : "Cortez",
               "types" : [ "locality", "political" ]
            },
            {
               "long_name" : "Montezuma County",
               "short_name" : "Montezuma County",
               "types" : [ "administrative_area_level_2", "political" ]
            },
            {
               "long_name" : "Colorado",
               "short_name" : "CO",
               "types" : [ "administrative_area_level_1", "political" ]
            },
            {
               "long_name" : "United States",
               "short_name" : "US",
               "types" : [ "country", "political" ]
            },
            {
               "long_name" : "81321",
               "short_name" : "81321",
               "types" : [ "postal_code" ]
            }
         ],
         "formatted_address" : "Road L, Cortez, CO 81321, USA",
         "geometry" : {
            "bounds" : {
               "northeast" : {
                  "lat" : 37.37642,
                  "lng" : -108.554485
               },
               "southwest" : {
                  "lat" : 37.36531799999999,
                  "lng" : -108.616559
               }
            },
            "location" : {
               "lat" : 37.3706142,
               "lng" : -108.585484
            },
            "location_type" : "GEOMETRIC_CENTER",
            "viewport" : {
               "northeast" : {
                  "lat" : 37.37642,
                  "lng" : -108.554485
               },
               "southwest" : {
                  "lat" : 37.36531799999999,
                  "lng" : -108.616559
               }
            }
         },
         "partial_match" : true,
         "types" : [ "route" ]
      }
   ],
   "status" : "OK"
}
