{
   "results" : [
      {
         "address_components" : [
            {
               "long_name" : "L B South Road",
               "short_name" : "L B S Rd",
               "types" : [ "route" ]
            },
            {
               "long_name" : "Pittsburg",
               "short_name" : "Pittsburg",
               "types" : [ "locality", "political" ]
            },
            {
               "long_name" : "Titus County",
               "short_name" : "Titus County",
               "types" : [ "administrative_area_level_2", "political" ]
            },
            {
               "long_name" : "Texas",
               "short_name" : "TX",
               "types" : [ "administrative_area_level_1", "political" ]
            },
            {
               "long_name" : "United States",
               "short_name" : "US",
               "types" : [ "country", "political" ]
            },
            {
               "long_name" : "75686",
               "short_name" : "75686",
               "types" : [ "postal_code" ]
            }
         ],
         "formatted_address" : "L B South Road, Pittsburg, TX 75686, USA",
         "geometry" : {
            "bounds" : {
               "northeast" : {
                  "lat" : 33.061052,
                  "lng" : -95.0799121
               },
               "southwest" : {
                  "lat" : 33.0477524,
                  "lng" : -95.10342369999999
               }
            },
            "location" : {
               "lat" : 33.056,
               "lng" : -95.09331189999999
            },
            "location_type" : "GEOMETRIC_CENTER",
            "viewport" : {
               "northeast" : {
                  "lat" : 33.061052,
                  "lng" : -95.0799121
               },
               "southwest" : {
                  "lat" : 33.0477524,
                  "lng" : -95.10342369999999
               }
            }
         },
         "types" : [ "route" ]
      },
      {
         "address_components" : [
            {
               "long_name" : "LBSH Road",
               "short_name" : "LBSH Rd",
               "types" : [ "route" ]
            },
            {
               "long_name" : "Arap",
               "short_name" : "Arap",
               "types" : [ "locality", "political" ]
            },
            {
               "long_name" : "Patna",
               "short_name" : "Patna",
               "types" : [ "administrative_area_level_2", "political" ]
            },
            {
               "long_name" : "Bihar",
               "short_name" : "BR",
               "types" : [ "administrative_area_level_1", "political" ]
            },
            {
               "long_name" : "India",
               "short_name" : "IN",
               "types" : [ "country", "political" ]
            },
            {
               "long_name" : "801103",
               "short_name" : "801103",
               "types" : [ "postal_code" ]
            }
         ],
         "formatted_address" : "LBSH Road, Arap, Bihar 801103, India",
         "geometry" : {
            "bounds" : {
               "northeast" : {
                  "lat" : 25.4887176,
                  "lng" : 84.89865180000001
               },
               "southwest" : {
                  "lat" : 25.4885521,
                  "lng" : 84.8967808
               }
            },
            "location" : {
               "lat" : 25.488707,
               "lng" : 84.8977357
            },
            "location_type" : "GEOMETRIC_CENTER",
            "viewport" : {
               "northeast" : {
                  "lat" : 25.4899838302915,
                  "lng" : 84.89906528029151
               },
               "southwest" : {
                  "lat" : 25.4872858697085,
                  "lng" : 84.8963673197085
               }
            }
         },
         "types" : [ "route" ]
      },
      {
         "address_components" : [
            {
               "long_name" : "LBSH Road",
               "short_name" : "LBSH Rd",
               "types" : [ "route" ]
            },
            {
               "long_name" : "Baliari",
               "short_name" : "Baliari",
               "types" : [ "locality", "political" ]
            },
            {
               "long_name" : "Patna",
               "short_name" : "Patna",
               "types" : [ "administrative_area_level_2", "political" ]
            },
            {
               "long_name" : "Bihar",
               "short_name" : "BR",
               "types" : [ "administrative_area_level_1", "political" ]
            },
            {
               "long_name" : "India",
               "short_name" : "IN",
               "types" : [ "country", "political" ]
            },
            {
               "long_name" : "801103",
               "short_name" : "801103",
               "types" : [ "postal_code" ]
            }
         ],
         "formatted_address" : "LBSH Road, Baliari, Bihar 801103, India",
         "geometry" : {
            "bounds" : {
               "northeast" : {
                  "lat" : 25.4889158,
                  "lng" : 84.8967808
               },
               "southwest" : {
                  "lat" : 25.4885569,
                  "lng" : 84.8950598
               }
            },
            "location" : {
               "lat" : 25.4887143,
               "lng" : 84.8960513
            },
            "location_type" : "GEOMETRIC_CENTER",
            "viewport" : {
               "northeast" : {
                  "lat" : 25.4900853302915,
                  "lng" : 84.89726928029151
               },
               "southwest" : {
                  "lat" : 25.4873873697085,
                  "lng" : 84.8945713197085
               }
            }
         },
         "types" : [ "route" ]
      },
      {
         "address_components" : [
            {
               "long_name" : "L.B.S Road",
               "short_name" : "L.B.S Road",
               "types" : [ "route" ]
            },
            {
               "long_name" : "Povval",
               "short_name" : "Povval",
               "types" : [ "sublocality_level_1", "sublocality", "political" ]
            },
            {
               "long_name" : "Bovikanam",
               "short_name" : "Bovikanam",
               "types" : [ "locality", "political" ]
            },
            {
               "long_name" : "Kasaragod",
               "short_name" : "Kasaragod",
               "types" : [ "administrative_area_level_2", "political" ]
            },
            {
               "long_name" : "Kerala",
               "short_name" : "KL",
               "types" : [ "administrative_area_level_1", "political" ]
            },
            {
               "long_name" : "India",
               "short_name" : "IN",
               "types" : [ "country", "political" ]
            },
            {
               "long_name" : "671542",
               "short_name" : "671542",
               "types" : [ "postal_code" ]
            }
         ],
         "formatted_address" : "L.B.S Road, Povval, Bovikanam, Kerala 671542, India",
         "geometry" : {
            "bounds" : {
               "northeast" : {
                  "lat" : 12.5099852,
                  "lng" : 75.0800294
               },
               "southwest" : {
                  "lat" : 12.5030137,
                  "lng" : 75.07855579999999
               }
            },
            "location" : {
               "lat" : 12.5062442,
               "lng" : 75.07951109999999
            },
            "location_type" : "GEOMETRIC_CENTER",
            "viewport" : {
               "northeast" : {
                  "lat" : 12.5099852,
                  "lng" : 75.0806415802915
               },
               "southwest" : {
                  "lat" : 12.5030137,
                  "lng" : 75.07794361970849
               }
            }
         },
         "types" : [ "route" ]
      },
      {
         "address_components" : [
            {
               "long_name" : "LBS Road",
               "short_name" : "LBS Road",
               "types" : [ "route" ]
            },
            {
               "long_name" : "Kandarpada",
               "short_name" : "Kandarpada",
               "types" : [ "neighborhood", "political" ]
            },
            {
               "long_name" : "Lal Bahadur Shastri Nagar",
               "short_name" : "Lal Bahadur Shastri Nagar",
               "types" : [ "sublocality_level_2", "sublocality", "political" ]
            },
            {
               "long_name" : "Dahisar West",
               "short_name" : "Dahisar West",
               "types" : [ "sublocality_level_1", "sublocality", "political" ]
            },
            {
               "long_name" : "Mumbai",
               "short_name" : "Mumbai",
               "types" : [ "locality", "political" ]
            },
            {
               "long_name" : "Mumbai Suburban",
               "short_name" : "Mumbai Suburban",
               "types" : [ "administrative_area_level_2", "political" ]
            },
            {
               "long_name" : "Maharashtra",
               "short_name" : "MH",
               "types" : [ "administrative_area_level_1", "political" ]
            },
            {
               "long_name" : "India",
               "short_name" : "IN",
               "types" : [ "country", "political" ]
            },
            {
               "long_name" : "400068",
               "short_name" : "400068",
               "types" : [ "postal_code" ]
            }
         ],
         "formatted_address" : "LBS Road, Kandarpada, Lal Bahadur Shastri Nagar, Dahisar West, Mumbai, Maharashtra 400068",
         "geometry" : {
            "location" : {
               "lat" : 19.254094,
               "lng" : 72.853202
            },
            "location_type" : "GEOMETRIC_CENTER",
            "viewport" : {
               "northeast" : {
                  "lat" : 19.25544298029151,
                  "lng" : 72.85455098029151
               },
               "southwest" : {
                  "lat" : 19.2527450197085,
                  "lng" : 72.8518530197085
               }
            }
         },
         "types" : [ "route" ]
      },
      {
         "address_components" : [
            {
               "long_name" : "L.B.S. Road",
               "short_name" : "L.B.S. Rd",
               "types" : [ "route" ]
            },
            {
               "long_name" : "Rambag Colony",
               "short_name" : "Rambag Colony",
               "types" : [ "sublocality_level_3", "sublocality", "political" ]
            },
            {
               "long_name" : "Lokamanya Nagar",
               "short_name" : "Lokamanya Nagar",
               "types" : [ "sublocality_level_2", "sublocality", "political" ]
            },
            {
               "long_name" : "Sadashiv Peth",
               "short_name" : "Sadashiv Peth",
               "types" : [ "sublocality_level_1", "sublocality", "political" ]
            },
            {
               "long_name" : "Pune",
               "short_name" : "Pune",
               "types" : [ "locality", "political" ]
            },
            {
               "long_name" : "Pune",
               "short_name" : "Pune",
               "types" : [ "administrative_area_level_2", "political" ]
            },
            {
               "long_name" : "Maharashtra",
               "short_name" : "MH",
               "types" : [ "administrative_area_level_1", "political" ]
            },
            {
               "long_name" : "India",
               "short_name" : "IN",
               "types" : [ "country", "political" ]
            },
            {
               "long_name" : "411030",
               "short_name" : "411030",
               "types" : [ "postal_code" ]
            }
         ],
         "formatted_address" : "L.B.S. Road, Rambag Colony, Lokamanya Nagar, Sadashiv Peth, Pune, Maharashtra 411030",
         "geometry" : {
            "location" : {
               "lat" : 18.507012,
               "lng" : 73.844678
            },
            "location_type" : "GEOMETRIC_CENTER",
            "viewport" : {
               "northeast" : {
                  "lat" : 18.5083609802915,
                  "lng" : 73.8460269802915
               },
               "southwest" : {
                  "lat" : 18.5056630197085,
                  "lng" : 73.84332901970849
               }
            }
         },
         "types" : [ "route" ]
      }
   ],
   "status" : "OK"
}
