{
   "results" : [
      {
         "address_components" : [
            {
               "long_name" : "Link Road",
               "short_name" : "Link Rd",
               "types" : [ "route" ]
            },
            {
               "long_name" : "Uttarkashi",
               "short_name" : "Uttarkashi",
               "types" : [ "administrative_area_level_2", "political" ]
            },
            {
               "long_name" : "Uttarakhand",
               "short_name" : "UT",
               "types" : [ "administrative_area_level_1", "political" ]
            },
            {
               "long_name" : "India",
               "short_name" : "IN",
               "types" : [ "country", "political" ]
            }
         ],
         "formatted_address" : "Link Road, Uttarakhand, India",
         "geometry" : {
            "bounds" : {
               "northeast" : {
                  "lat" : 30.7764782,
                  "lng" : 78.2550016
               },
               "southwest" : {
                  "lat" : 30.7124294,
                  "lng" : 78.0849786
               }
            },
            "location" : {
               "lat" : 30.7450101,
               "lng" : 78.169983
            },
            "location_type" : "GEOMETRIC_CENTER",
            "viewport" : {
               "northeast" : {
                  "lat" : 30.7764782,
                  "lng" : 78.2550016
               },
               "southwest" : {
                  "lat" : 30.7124294,
                  "lng" : 78.0849786
               }
            }
         },
         "types" : [ "route" ]
      },
      {
         "address_components" : [
            {
               "long_name" : "Link Road",
               "short_name" : "Link Rd",
               "types" : [ "route" ]
            },
            {
               "long_name" : "Yorktown",
               "short_name" : "Yorktown",
               "types" : [ "locality", "political" ]
            },
            {
               "long_name" : "4",
               "short_name" : "4",
               "types" : [ "administrative_area_level_3", "political" ]
            },
            {
               "long_name" : "York County",
               "short_name" : "York County",
               "types" : [ "administrative_area_level_2", "political" ]
            },
            {
               "long_name" : "Virginia",
               "short_name" : "VA",
               "types" : [ "administrative_area_level_1", "political" ]
            },
            {
               "long_name" : "United States",
               "short_name" : "US",
               "types" : [ "country", "political" ]
            },
            {
               "long_name" : "23692",
               "short_name" : "23692",
               "types" : [ "postal_code" ]
            }
         ],
         "formatted_address" : "Link Road, Yorktown, VA 23692, USA",
         "geometry" : {
            "bounds" : {
               "northeast" : {
                  "lat" : 37.175525,
                  "lng" : -76.417165
               },
               "southwest" : {
                  "lat" : 37.1622011,
                  "lng" : -76.4281029
               }
            },
            "location" : {
               "lat" : 37.1690305,
               "lng" : -76.42252139999999
            },
            "location_type" : "GEOMETRIC_CENTER",
            "viewport" : {
               "northeast" : {
                  "lat" : 37.175525,
                  "lng" : -76.417165
               },
               "southwest" : {
                  "lat" : 37.1622011,
                  "lng" : -76.4281029
               }
            }
         },
         "types" : [ "route" ]
      },
      {
         "address_components" : [
            {
               "long_name" : "Link Road",
               "short_name" : "Link Rd",
               "types" : [ "route" ]
            },
            {
               "long_name" : "League City",
               "short_name" : "League City",
               "types" : [ "locality", "political" ]
            },
            {
               "long_name" : "Galveston County",
               "short_name" : "Galveston County",
               "types" : [ "administrative_area_level_2", "political" ]
            },
            {
               "long_name" : "Texas",
               "short_name" : "TX",
               "types" : [ "administrative_area_level_1", "political" ]
            },
            {
               "long_name" : "United States",
               "short_name" : "US",
               "types" : [ "country", "political" ]
            },
            {
               "long_name" : "77573",
               "short_name" : "77573",
               "types" : [ "postal_code" ]
            }
         ],
         "formatted_address" : "Link Road, League City, TX 77573, USA",
         "geometry" : {
            "bounds" : {
               "northeast" : {
                  "lat" : 29.4912914,
                  "lng" : -95.10265630000001
               },
               "southwest" : {
                  "lat" : 29.490883,
                  "lng" : -95.1065998
               }
            },
            "location" : {
               "lat" : 29.4911729,
               "lng" : -95.1044871
            },
            "location_type" : "GEOMETRIC_CENTER",
            "viewport" : {
               "northeast" : {
                  "lat" : 29.4924361802915,
                  "lng" : -95.10265630000001
               },
               "southwest" : {
                  "lat" : 29.48973821970851,
                  "lng" : -95.1065998
               }
            }
         },
         "types" : [ "route" ]
      },
      {
         "address_components" : [
            {
               "long_name" : "Link Road",
               "short_name" : "Link Road",
               "types" : [ "route" ]
            },
            {
               "long_name" : "Addu City",
               "short_name" : "Addu City",
               "types" : [ "locality", "political" ]
            },
            {
               "long_name" : "South Province",
               "short_name" : "South",
               "types" : [ "administrative_area_level_1", "political" ]
            },
            {
               "long_name" : "Maldives",
               "short_name" : "MV",
               "types" : [ "country", "political" ]
            }
         ],
         "formatted_address" : "Link Road, Addu City, Maldives",
         "geometry" : {
            "bounds" : {
               "northeast" : {
                  "lat" : -0.5928649,
                  "lng" : 73.15786779999999
               },
               "southwest" : {
                  "lat" : -0.6905716,
                  "lng" : 73.0840695
               }
            },
            "location" : {
               "lat" : -0.6433249999999999,
               "lng" : 73.1055379
            },
            "location_type" : "GEOMETRIC_CENTER",
            "viewport" : {
               "northeast" : {
                  "lat" : -0.5928649,
                  "lng" : 73.15786779999999
               },
               "southwest" : {
                  "lat" : -0.6905716,
                  "lng" : 73.0840695
               }
            }
         },
         "types" : [ "route" ]
      },
      {
         "address_components" : [
            {
               "long_name" : "Link Road",
               "short_name" : "Link Rd",
               "types" : [ "route" ]
            },
            {
               "long_name" : "Fountain Valley",
               "short_name" : "Fountain Valley",
               "types" : [ "neighborhood", "political" ]
            },
            {
               "long_name" : "Fountain",
               "short_name" : "Fountain",
               "types" : [ "locality", "political" ]
            },
            {
               "long_name" : "El Paso County",
               "short_name" : "El Paso County",
               "types" : [ "administrative_area_level_2", "political" ]
            },
            {
               "long_name" : "Colorado",
               "short_name" : "CO",
               "types" : [ "administrative_area_level_1", "political" ]
            },
            {
               "long_name" : "United States",
               "short_name" : "US",
               "types" : [ "country", "political" ]
            },
            {
               "long_name" : "80817",
               "short_name" : "80817",
               "types" : [ "postal_code" ]
            }
         ],
         "formatted_address" : "Link Road, Fountain, CO 80817, USA",
         "geometry" : {
            "bounds" : {
               "northeast" : {
                  "lat" : 38.7084607,
                  "lng" : -104.672383
               },
               "southwest" : {
                  "lat" : 38.66429979999999,
                  "lng" : -104.6924017
               }
            },
            "location" : {
               "lat" : 38.68651819999999,
               "lng" : -104.6735366
            },
            "location_type" : "GEOMETRIC_CENTER",
            "viewport" : {
               "northeast" : {
                  "lat" : 38.7084607,
                  "lng" : -104.672383
               },
               "southwest" : {
                  "lat" : 38.66429979999999,
                  "lng" : -104.6924017
               }
            }
         },
         "types" : [ "route" ]
      },
      {
         "address_components" : [
            {
               "long_name" : "Link Road",
               "short_name" : "Link Rd",
               "types" : [ "route" ]
            },
            {
               "long_name" : "Lexington",
               "short_name" : "Lexington",
               "types" : [ "locality", "political" ]
            },
            {
               "long_name" : "Virginia",
               "short_name" : "VA",
               "types" : [ "administrative_area_level_1", "political" ]
            },
            {
               "long_name" : "United States",
               "short_name" : "US",
               "types" : [ "country", "political" ]
            },
            {
               "long_name" : "24450",
               "short_name" : "24450",
               "types" : [ "postal_code" ]
            }
         ],
         "formatted_address" : "Link Road, Lexington, VA 24450, USA",
         "geometry" : {
            "bounds" : {
               "northeast" : {
                  "lat" : 37.769682,
                  "lng" : -79.4476899
               },
               "southwest" : {
                  "lat" : 37.76877899999999,
                  "lng" : -79.452043
               }
            },
            "location" : {
               "lat" : 37.7689463,
               "lng" : -79.4499855
            },
            "location_type" : "GEOMETRIC_CENTER",
            "viewport" : {
               "northeast" : {
                  "lat" : 37.7705794802915,
                  "lng" : -79.4476899
               },
               "southwest" : {
                  "lat" : 37.7678815197085,
                  "lng" : -79.452043
               }
            }
         },
         "types" : [ "route" ]
      },
      {
         "address_components" : [
            {
               "long_name" : "Link Road",
               "short_name" : "Link Rd",
               "types" : [ "route" ]
            },
            {
               "long_name" : "Yazoo County",
               "short_name" : "Yazoo County",
               "types" : [ "administrative_area_level_2", "political" ]
            },
            {
               "long_name" : "Mississippi",
               "short_name" : "MS",
               "types" : [ "administrative_area_level_1", "political" ]
            },
            {
               "long_name" : "United States",
               "short_name" : "US",
               "types" : [ "country", "political" ]
            }
         ],
         "formatted_address" : "Link Road, Mississippi, USA",
         "geometry" : {
            "bounds" : {
               "northeast" : {
                  "lat" : 32.6186089,
                  "lng" : -90.4142662
               },
               "southwest" : {
                  "lat" : 32.5809937,
                  "lng" : -90.4822585
               }
            },
            "location" : {
               "lat" : 32.5942273,
               "lng" : -90.44627240000001
            },
            "location_type" : "GEOMETRIC_CENTER",
            "viewport" : {
               "northeast" : {
                  "lat" : 32.6186089,
                  "lng" : -90.4142662
               },
               "southwest" : {
                  "lat" : 32.5809937,
                  "lng" : -90.4822585
               }
            }
         },
         "types" : [ "route" ]
      },
      {
         "address_components" : [
            {
               "long_name" : "Link Road",
               "short_name" : "Link Rd",
               "types" : [ "route" ]
            },
            {
               "long_name" : "Lynchburg",
               "short_name" : "Lynchburg",
               "types" : [ "locality", "political" ]
            },
            {
               "long_name" : "Virginia",
               "short_name" : "VA",
               "types" : [ "administrative_area_level_1", "political" ]
            },
            {
               "long_name" : "United States",
               "short_name" : "US",
               "types" : [ "country", "political" ]
            },
            {
               "long_name" : "24503",
               "short_name" : "24503",
               "types" : [ "postal_code" ]
            }
         ],
         "formatted_address" : "Link Road, Lynchburg, VA 24503, USA",
         "geometry" : {
            "bounds" : {
               "northeast" : {
                  "lat" : 37.439692,
                  "lng" : -79.192576
               },
               "southwest" : {
                  "lat" : 37.4147616,
                  "lng" : -79.211765
               }
            },
            "location" : {
               "lat" : 37.4274293,
               "lng" : -79.2027176
            },
            "location_type" : "GEOMETRIC_CENTER",
            "viewport" : {
               "northeast" : {
                  "lat" : 37.439692,
                  "lng" : -79.192576
               },
               "southwest" : {
                  "lat" : 37.4147616,
                  "lng" : -79.211765
               }
            }
         },
         "types" : [ "route" ]
      },
      {
         "address_components" : [
            {
               "long_name" : "Link Road",
               "short_name" : "Link Rd",
               "types" : [ "route" ]
            },
            {
               "long_name" : "Bessemer",
               "short_name" : "Bessemer",
               "types" : [ "locality", "political" ]
            },
            {
               "long_name" : "Jefferson County",
               "short_name" : "Jefferson County",
               "types" : [ "administrative_area_level_2", "political" ]
            },
            {
               "long_name" : "Alabama",
               "short_name" : "AL",
               "types" : [ "administrative_area_level_1", "political" ]
            },
            {
               "long_name" : "United States",
               "short_name" : "US",
               "types" : [ "country", "political" ]
            },
            {
               "long_name" : "35023",
               "short_name" : "35023",
               "types" : [ "postal_code" ]
            }
         ],
         "formatted_address" : "Link Road, Bessemer, AL 35023, USA",
         "geometry" : {
            "bounds" : {
               "northeast" : {
                  "lat" : 33.5414937,
                  "lng" : -87.11156199999999
               },
               "southwest" : {
                  "lat" : 33.5114716,
                  "lng" : -87.12682959999999
               }
            },
            "location" : {
               "lat" : 33.5264396,
               "lng" : -87.117391
            },
            "location_type" : "GEOMETRIC_CENTER",
            "viewport" : {
               "northeast" : {
                  "lat" : 33.5414937,
                  "lng" : -87.11156199999999
               },
               "southwest" : {
                  "lat" : 33.5114716,
                  "lng" : -87.12682959999999
               }
            }
         },
         "types" : [ "route" ]
      },
      {
         "address_components" : [
            {
               "long_name" : "Link Road",
               "short_name" : "Link Rd",
               "types" : [ "route" ]
            },
            {
               "long_name" : "Seguin",
               "short_name" : "Seguin",
               "types" : [ "locality", "political" ]
            },
            {
               "long_name" : "Guadalupe County",
               "short_name" : "Guadalupe County",
               "types" : [ "administrative_area_level_2", "political" ]
            },
            {
               "long_name" : "Texas",
               "short_name" : "TX",
               "types" : [ "administrative_area_level_1", "political" ]
            },
            {
               "long_name" : "United States",
               "short_name" : "US",
               "types" : [ "country", "political" ]
            },
            {
               "long_name" : "78155",
               "short_name" : "78155",
               "types" : [ "postal_code" ]
            }
         ],
         "formatted_address" : "Link Road, Seguin, TX 78155, USA",
         "geometry" : {
            "bounds" : {
               "northeast" : {
                  "lat" : 29.6548186,
                  "lng" : -97.96701969999999
               },
               "southwest" : {
                  "lat" : 29.6386226,
                  "lng" : -98.03426999999999
               }
            },
            "location" : {
               "lat" : 29.6491133,
               "lng" : -98.0012881
            },
            "location_type" : "GEOMETRIC_CENTER",
            "viewport" : {
               "northeast" : {
                  "lat" : 29.6548186,
                  "lng" : -97.96701969999999
               },
               "southwest" : {
                  "lat" : 29.6386226,
                  "lng" : -98.03426999999999
               }
            }
         },
         "types" : [ "route" ]
      },
      {
         "address_components" : [
            {
               "long_name" : "Link Road",
               "short_name" : "Link Rd",
               "types" : [ "route" ]
            },
            {
               "long_name" : "Dover",
               "short_name" : "Dover",
               "types" : [ "locality", "political" ]
            },
            {
               "long_name" : "Stewart County",
               "short_name" : "Stewart County",
               "types" : [ "administrative_area_level_2", "political" ]
            },
            {
               "long_name" : "Tennessee",
               "short_name" : "TN",
               "types" : [ "administrative_area_level_1", "political" ]
            },
            {
               "long_name" : "United States",
               "short_name" : "US",
               "types" : [ "country", "political" ]
            },
            {
               "long_name" : "37058",
               "short_name" : "37058",
               "types" : [ "postal_code" ]
            }
         ],
         "formatted_address" : "Link Road, Dover, TN 37058, USA",
         "geometry" : {
            "bounds" : {
               "northeast" : {
                  "lat" : 36.5835185,
                  "lng" : -87.8427899
               },
               "southwest" : {
                  "lat" : 36.552911,
                  "lng" : -87.884664
               }
            },
            "location" : {
               "lat" : 36.5608115,
               "lng" : -87.86164649999999
            },
            "location_type" : "GEOMETRIC_CENTER",
            "viewport" : {
               "northeast" : {
                  "lat" : 36.5835185,
                  "lng" : -87.8427899
               },
               "southwest" : {
                  "lat" : 36.552911,
                  "lng" : -87.884664
               }
            }
         },
         "types" : [ "route" ]
      },
      {
         "address_components" : [
            {
               "long_name" : "Link Road",
               "short_name" : "Link Rd",
               "types" : [ "route" ]
            },
            {
               "long_name" : "Christiana",
               "short_name" : "Christiana",
               "types" : [ "locality", "political" ]
            },
            {
               "long_name" : "Rutherford County",
               "short_name" : "Rutherford County",
               "types" : [ "administrative_area_level_2", "political" ]
            },
            {
               "long_name" : "Tennessee",
               "short_name" : "TN",
               "types" : [ "administrative_area_level_1", "political" ]
            },
            {
               "long_name" : "United States",
               "short_name" : "US",
               "types" : [ "country", "political" ]
            },
            {
               "long_name" : "37037",
               "short_name" : "37037",
               "types" : [ "postal_code" ]
            }
         ],
         "formatted_address" : "Link Road, Christiana, TN 37037, USA",
         "geometry" : {
            "bounds" : {
               "northeast" : {
                  "lat" : 35.7243176,
                  "lng" : -86.501093
               },
               "southwest" : {
                  "lat" : 35.707637,
                  "lng" : -86.5237556
               }
            },
            "location" : {
               "lat" : 35.7128671,
               "lng" : -86.5100513
            },
            "location_type" : "GEOMETRIC_CENTER",
            "viewport" : {
               "northeast" : {
                  "lat" : 35.7243176,
                  "lng" : -86.501093
               },
               "southwest" : {
                  "lat" : 35.707637,
                  "lng" : -86.5237556
               }
            }
         },
         "types" : [ "route" ]
      },
      {
         "address_components" : [
            {
               "long_name" : "Link Road",
               "short_name" : "Link Rd",
               "types" : [ "route" ]
            },
            {
               "long_name" : "Saint Louis",
               "short_name" : "St Louis",
               "types" : [ "locality", "political" ]
            },
            {
               "long_name" : "Midland",
               "short_name" : "Midland",
               "types" : [ "administrative_area_level_3", "political" ]
            },
            {
               "long_name" : "St. Louis County",
               "short_name" : "St Louis County",
               "types" : [ "administrative_area_level_2", "political" ]
            },
            {
               "long_name" : "Missouri",
               "short_name" : "MO",
               "types" : [ "administrative_area_level_1", "political" ]
            },
            {
               "long_name" : "United States",
               "short_name" : "US",
               "types" : [ "country", "political" ]
            },
            {
               "long_name" : "63114",
               "short_name" : "63114",
               "types" : [ "postal_code" ]
            }
         ],
         "formatted_address" : "Link Road, Saint Louis, MO 63114, USA",
         "geometry" : {
            "bounds" : {
               "northeast" : {
                  "lat" : 38.7126751,
                  "lng" : -90.40090669999999
               },
               "southwest" : {
                  "lat" : 38.7006589,
                  "lng" : -90.40853009999999
               }
            },
            "location" : {
               "lat" : 38.7060312,
               "lng" : -90.40449219999999
            },
            "location_type" : "GEOMETRIC_CENTER",
            "viewport" : {
               "northeast" : {
                  "lat" : 38.7126751,
                  "lng" : -90.40090669999999
               },
               "southwest" : {
                  "lat" : 38.7006589,
                  "lng" : -90.40853009999999
               }
            }
         },
         "types" : [ "route" ]
      },
      {
         "address_components" : [
            {
               "long_name" : "Link Road",
               "short_name" : "Link Rd",
               "types" : [ "route" ]
            },
            {
               "long_name" : "New Berlin",
               "short_name" : "New Berlin",
               "types" : [ "locality", "political" ]
            },
            {
               "long_name" : "Sangamon County",
               "short_name" : "Sangamon County",
               "types" : [ "administrative_area_level_2", "political" ]
            },
            {
               "long_name" : "Illinois",
               "short_name" : "IL",
               "types" : [ "administrative_area_level_1", "political" ]
            },
            {
               "long_name" : "United States",
               "short_name" : "US",
               "types" : [ "country", "political" ]
            },
            {
               "long_name" : "62670",
               "short_name" : "62670",
               "types" : [ "postal_code" ]
            }
         ],
         "formatted_address" : "Link Road, New Berlin, IL 62670, USA",
         "geometry" : {
            "bounds" : {
               "northeast" : {
                  "lat" : 39.7497853,
                  "lng" : -89.90060940000001
               },
               "southwest" : {
                  "lat" : 39.7297652,
                  "lng" : -89.9011192
               }
            },
            "location" : {
               "lat" : 39.7400029,
               "lng" : -89.90075539999999
            },
            "location_type" : "GEOMETRIC_CENTER",
            "viewport" : {
               "northeast" : {
                  "lat" : 39.7497853,
                  "lng" : -89.8995153197085
               },
               "southwest" : {
                  "lat" : 39.7297652,
                  "lng" : -89.90221328029151
               }
            }
         },
         "types" : [ "route" ]
      },
      {
         "address_components" : [
            {
               "long_name" : "Link Road",
               "short_name" : "Link Rd",
               "types" : [ "route" ]
            },
            {
               "long_name" : "Pendleton",
               "short_name" : "Pendleton",
               "types" : [ "locality", "political" ]
            },
            {
               "long_name" : "Anderson County",
               "short_name" : "Anderson County",
               "types" : [ "administrative_area_level_2", "political" ]
            },
            {
               "long_name" : "South Carolina",
               "short_name" : "SC",
               "types" : [ "administrative_area_level_1", "political" ]
            },
            {
               "long_name" : "United States",
               "short_name" : "US",
               "types" : [ "country", "political" ]
            },
            {
               "long_name" : "29670",
               "short_name" : "29670",
               "types" : [ "postal_code" ]
            }
         ],
         "formatted_address" : "Link Road, Pendleton, SC 29670, USA",
         "geometry" : {
            "bounds" : {
               "northeast" : {
                  "lat" : 34.671386,
                  "lng" : -82.706695
               },
               "southwest" : {
                  "lat" : 34.656899,
                  "lng" : -82.7239541
               }
            },
            "location" : {
               "lat" : 34.6642372,
               "lng" : -82.71493889999999
            },
            "location_type" : "GEOMETRIC_CENTER",
            "viewport" : {
               "northeast" : {
                  "lat" : 34.671386,
                  "lng" : -82.706695
               },
               "southwest" : {
                  "lat" : 34.656899,
                  "lng" : -82.7239541
               }
            }
         },
         "types" : [ "route" ]
      },
      {
         "address_components" : [
            {
               "long_name" : "Link Road",
               "short_name" : "Link Rd",
               "types" : [ "route" ]
            },
            {
               "long_name" : "West Decatur",
               "short_name" : "West Decatur",
               "types" : [ "locality", "political" ]
            },
            {
               "long_name" : "Boggs",
               "short_name" : "Boggs",
               "types" : [ "administrative_area_level_3", "political" ]
            },
            {
               "long_name" : "Clearfield County",
               "short_name" : "Clearfield County",
               "types" : [ "administrative_area_level_2", "political" ]
            },
            {
               "long_name" : "Pennsylvania",
               "short_name" : "PA",
               "types" : [ "administrative_area_level_1", "political" ]
            },
            {
               "long_name" : "United States",
               "short_name" : "US",
               "types" : [ "country", "political" ]
            },
            {
               "long_name" : "16878",
               "short_name" : "16878",
               "types" : [ "postal_code" ]
            }
         ],
         "formatted_address" : "Link Road, West Decatur, PA 16878, USA",
         "geometry" : {
            "bounds" : {
               "northeast" : {
                  "lat" : 40.959712,
                  "lng" : -78.2997408
               },
               "southwest" : {
                  "lat" : 40.955582,
                  "lng" : -78.3185853
               }
            },
            "location" : {
               "lat" : 40.9576362,
               "lng" : -78.30935599999999
            },
            "location_type" : "GEOMETRIC_CENTER",
            "viewport" : {
               "northeast" : {
                  "lat" : 40.959712,
                  "lng" : -78.2997408
               },
               "southwest" : {
                  "lat" : 40.955582,
                  "lng" : -78.3185853
               }
            }
         },
         "types" : [ "route" ]
      },
      {
         "address_components" : [
            {
               "long_name" : "Link Road",
               "short_name" : "Link Rd",
               "types" : [ "route" ]
            },
            {
               "long_name" : "Bagru",
               "short_name" : "Bagru",
               "types" : [ "locality", "political" ]
            },
            {
               "long_name" : "Jaipur",
               "short_name" : "Jaipur",
               "types" : [ "administrative_area_level_2", "political" ]
            },
            {
               "long_name" : "Rajasthan",
               "short_name" : "RJ",
               "types" : [ "administrative_area_level_1", "political" ]
            },
            {
               "long_name" : "India",
               "short_name" : "IN",
               "types" : [ "country", "political" ]
            },
            {
               "long_name" : "303007",
               "short_name" : "303007",
               "types" : [ "postal_code" ]
            }
         ],
         "formatted_address" : "Link Road, Bagru, Rajasthan 303007, India",
         "geometry" : {
            "bounds" : {
               "northeast" : {
                  "lat" : 26.8221576,
                  "lng" : 75.5435579
               },
               "southwest" : {
                  "lat" : 26.8037232,
                  "lng" : 75.53970509999999
               }
            },
            "location" : {
               "lat" : 26.8125646,
               "lng" : 75.5429042
            },
            "location_type" : "GEOMETRIC_CENTER",
            "viewport" : {
               "northeast" : {
                  "lat" : 26.8221576,
                  "lng" : 75.5435579
               },
               "southwest" : {
                  "lat" : 26.8037232,
                  "lng" : 75.53970509999999
               }
            }
         },
         "types" : [ "route" ]
      },
      {
         "address_components" : [
            {
               "long_name" : "Link Road",
               "short_name" : "Link Rd",
               "types" : [ "route" ]
            },
            {
               "long_name" : "Winston-Salem",
               "short_name" : "Winston-Salem",
               "types" : [ "locality", "political" ]
            },
            {
               "long_name" : "Winston",
               "short_name" : "Winston",
               "types" : [ "administrative_area_level_3", "political" ]
            },
            {
               "long_name" : "Forsyth County",
               "short_name" : "Forsyth County",
               "types" : [ "administrative_area_level_2", "political" ]
            },
            {
               "long_name" : "North Carolina",
               "short_name" : "NC",
               "types" : [ "administrative_area_level_1", "political" ]
            },
            {
               "long_name" : "United States",
               "short_name" : "US",
               "types" : [ "country", "political" ]
            },
            {
               "long_name" : "27103",
               "short_name" : "27103",
               "types" : [ "postal_code" ]
            }
         ],
         "formatted_address" : "Link Road, Winston-Salem, NC 27103, USA",
         "geometry" : {
            "bounds" : {
               "northeast" : {
                  "lat" : 36.074763,
                  "lng" : -80.25592570000001
               },
               "southwest" : {
                  "lat" : 36.0700376,
                  "lng" : -80.2640732
               }
            },
            "location" : {
               "lat" : 36.0725261,
               "lng" : -80.26020439999999
            },
            "location_type" : "GEOMETRIC_CENTER",
            "viewport" : {
               "northeast" : {
                  "lat" : 36.074763,
                  "lng" : -80.25592570000001
               },
               "southwest" : {
                  "lat" : 36.0700376,
                  "lng" : -80.2640732
               }
            }
         },
         "types" : [ "route" ]
      },
      {
         "address_components" : [
            {
               "long_name" : "Link Road",
               "short_name" : "Link Rd",
               "types" : [ "route" ]
            },
            {
               "long_name" : "Bedford",
               "short_name" : "Bedford",
               "types" : [ "locality", "political" ]
            },
            {
               "long_name" : "Bedford County",
               "short_name" : "Bedford County",
               "types" : [ "administrative_area_level_2", "political" ]
            },
            {
               "long_name" : "Virginia",
               "short_name" : "VA",
               "types" : [ "administrative_area_level_1", "political" ]
            },
            {
               "long_name" : "United States",
               "short_name" : "US",
               "types" : [ "country", "political" ]
            },
            {
               "long_name" : "24523",
               "short_name" : "24523",
               "types" : [ "postal_code" ]
            }
         ],
         "formatted_address" : "Link Road, Bedford, VA 24523, USA",
         "geometry" : {
            "bounds" : {
               "northeast" : {
                  "lat" : 37.324076,
                  "lng" : -79.5012735
               },
               "southwest" : {
                  "lat" : 37.316338,
                  "lng" : -79.506208
               }
            },
            "location" : {
               "lat" : 37.320382,
               "lng" : -79.50421899999999
            },
            "location_type" : "GEOMETRIC_CENTER",
            "viewport" : {
               "northeast" : {
                  "lat" : 37.324076,
                  "lng" : -79.5012735
               },
               "southwest" : {
                  "lat" : 37.316338,
                  "lng" : -79.506208
               }
            }
         },
         "types" : [ "route" ]
      },
      {
         "address_components" : [
            {
               "long_name" : "Link Road",
               "short_name" : "Link Road",
               "types" : [ "route" ]
            },
            {
               "long_name" : "Mumbai",
               "short_name" : "Mumbai",
               "types" : [ "locality", "political" ]
            },
            {
               "long_name" : "Maharashtra",
               "short_name" : "MH",
               "types" : [ "administrative_area_level_1", "political" ]
            },
            {
               "long_name" : "India",
               "short_name" : "IN",
               "types" : [ "country", "political" ]
            }
         ],
         "formatted_address" : "Link Road, Mumbai, Maharashtra, India",
         "geometry" : {
            "bounds" : {
               "northeast" : {
                  "lat" : 19.2574355,
                  "lng" : 72.85370519999999
               },
               "southwest" : {
                  "lat" : 19.1280559,
                  "lng" : 72.8291643
               }
            },
            "location" : {
               "lat" : 19.1916373,
               "lng" : 72.83492269999999
            },
            "location_type" : "GEOMETRIC_CENTER",
            "viewport" : {
               "northeast" : {
                  "lat" : 19.2574355,
                  "lng" : 72.85370519999999
               },
               "southwest" : {
                  "lat" : 19.1280559,
                  "lng" : 72.8291643
               }
            }
         },
         "types" : [ "route" ]
      },
      {
         "address_components" : [
            {
               "long_name" : "Link Road",
               "short_name" : "Link Rd",
               "types" : [ "route" ]
            },
            {
               "long_name" : "7",
               "short_name" : "7",
               "types" : [ "administrative_area_level_3", "political" ]
            },
            {
               "long_name" : "Acadia Parish",
               "short_name" : "Acadia Parish",
               "types" : [ "administrative_area_level_2", "political" ]
            },
            {
               "long_name" : "Louisiana",
               "short_name" : "LA",
               "types" : [ "administrative_area_level_1", "political" ]
            },
            {
               "long_name" : "United States",
               "short_name" : "US",
               "types" : [ "country", "political" ]
            }
         ],
         "formatted_address" : "Link Road, 7, LA, USA",
         "geometry" : {
            "bounds" : {
               "northeast" : {
                  "lat" : 30.4146599,
                  "lng" : -92.2769756
               },
               "southwest" : {
                  "lat" : 30.39514,
                  "lng" : -92.31271319999999
               }
            },
            "location" : {
               "lat" : 30.3988991,
               "lng" : -92.2893423
            },
            "location_type" : "GEOMETRIC_CENTER",
            "viewport" : {
               "northeast" : {
                  "lat" : 30.4146599,
                  "lng" : -92.2769756
               },
               "southwest" : {
                  "lat" : 30.39514,
                  "lng" : -92.31271319999999
               }
            }
         },
         "types" : [ "route" ]
      },
      {
         "address_components" : [
            {
               "long_name" : "Link Road",
               "short_name" : "Link Rd",
               "types" : [ "route" ]
            },
            {
               "long_name" : "Eugene",
               "short_name" : "Eugene",
               "types" : [ "locality", "political" ]
            },
            {
               "long_name" : "Lane County",
               "short_name" : "Lane County",
               "types" : [ "administrative_area_level_2", "political" ]
            },
            {
               "long_name" : "Oregon",
               "short_name" : "OR",
               "types" : [ "administrative_area_level_1", "political" ]
            },
            {
               "long_name" : "United States",
               "short_name" : "US",
               "types" : [ "country", "political" ]
            },
            {
               "long_name" : "97402",
               "short_name" : "97402",
               "types" : [ "postal_code" ]
            }
         ],
         "formatted_address" : "Link Road, Eugene, OR 97402, USA",
         "geometry" : {
            "bounds" : {
               "northeast" : {
                  "lat" : 44.1275925,
                  "lng" : -123.1673603
               },
               "southwest" : {
                  "lat" : 44.1186213,
                  "lng" : -123.172771
               }
            },
            "location" : {
               "lat" : 44.1223787,
               "lng" : -123.1721327
            },
            "location_type" : "GEOMETRIC_CENTER",
            "viewport" : {
               "northeast" : {
                  "lat" : 44.1275925,
                  "lng" : -123.1673603
               },
               "southwest" : {
                  "lat" : 44.1186213,
                  "lng" : -123.172771
               }
            }
         },
         "types" : [ "route" ]
      },
      {
         "address_components" : [
            {
               "long_name" : "Link Road",
               "short_name" : "Link Rd",
               "types" : [ "route" ]
            },
            {
               "long_name" : "Fort Pierre",
               "short_name" : "Fort Pierre",
               "types" : [ "locality", "political" ]
            },
            {
               "long_name" : "North Stanley",
               "short_name" : "North Stanley",
               "types" : [ "administrative_area_level_3", "political" ]
            },
            {
               "long_name" : "Stanley County",
               "short_name" : "Stanley County",
               "types" : [ "administrative_area_level_2", "political" ]
            },
            {
               "long_name" : "South Dakota",
               "short_name" : "SD",
               "types" : [ "administrative_area_level_1", "political" ]
            },
            {
               "long_name" : "United States",
               "short_name" : "US",
               "types" : [ "country", "political" ]
            },
            {
               "long_name" : "57532",
               "short_name" : "57532",
               "types" : [ "postal_code" ]
            }
         ],
         "formatted_address" : "Link Road, Fort Pierre, SD 57532, USA",
         "geometry" : {
            "bounds" : {
               "northeast" : {
                  "lat" : 44.7112952,
                  "lng" : -100.8252036
               },
               "southwest" : {
                  "lat" : 44.7110884,
                  "lng" : -100.8860814
               }
            },
            "location" : {
               "lat" : 44.7112291,
               "lng" : -100.8633342
            },
            "location_type" : "GEOMETRIC_CENTER",
            "viewport" : {
               "northeast" : {
                  "lat" : 44.7125407802915,
                  "lng" : -100.8252036
               },
               "southwest" : {
                  "lat" : 44.70984281970851,
                  "lng" : -100.8860814
               }
            }
         },
         "types" : [ "route" ]
      },
      {
         "address_components" : [
            {
               "long_name" : "Link Road",
               "short_name" : "Link Rd",
               "types" : [ "route" ]
            },
            {
               "long_name" : "Galax",
               "short_name" : "Galax",
               "types" : [ "locality", "political" ]
            },
            {
               "long_name" : "Old Town",
               "short_name" : "Old Town",
               "types" : [ "administrative_area_level_3", "political" ]
            },
            {
               "long_name" : "Grayson County",
               "short_name" : "Grayson County",
               "types" : [ "administrative_area_level_2", "political" ]
            },
            {
               "long_name" : "Virginia",
               "short_name" : "VA",
               "types" : [ "administrative_area_level_1", "political" ]
            },
            {
               "long_name" : "United States",
               "short_name" : "US",
               "types" : [ "country", "political" ]
            },
            {
               "long_name" : "24333",
               "short_name" : "24333",
               "types" : [ "postal_code" ]
            }
         ],
         "formatted_address" : "Link Road, Galax, VA 24333, USA",
         "geometry" : {
            "bounds" : {
               "northeast" : {
                  "lat" : 36.6247029,
                  "lng" : -80.96747329999999
               },
               "southwest" : {
                  "lat" : 36.6035317,
                  "lng" : -80.9803589
               }
            },
            "location" : {
               "lat" : 36.6149212,
               "lng" : -80.978645
            },
            "location_type" : "GEOMETRIC_CENTER",
            "viewport" : {
               "northeast" : {
                  "lat" : 36.6247029,
                  "lng" : -80.96747329999999
               },
               "southwest" : {
                  "lat" : 36.6035317,
                  "lng" : -80.9803589
               }
            }
         },
         "types" : [ "route" ]
      },
      {
         "address_components" : [
            {
               "long_name" : "Link Road",
               "short_name" : "Link Rd",
               "types" : [ "route" ]
            },
            {
               "long_name" : "Northside",
               "short_name" : "Northside",
               "types" : [ "neighborhood", "political" ]
            },
            {
               "long_name" : "Houston",
               "short_name" : "Houston",
               "types" : [ "locality", "political" ]
            },
            {
               "long_name" : "Harris County",
               "short_name" : "Harris County",
               "types" : [ "administrative_area_level_2", "political" ]
            },
            {
               "long_name" : "Texas",
               "short_name" : "TX",
               "types" : [ "administrative_area_level_1", "political" ]
            },
            {
               "long_name" : "United States",
               "short_name" : "US",
               "types" : [ "country", "political" ]
            }
         ],
         "formatted_address" : "Link Road, Houston, TX, USA",
         "geometry" : {
            "bounds" : {
               "northeast" : {
                  "lat" : 29.817763,
                  "lng" : -95.3692662
               },
               "southwest" : {
                  "lat" : 29.806941,
                  "lng" : -95.393024
               }
            },
            "location" : {
               "lat" : 29.810529,
               "lng" : -95.383488
            },
            "location_type" : "GEOMETRIC_CENTER",
            "viewport" : {
               "northeast" : {
                  "lat" : 29.817763,
                  "lng" : -95.3692662
               },
               "southwest" : {
                  "lat" : 29.806941,
                  "lng" : -95.393024
               }
            }
         },
         "types" : [ "route" ]
      },
      {
         "address_components" : [
            {
               "long_name" : "Link Road",
               "short_name" : "Link Rd",
               "types" : [ "route" ]
            },
            {
               "long_name" : "Manns Harbor",
               "short_name" : "Manns Harbor",
               "types" : [ "locality", "political" ]
            },
            {
               "long_name" : "Dare County",
               "short_name" : "Dare County",
               "types" : [ "administrative_area_level_2", "political" ]
            },
            {
               "long_name" : "North Carolina",
               "short_name" : "NC",
               "types" : [ "administrative_area_level_1", "political" ]
            },
            {
               "long_name" : "United States",
               "short_name" : "US",
               "types" : [ "country", "political" ]
            },
            {
               "long_name" : "27953",
               "short_name" : "27953",
               "types" : [ "postal_code" ]
            }
         ],
         "formatted_address" : "Link Road, Manns Harbor, NC 27953, USA",
         "geometry" : {
            "bounds" : {
               "northeast" : {
                  "lat" : 35.843119,
                  "lng" : -75.81043799999999
               },
               "southwest" : {
                  "lat" : 35.8307828,
                  "lng" : -75.85808
               }
            },
            "location" : {
               "lat" : 35.8334677,
               "lng" : -75.8327099
            },
            "location_type" : "GEOMETRIC_CENTER",
            "viewport" : {
               "northeast" : {
                  "lat" : 35.843119,
                  "lng" : -75.81043799999999
               },
               "southwest" : {
                  "lat" : 35.8307828,
                  "lng" : -75.85808
               }
            }
         },
         "types" : [ "route" ]
      },
      {
         "address_components" : [
            {
               "long_name" : "Link Road",
               "short_name" : "Link Rd",
               "types" : [ "route" ]
            },
            {
               "long_name" : "New Johnsonville",
               "short_name" : "New Johnsonville",
               "types" : [ "locality", "political" ]
            },
            {
               "long_name" : "Humphreys County",
               "short_name" : "Humphreys County",
               "types" : [ "administrative_area_level_2", "political" ]
            },
            {
               "long_name" : "Tennessee",
               "short_name" : "TN",
               "types" : [ "administrative_area_level_1", "political" ]
            },
            {
               "long_name" : "United States",
               "short_name" : "US",
               "types" : [ "country", "political" ]
            },
            {
               "long_name" : "37134",
               "short_name" : "37134",
               "types" : [ "postal_code" ]
            }
         ],
         "formatted_address" : "Link Road, New Johnsonville, TN 37134, USA",
         "geometry" : {
            "bounds" : {
               "northeast" : {
                  "lat" : 35.998491,
                  "lng" : -87.91647359999999
               },
               "southwest" : {
                  "lat" : 35.992051,
                  "lng" : -87.9324089
               }
            },
            "location" : {
               "lat" : 35.9968131,
               "lng" : -87.9247646
            },
            "location_type" : "GEOMETRIC_CENTER",
            "viewport" : {
               "northeast" : {
                  "lat" : 35.998491,
                  "lng" : -87.91647359999999
               },
               "southwest" : {
                  "lat" : 35.992051,
                  "lng" : -87.9324089
               }
            }
         },
         "types" : [ "route" ]
      },
      {
         "address_components" : [
            {
               "long_name" : "Link Road",
               "short_name" : "Link Rd",
               "types" : [ "route" ]
            },
            {
               "long_name" : "Waldron",
               "short_name" : "Waldron",
               "types" : [ "locality", "political" ]
            },
            {
               "long_name" : "Hickman",
               "short_name" : "Hickman",
               "types" : [ "administrative_area_level_3", "political" ]
            },
            {
               "long_name" : "Scott County",
               "short_name" : "Scott County",
               "types" : [ "administrative_area_level_2", "political" ]
            },
            {
               "long_name" : "Arkansas",
               "short_name" : "AR",
               "types" : [ "administrative_area_level_1", "political" ]
            },
            {
               "long_name" : "United States",
               "short_name" : "US",
               "types" : [ "country", "political" ]
            },
            {
               "long_name" : "72958",
               "short_name" : "72958",
               "types" : [ "postal_code" ]
            }
         ],
         "formatted_address" : "Link Road, Waldron, AR 72958, USA",
         "geometry" : {
            "bounds" : {
               "northeast" : {
                  "lat" : 34.9467446,
                  "lng" : -94.0583692
               },
               "southwest" : {
                  "lat" : 34.9396853,
                  "lng" : -94.08464339999999
               }
            },
            "location" : {
               "lat" : 34.9418949,
               "lng" : -94.07090559999999
            },
            "location_type" : "GEOMETRIC_CENTER",
            "viewport" : {
               "northeast" : {
                  "lat" : 34.9467446,
                  "lng" : -94.0583692
               },
               "southwest" : {
                  "lat" : 34.9396853,
                  "lng" : -94.08464339999999
               }
            }
         },
         "types" : [ "route" ]
      },
      {
         "address_components" : [
            {
               "long_name" : "T-568",
               "short_name" : "T-568",
               "types" : [ "route" ]
            },
            {
               "long_name" : "Fleetwood",
               "short_name" : "Fleetwood",
               "types" : [ "locality", "political" ]
            },
            {
               "long_name" : "Ruscombmanor",
               "short_name" : "Ruscombmanor",
               "types" : [ "administrative_area_level_3", "political" ]
            },
            {
               "long_name" : "Berks County",
               "short_name" : "Berks County",
               "types" : [ "administrative_area_level_2", "political" ]
            },
            {
               "long_name" : "Pennsylvania",
               "short_name" : "PA",
               "types" : [ "administrative_area_level_1", "political" ]
            },
            {
               "long_name" : "United States",
               "short_name" : "US",
               "types" : [ "country", "political" ]
            },
            {
               "long_name" : "19522",
               "short_name" : "19522",
               "types" : [ "postal_code" ]
            }
         ],
         "formatted_address" : "T-568, Fleetwood, PA 19522, USA",
         "geometry" : {
            "bounds" : {
               "northeast" : {
                  "lat" : 40.4064756,
                  "lng" : -75.82379399999999
               },
               "southwest" : {
                  "lat" : 40.38998,
                  "lng" : -75.83254099999999
               }
            },
            "location" : {
               "lat" : 40.3977899,
               "lng" : -75.8267881
            },
            "location_type" : "GEOMETRIC_CENTER",
            "viewport" : {
               "northeast" : {
                  "lat" : 40.4064756,
                  "lng" : -75.82379399999999
               },
               "southwest" : {
                  "lat" : 40.38998,
                  "lng" : -75.83254099999999
               }
            }
         },
         "types" : [ "route" ]
      },
      {
         "address_components" : [
            {
               "long_name" : "Link Road",
               "short_name" : "Link Rd",
               "types" : [ "route" ]
            },
            {
               "long_name" : "Muzaffargarh District",
               "short_name" : "Muzaffargarh District",
               "types" : [ "administrative_area_level_2", "political" ]
            },
            {
               "long_name" : "Punjab",
               "short_name" : "Punjab",
               "types" : [ "administrative_area_level_1", "political" ]
            },
            {
               "long_name" : "Pakistan",
               "short_name" : "PK",
               "types" : [ "country", "political" ]
            }
         ],
         "formatted_address" : "Link Road, Pakistan",
         "geometry" : {
            "bounds" : {
               "northeast" : {
                  "lat" : 29.4672233,
                  "lng" : 70.9445946
               },
               "southwest" : {
                  "lat" : 29.39573499999999,
                  "lng" : 70.92212680000002
               }
            },
            "location" : {
               "lat" : 29.433056,
               "lng" : 70.9290587
            },
            "location_type" : "GEOMETRIC_CENTER",
            "viewport" : {
               "northeast" : {
                  "lat" : 29.4672233,
                  "lng" : 70.9445946
               },
               "southwest" : {
                  "lat" : 29.39573499999999,
                  "lng" : 70.92212680000002
               }
            }
         },
         "types" : [ "route" ]
      }
   ],
   "status" : "OK"
}
