{
   "results" : [
      {
         "address_components" : [
            {
               "long_name" : "LJ Road",
               "short_name" : "LJ Rd",
               "types" : [ "route" ]
            },
            {
               "long_name" : "Delta",
               "short_name" : "Delta",
               "types" : [ "locality", "political" ]
            },
            {
               "long_name" : "Colorado",
               "short_name" : "CO",
               "types" : [ "administrative_area_level_1", "political" ]
            },
            {
               "long_name" : "United States",
               "short_name" : "US",
               "types" : [ "country", "political" ]
            },
            {
               "long_name" : "81416",
               "short_name" : "81416",
               "types" : [ "postal_code" ]
            }
         ],
         "formatted_address" : "LJ Road, Delta, CO 81416, USA",
         "geometry" : {
            "bounds" : {
               "northeast" : {
                  "lat" : 38.6685272,
                  "lng" : -108.0588834
               },
               "southwest" : {
                  "lat" : 38.6684032,
                  "lng" : -108.0641089
               }
            },
            "location" : {
               "lat" : 38.6684408,
               "lng" : -108.0616618
            },
            "location_type" : "GEOMETRIC_CENTER",
            "viewport" : {
               "northeast" : {
                  "lat" : 38.6698141802915,
                  "lng" : -108.0588834
               },
               "southwest" : {
                  "lat" : 38.6671162197085,
                  "lng" : -108.0641089
               }
            }
         },
         "types" : [ "route" ]
      },
      {
         "address_components" : [
            {
               "long_name" : "Lady Jamshedji Road",
               "short_name" : "Lady Jamshedji Rd",
               "types" : [ "route" ]
            },
            {
               "long_name" : "Mumbai",
               "short_name" : "Mumbai",
               "types" : [ "locality", "political" ]
            },
            {
               "long_name" : "Maharashtra",
               "short_name" : "MH",
               "types" : [ "administrative_area_level_1", "political" ]
            },
            {
               "long_name" : "India",
               "short_name" : "IN",
               "types" : [ "country", "political" ]
            }
         ],
         "formatted_address" : "Lady Jamshedji Road, Mumbai, Maharashtra, India",
         "geometry" : {
            "bounds" : {
               "northeast" : {
                  "lat" : 19.0428147,
                  "lng" : 72.8429605
               },
               "southwest" : {
                  "lat" : 19.0249977,
                  "lng" : 72.84009329999999
               }
            },
            "location" : {
               "lat" : 19.0334773,
               "lng" : 72.8421711
            },
            "location_type" : "GEOMETRIC_CENTER",
            "viewport" : {
               "northeast" : {
                  "lat" : 19.0428147,
                  "lng" : 72.8429605
               },
               "southwest" : {
                  "lat" : 19.0249977,
                  "lng" : 72.84009329999999
               }
            }
         },
         "types" : [ "route" ]
      },
      {
         "address_components" : [
            {
               "long_name" : "L J Road",
               "short_name" : "L J Rd",
               "types" : [ "route" ]
            },
            {
               "long_name" : "Abbeville",
               "short_name" : "Abbeville",
               "types" : [ "locality", "political" ]
            },
            {
               "long_name" : "9",
               "short_name" : "9",
               "types" : [ "administrative_area_level_3", "political" ]
            },
            {
               "long_name" : "Vermilion Parish",
               "short_name" : "Vermilion Parish",
               "types" : [ "administrative_area_level_2", "political" ]
            },
            {
               "long_name" : "Louisiana",
               "short_name" : "LA",
               "types" : [ "administrative_area_level_1", "political" ]
            },
            {
               "long_name" : "United States",
               "short_name" : "US",
               "types" : [ "country", "political" ]
            },
            {
               "long_name" : "70510",
               "short_name" : "70510",
               "types" : [ "postal_code" ]
            }
         ],
         "formatted_address" : "L J Road, Abbeville, LA 70510, USA",
         "geometry" : {
            "bounds" : {
               "northeast" : {
                  "lat" : 29.8721439,
                  "lng" : -92.1187439
               },
               "southwest" : {
                  "lat" : 29.8698504,
                  "lng" : -92.12798079999999
               }
            },
            "location" : {
               "lat" : 29.871397,
               "lng" : -92.12510879999999
            },
            "location_type" : "GEOMETRIC_CENTER",
            "viewport" : {
               "northeast" : {
                  "lat" : 29.87234613029149,
                  "lng" : -92.1187439
               },
               "southwest" : {
                  "lat" : 29.86964816970849,
                  "lng" : -92.12798079999999
               }
            }
         },
         "types" : [ "route" ]
      },
      {
         "address_components" : [
            {
               "long_name" : "L J Road",
               "short_name" : "L J Rd",
               "types" : [ "route" ]
            },
            {
               "long_name" : "Galivants Ferry",
               "short_name" : "Galivants Ferry",
               "types" : [ "locality", "political" ]
            },
            {
               "long_name" : "Horry County",
               "short_name" : "Horry County",
               "types" : [ "administrative_area_level_2", "political" ]
            },
            {
               "long_name" : "South Carolina",
               "short_name" : "SC",
               "types" : [ "administrative_area_level_1", "political" ]
            },
            {
               "long_name" : "United States",
               "short_name" : "US",
               "types" : [ "country", "political" ]
            },
            {
               "long_name" : "29544",
               "short_name" : "29544",
               "types" : [ "postal_code" ]
            }
         ],
         "formatted_address" : "L J Road, Galivants Ferry, SC 29544, USA",
         "geometry" : {
            "bounds" : {
               "northeast" : {
                  "lat" : 33.9327933,
                  "lng" : -79.22730899999999
               },
               "southwest" : {
                  "lat" : 33.931344,
                  "lng" : -79.22781200000001
               }
            },
            "location" : {
               "lat" : 33.9320757,
               "lng" : -79.22773579999999
            },
            "location_type" : "GEOMETRIC_CENTER",
            "viewport" : {
               "northeast" : {
                  "lat" : 33.93341763029149,
                  "lng" : -79.2262115197085
               },
               "southwest" : {
                  "lat" : 33.93071966970849,
                  "lng" : -79.22890948029151
               }
            }
         },
         "types" : [ "route" ]
      },
      {
         "address_components" : [
            {
               "long_name" : "LJ Road",
               "short_name" : "LJ Rd",
               "types" : [ "route" ]
            },
            {
               "long_name" : "Mumbai",
               "short_name" : "Mumbai",
               "types" : [ "locality", "political" ]
            },
            {
               "long_name" : "Mumbai",
               "short_name" : "Mumbai",
               "types" : [ "administrative_area_level_2", "political" ]
            },
            {
               "long_name" : "Maharashtra",
               "short_name" : "MH",
               "types" : [ "administrative_area_level_1", "political" ]
            },
            {
               "long_name" : "India",
               "short_name" : "IN",
               "types" : [ "country", "political" ]
            }
         ],
         "formatted_address" : "LJ Road, Mumbai, Maharashtra, India",
         "geometry" : {
            "bounds" : {
               "northeast" : {
                  "lat" : 19.035213,
                  "lng" : 72.84329699999999
               },
               "southwest" : {
                  "lat" : 19.0249977,
                  "lng" : 72.8405161
               }
            },
            "location" : {
               "lat" : 19.0253079,
               "lng" : 72.84071639999999
            },
            "location_type" : "GEOMETRIC_CENTER",
            "viewport" : {
               "northeast" : {
                  "lat" : 19.035213,
                  "lng" : 72.84329699999999
               },
               "southwest" : {
                  "lat" : 19.0249977,
                  "lng" : 72.8405161
               }
            }
         },
         "types" : [ "route" ]
      }
   ],
   "status" : "OK"
}
