{
   "results" : [
      {
         "address_components" : [
            {
               "long_name" : "Milind Nagar",
               "short_name" : "Milind Nagar",
               "types" : [ "bus_station", "transit_station", "establishment" ]
            },
            {
               "long_name" : "Manohar Nagar",
               "short_name" : "Manohar Nagar",
               "types" : [ "sublocality_level_3", "sublocality", "political" ]
            },
            {
               "long_name" : "Marol",
               "short_name" : "Marol",
               "types" : [ "sublocality_level_2", "sublocality", "political" ]
            },
            {
               "long_name" : "Andheri East",
               "short_name" : "Andheri East",
               "types" : [ "sublocality_level_1", "sublocality", "political" ]
            },
            {
               "long_name" : "Mumbai",
               "short_name" : "Mumbai",
               "types" : [ "locality", "political" ]
            },
            {
               "long_name" : "Mumbai Suburban",
               "short_name" : "Mumbai Suburban",
               "types" : [ "administrative_area_level_2", "political" ]
            },
            {
               "long_name" : "Maharashtra",
               "short_name" : "MH",
               "types" : [ "administrative_area_level_1", "political" ]
            },
            {
               "long_name" : "India",
               "short_name" : "IN",
               "types" : [ "country", "political" ]
            },
            {
               "long_name" : "400072",
               "short_name" : "400072",
               "types" : [ "postal_code" ]
            }
         ],
         "formatted_address" : "Milind Nagar, Manohar Nagar, Marol, Andheri East, Mumbai, Maharashtra 400072",
         "geometry" : {
            "location" : {
               "lat" : 19.127148,
               "lng" : 72.88894499999999
            },
            "location_type" : "APPROXIMATE",
            "viewport" : {
               "northeast" : {
                  "lat" : 19.1284969802915,
                  "lng" : 72.8902939802915
               },
               "southwest" : {
                  "lat" : 19.1257990197085,
                  "lng" : 72.8875960197085
               }
            }
         },
         "types" : [ "bus_station", "transit_station", "establishment" ]
      },
      {
         "address_components" : [
            {
               "long_name" : "Milind Nagar",
               "short_name" : "Milind Nagar",
               "types" : [ "sublocality_level_2", "sublocality", "political" ]
            },
            {
               "long_name" : "Sakinaka",
               "short_name" : "Sakinaka",
               "types" : [ "sublocality_level_1", "sublocality", "political" ]
            },
            {
               "long_name" : "Mumbai",
               "short_name" : "Mumbai",
               "types" : [ "locality", "political" ]
            },
            {
               "long_name" : "Mumbai Suburban",
               "short_name" : "Mumbai Suburban",
               "types" : [ "administrative_area_level_2", "political" ]
            },
            {
               "long_name" : "Maharashtra",
               "short_name" : "MH",
               "types" : [ "administrative_area_level_1", "political" ]
            },
            {
               "long_name" : "India",
               "short_name" : "IN",
               "types" : [ "country", "political" ]
            },
            {
               "long_name" : "400072",
               "short_name" : "400072",
               "types" : [ "postal_code" ]
            }
         ],
         "formatted_address" : "Milind Nagar, Sakinaka, Mumbai, Maharashtra 400072, India",
         "geometry" : {
            "bounds" : {
               "northeast" : {
                  "lat" : 19.0979191,
                  "lng" : 72.89790610000001
               },
               "southwest" : {
                  "lat" : 19.094502,
                  "lng" : 72.892191
               }
            },
            "location" : {
               "lat" : 19.0956154,
               "lng" : 72.89400759999999
            },
            "location_type" : "APPROXIMATE",
            "viewport" : {
               "northeast" : {
                  "lat" : 19.0979191,
                  "lng" : 72.89790610000001
               },
               "southwest" : {
                  "lat" : 19.094502,
                  "lng" : 72.892191
               }
            }
         },
         "types" : [ "sublocality_level_2", "sublocality", "political" ]
      },
      {
         "address_components" : [
            {
               "long_name" : "Milind Nagar",
               "short_name" : "Milind Nagar",
               "types" : [ "sublocality_level_1", "sublocality", "political" ]
            },
            {
               "long_name" : "Buldana",
               "short_name" : "Buldana",
               "types" : [ "locality", "political" ]
            },
            {
               "long_name" : "Buldhana",
               "short_name" : "Buldhana",
               "types" : [ "administrative_area_level_2", "political" ]
            },
            {
               "long_name" : "Maharashtra",
               "short_name" : "MH",
               "types" : [ "administrative_area_level_1", "political" ]
            },
            {
               "long_name" : "India",
               "short_name" : "IN",
               "types" : [ "country", "political" ]
            },
            {
               "long_name" : "443001",
               "short_name" : "443001",
               "types" : [ "postal_code" ]
            }
         ],
         "formatted_address" : "Milind Nagar, Buldana, Maharashtra 443001, India",
         "geometry" : {
            "bounds" : {
               "northeast" : {
                  "lat" : 20.532834,
                  "lng" : 76.19837889999999
               },
               "southwest" : {
                  "lat" : 20.5171261,
                  "lng" : 76.18387799999999
               }
            },
            "location" : {
               "lat" : 20.5254257,
               "lng" : 76.19141499999999
            },
            "location_type" : "APPROXIMATE",
            "viewport" : {
               "northeast" : {
                  "lat" : 20.532834,
                  "lng" : 76.19837889999999
               },
               "southwest" : {
                  "lat" : 20.5171261,
                  "lng" : 76.18387799999999
               }
            }
         },
         "types" : [ "sublocality_level_1", "sublocality", "political" ]
      },
      {
         "address_components" : [
            {
               "long_name" : "Milind Nagar",
               "short_name" : "Milind Nagar",
               "types" : [ "sublocality_level_3", "sublocality", "political" ]
            },
            {
               "long_name" : "Tembhipada",
               "short_name" : "Tembhipada",
               "types" : [ "sublocality_level_2", "sublocality", "political" ]
            },
            {
               "long_name" : "Bhandup West",
               "short_name" : "Bhandup West",
               "types" : [ "sublocality_level_1", "sublocality", "political" ]
            },
            {
               "long_name" : "Mumbai",
               "short_name" : "Mumbai",
               "types" : [ "locality", "political" ]
            },
            {
               "long_name" : "Mumbai Suburban",
               "short_name" : "Mumbai Suburban",
               "types" : [ "administrative_area_level_2", "political" ]
            },
            {
               "long_name" : "Maharashtra",
               "short_name" : "MH",
               "types" : [ "administrative_area_level_1", "political" ]
            },
            {
               "long_name" : "India",
               "short_name" : "IN",
               "types" : [ "country", "political" ]
            },
            {
               "long_name" : "400078",
               "short_name" : "400078",
               "types" : [ "postal_code" ]
            }
         ],
         "formatted_address" : "Milind Nagar, Tembhipada, Bhandup West, Mumbai, Maharashtra 400078, India",
         "geometry" : {
            "bounds" : {
               "northeast" : {
                  "lat" : 19.1591071,
                  "lng" : 72.93239199999999
               },
               "southwest" : {
                  "lat" : 19.155898,
                  "lng" : 72.930329
               }
            },
            "location" : {
               "lat" : 19.1574113,
               "lng" : 72.93166119999999
            },
            "location_type" : "APPROXIMATE",
            "viewport" : {
               "northeast" : {
                  "lat" : 19.1591071,
                  "lng" : 72.93270948029149
               },
               "southwest" : {
                  "lat" : 19.155898,
                  "lng" : 72.93001151970849
               }
            }
         },
         "types" : [ "sublocality_level_3", "sublocality", "political" ]
      },
      {
         "address_components" : [
            {
               "long_name" : "Milind Nagar",
               "short_name" : "Milind Nagar",
               "types" : [ "sublocality_level_3", "sublocality", "political" ]
            },
            {
               "long_name" : "Krishna Nagar",
               "short_name" : "Krishna Nagar",
               "types" : [ "sublocality_level_2", "sublocality", "political" ]
            },
            {
               "long_name" : "Powai",
               "short_name" : "Powai",
               "types" : [ "sublocality_level_1", "sublocality", "political" ]
            },
            {
               "long_name" : "Mumbai",
               "short_name" : "Mumbai",
               "types" : [ "locality", "political" ]
            },
            {
               "long_name" : "Mumbai Suburban",
               "short_name" : "Mumbai Suburban",
               "types" : [ "administrative_area_level_2", "political" ]
            },
            {
               "long_name" : "Maharashtra",
               "short_name" : "MH",
               "types" : [ "administrative_area_level_1", "political" ]
            },
            {
               "long_name" : "India",
               "short_name" : "IN",
               "types" : [ "country", "political" ]
            },
            {
               "long_name" : "400072",
               "short_name" : "400072",
               "types" : [ "postal_code" ]
            }
         ],
         "formatted_address" : "Milind Nagar, Krishna Nagar, Powai, Mumbai, Maharashtra 400072, India",
         "geometry" : {
            "bounds" : {
               "northeast" : {
                  "lat" : 19.130819,
                  "lng" : 72.89194089999999
               },
               "southwest" : {
                  "lat" : 19.126714,
                  "lng" : 72.8862659
               }
            },
            "location" : {
               "lat" : 19.1285681,
               "lng" : 72.88895789999999
            },
            "location_type" : "APPROXIMATE",
            "viewport" : {
               "northeast" : {
                  "lat" : 19.130819,
                  "lng" : 72.89194089999999
               },
               "southwest" : {
                  "lat" : 19.126714,
                  "lng" : 72.8862659
               }
            }
         },
         "types" : [ "sublocality_level_3", "sublocality", "political" ]
      },
      {
         "address_components" : [
            {
               "long_name" : "Milind Nagar",
               "short_name" : "Milind Nagar",
               "types" : [ "sublocality_level_2", "sublocality", "political" ]
            },
            {
               "long_name" : "Nigdi",
               "short_name" : "Nigdi",
               "types" : [ "sublocality_level_1", "sublocality", "political" ]
            },
            {
               "long_name" : "Pimpri-Chinchwad",
               "short_name" : "Pimpri-Chinchwad",
               "types" : [ "locality", "political" ]
            },
            {
               "long_name" : "Pune",
               "short_name" : "Pune",
               "types" : [ "administrative_area_level_2", "political" ]
            },
            {
               "long_name" : "Maharashtra",
               "short_name" : "MH",
               "types" : [ "administrative_area_level_1", "political" ]
            },
            {
               "long_name" : "India",
               "short_name" : "IN",
               "types" : [ "country", "political" ]
            }
         ],
         "formatted_address" : "Milind Nagar, Nigdi, Pimpri-Chinchwad, Maharashtra, India",
         "geometry" : {
            "bounds" : {
               "northeast" : {
                  "lat" : 18.671162,
                  "lng" : 73.782732
               },
               "southwest" : {
                  "lat" : 18.667947,
                  "lng" : 73.77795499999999
               }
            },
            "location" : {
               "lat" : 18.6696387,
               "lng" : 73.779777
            },
            "location_type" : "APPROXIMATE",
            "viewport" : {
               "northeast" : {
                  "lat" : 18.671162,
                  "lng" : 73.782732
               },
               "southwest" : {
                  "lat" : 18.667947,
                  "lng" : 73.77795499999999
               }
            }
         },
         "types" : [ "sublocality_level_2", "sublocality", "political" ]
      },
      {
         "address_components" : [
            {
               "long_name" : "Milind Nagar",
               "short_name" : "Milind Nagar",
               "types" : [ "sublocality_level_1", "sublocality", "political" ]
            },
            {
               "long_name" : "Vadgaon",
               "short_name" : "Vadgaon",
               "types" : [ "locality", "political" ]
            },
            {
               "long_name" : "Pune",
               "short_name" : "Pune",
               "types" : [ "administrative_area_level_2", "political" ]
            },
            {
               "long_name" : "Maharashtra",
               "short_name" : "MH",
               "types" : [ "administrative_area_level_1", "political" ]
            },
            {
               "long_name" : "India",
               "short_name" : "IN",
               "types" : [ "country", "political" ]
            },
            {
               "long_name" : "412106",
               "short_name" : "412106",
               "types" : [ "postal_code" ]
            }
         ],
         "formatted_address" : "Milind Nagar, Vadgaon, Maharashtra 412106, India",
         "geometry" : {
            "bounds" : {
               "northeast" : {
                  "lat" : 18.740761,
                  "lng" : 73.641381
               },
               "southwest" : {
                  "lat" : 18.736869,
                  "lng" : 73.63586699999999
               }
            },
            "location" : {
               "lat" : 18.7387945,
               "lng" : 73.6381679
            },
            "location_type" : "APPROXIMATE",
            "viewport" : {
               "northeast" : {
                  "lat" : 18.740761,
                  "lng" : 73.641381
               },
               "southwest" : {
                  "lat" : 18.736869,
                  "lng" : 73.63586699999999
               }
            }
         },
         "types" : [ "sublocality_level_1", "sublocality", "political" ]
      },
      {
         "address_components" : [
            {
               "long_name" : "Milind Nagar",
               "short_name" : "Milind Nagar",
               "types" : [ "sublocality_level_1", "sublocality", "political" ]
            },
            {
               "long_name" : "Igatpuri",
               "short_name" : "Igatpuri",
               "types" : [ "locality", "political" ]
            },
            {
               "long_name" : "Nashik",
               "short_name" : "Nashik",
               "types" : [ "administrative_area_level_2", "political" ]
            },
            {
               "long_name" : "Maharashtra",
               "short_name" : "MH",
               "types" : [ "administrative_area_level_1", "political" ]
            },
            {
               "long_name" : "India",
               "short_name" : "IN",
               "types" : [ "country", "political" ]
            }
         ],
         "formatted_address" : "Milind Nagar, Igatpuri, Maharashtra, India",
         "geometry" : {
            "bounds" : {
               "northeast" : {
                  "lat" : 19.6940371,
                  "lng" : 73.5749599
               },
               "southwest" : {
                  "lat" : 19.6859459,
                  "lng" : 73.562825
               }
            },
            "location" : {
               "lat" : 19.6904032,
               "lng" : 73.5697189
            },
            "location_type" : "APPROXIMATE",
            "viewport" : {
               "northeast" : {
                  "lat" : 19.6940371,
                  "lng" : 73.5749599
               },
               "southwest" : {
                  "lat" : 19.6859459,
                  "lng" : 73.562825
               }
            }
         },
         "types" : [ "sublocality_level_1", "sublocality", "political" ]
      },
      {
         "address_components" : [
            {
               "long_name" : "Milind Nagar",
               "short_name" : "Milind Nagar",
               "types" : [ "route" ]
            },
            {
               "long_name" : "Vaishali Nagar",
               "short_name" : "Vaishali Nagar",
               "types" : [ "neighborhood", "political" ]
            },
            {
               "long_name" : "Balabhaupeth",
               "short_name" : "Balabhaupeth",
               "types" : [ "sublocality_level_1", "sublocality", "political" ]
            },
            {
               "long_name" : "Nagpur",
               "short_name" : "Nagpur",
               "types" : [ "locality", "political" ]
            },
            {
               "long_name" : "Nagpur",
               "short_name" : "Nagpur",
               "types" : [ "administrative_area_level_2", "political" ]
            },
            {
               "long_name" : "Maharashtra",
               "short_name" : "MH",
               "types" : [ "administrative_area_level_1", "political" ]
            },
            {
               "long_name" : "India",
               "short_name" : "IN",
               "types" : [ "country", "political" ]
            },
            {
               "long_name" : "440002",
               "short_name" : "440002",
               "types" : [ "postal_code" ]
            }
         ],
         "formatted_address" : "Milind Nagar, Vaishali Nagar, Balabhaupeth, Nagpur, Maharashtra 440002, India",
         "geometry" : {
            "location" : {
               "lat" : 21.1657468,
               "lng" : 79.10754299999999
            },
            "location_type" : "GEOMETRIC_CENTER",
            "viewport" : {
               "northeast" : {
                  "lat" : 21.1670957802915,
                  "lng" : 79.1088919802915
               },
               "southwest" : {
                  "lat" : 21.16439781970849,
                  "lng" : 79.10619401970848
               }
            }
         },
         "types" : [ "route" ]
      },
      {
         "address_components" : [
            {
               "long_name" : "Milind Nagar",
               "short_name" : "Milind Nagar",
               "types" : [ "neighborhood", "political" ]
            },
            {
               "long_name" : "Gauripada",
               "short_name" : "Gauripada",
               "types" : [ "sublocality_level_1", "sublocality", "political" ]
            },
            {
               "long_name" : "Kalyan",
               "short_name" : "Kalyan",
               "types" : [ "locality", "political" ]
            },
            {
               "long_name" : "Thane",
               "short_name" : "Thane",
               "types" : [ "administrative_area_level_2", "political" ]
            },
            {
               "long_name" : "Maharashtra",
               "short_name" : "MH",
               "types" : [ "administrative_area_level_1", "political" ]
            },
            {
               "long_name" : "India",
               "short_name" : "IN",
               "types" : [ "country", "political" ]
            },
            {
               "long_name" : "421301",
               "short_name" : "421301",
               "types" : [ "postal_code" ]
            }
         ],
         "formatted_address" : "Milind Nagar, Gauripada, Kalyan, Maharashtra 421301, India",
         "geometry" : {
            "bounds" : {
               "northeast" : {
                  "lat" : 19.2479706,
                  "lng" : 73.15086359999999
               },
               "southwest" : {
                  "lat" : 19.2460979,
                  "lng" : 73.14916719999999
               }
            },
            "location" : {
               "lat" : 19.247141,
               "lng" : 73.15008089999999
            },
            "location_type" : "APPROXIMATE",
            "viewport" : {
               "northeast" : {
                  "lat" : 19.2483832302915,
                  "lng" : 73.1513643802915
               },
               "southwest" : {
                  "lat" : 19.2456852697085,
                  "lng" : 73.14866641970849
               }
            }
         },
         "types" : [ "neighborhood", "political" ]
      },
      {
         "address_components" : [
            {
               "long_name" : "Milind Nagar",
               "short_name" : "Milind Nagar",
               "types" : [ "neighborhood", "political" ]
            },
            {
               "long_name" : "Chandur Railway",
               "short_name" : "Chandur Railway",
               "types" : [ "locality", "political" ]
            },
            {
               "long_name" : "Amravati",
               "short_name" : "Amravati",
               "types" : [ "administrative_area_level_2", "political" ]
            },
            {
               "long_name" : "Maharashtra",
               "short_name" : "MH",
               "types" : [ "administrative_area_level_1", "political" ]
            },
            {
               "long_name" : "India",
               "short_name" : "IN",
               "types" : [ "country", "political" ]
            },
            {
               "long_name" : "444904",
               "short_name" : "444904",
               "types" : [ "postal_code" ]
            }
         ],
         "formatted_address" : "Milind Nagar, Chandur Railway, Maharashtra 444904, India",
         "geometry" : {
            "bounds" : {
               "northeast" : {
                  "lat" : 20.8170992,
                  "lng" : 77.9739512
               },
               "southwest" : {
                  "lat" : 20.8153642,
                  "lng" : 77.97022819999999
               }
            },
            "location" : {
               "lat" : 20.8162053,
               "lng" : 77.971902
            },
            "location_type" : "APPROXIMATE",
            "viewport" : {
               "northeast" : {
                  "lat" : 20.8175806802915,
                  "lng" : 77.9739512
               },
               "southwest" : {
                  "lat" : 20.81488271970849,
                  "lng" : 77.97022819999999
               }
            }
         },
         "types" : [ "neighborhood", "political" ]
      },
      {
         "address_components" : [
            {
               "long_name" : "Milind Nagar",
               "short_name" : "Milind Nagar",
               "types" : [ "neighborhood", "political" ]
            },
            {
               "long_name" : "Shree Nagar",
               "short_name" : "Shree Nagar",
               "types" : [ "sublocality_level_1", "sublocality", "political" ]
            },
            {
               "long_name" : "Shirpur",
               "short_name" : "Shirpur",
               "types" : [ "locality", "political" ]
            },
            {
               "long_name" : "Dhule",
               "short_name" : "Dhule",
               "types" : [ "administrative_area_level_2", "political" ]
            },
            {
               "long_name" : "Maharashtra",
               "short_name" : "MH",
               "types" : [ "administrative_area_level_1", "political" ]
            },
            {
               "long_name" : "India",
               "short_name" : "IN",
               "types" : [ "country", "political" ]
            },
            {
               "long_name" : "425405",
               "short_name" : "425405",
               "types" : [ "postal_code" ]
            }
         ],
         "formatted_address" : "Milind Nagar, Shree Nagar, Shirpur, Maharashtra 425405, India",
         "geometry" : {
            "bounds" : {
               "northeast" : {
                  "lat" : 21.3572611,
                  "lng" : 74.8731243
               },
               "southwest" : {
                  "lat" : 21.3557174,
                  "lng" : 74.8716223
               }
            },
            "location" : {
               "lat" : 21.3567409,
               "lng" : 74.87227709999999
            },
            "location_type" : "APPROXIMATE",
            "viewport" : {
               "northeast" : {
                  "lat" : 21.3578382302915,
                  "lng" : 74.8737222802915
               },
               "southwest" : {
                  "lat" : 21.3551402697085,
                  "lng" : 74.8710243197085
               }
            }
         },
         "types" : [ "neighborhood", "political" ]
      },
      {
         "address_components" : [
            {
               "long_name" : "Milind Nagar",
               "short_name" : "Milind Nagar",
               "types" : [ "neighborhood", "political" ]
            },
            {
               "long_name" : "Rachanakar Colony",
               "short_name" : "Rachanakar Colony",
               "types" : [ "sublocality_level_2", "sublocality", "political" ]
            },
            {
               "long_name" : "Usmanpura",
               "short_name" : "Usmanpura",
               "types" : [ "sublocality_level_1", "sublocality", "political" ]
            },
            {
               "long_name" : "Aurangabad",
               "short_name" : "Aurangabad",
               "types" : [ "locality", "political" ]
            },
            {
               "long_name" : "Aurangabad",
               "short_name" : "Aurangabad",
               "types" : [ "administrative_area_level_2", "political" ]
            },
            {
               "long_name" : "Maharashtra",
               "short_name" : "MH",
               "types" : [ "administrative_area_level_1", "political" ]
            },
            {
               "long_name" : "India",
               "short_name" : "IN",
               "types" : [ "country", "political" ]
            },
            {
               "long_name" : "431005",
               "short_name" : "431005",
               "types" : [ "postal_code" ]
            }
         ],
         "formatted_address" : "Milind Nagar, Rachanakar Colony, Usmanpura, Aurangabad, Maharashtra 431005, India",
         "geometry" : {
            "bounds" : {
               "northeast" : {
                  "lat" : 19.8687132,
                  "lng" : 75.3231418
               },
               "southwest" : {
                  "lat" : 19.8670494,
                  "lng" : 75.3216353
               }
            },
            "location" : {
               "lat" : 19.867855,
               "lng" : 75.3226329
            },
            "location_type" : "APPROXIMATE",
            "viewport" : {
               "northeast" : {
                  "lat" : 19.86923028029151,
                  "lng" : 75.32373753029151
               },
               "southwest" : {
                  "lat" : 19.8665323197085,
                  "lng" : 75.32103956970849
               }
            }
         },
         "types" : [ "neighborhood", "political" ]
      },
      {
         "address_components" : [
            {
               "long_name" : "Milind Nagar",
               "short_name" : "Milind Nagar",
               "types" : [ "point_of_interest", "establishment" ]
            },
            {
               "long_name" : "By Pass Road",
               "short_name" : "By Pass Road",
               "types" : [ "route" ]
            },
            {
               "long_name" : "Ugar Khurd",
               "short_name" : "Ugar Khurd",
               "types" : [ "locality", "political" ]
            },
            {
               "long_name" : "Belagavi",
               "short_name" : "Belagavi",
               "types" : [ "administrative_area_level_2", "political" ]
            },
            {
               "long_name" : "Karnataka",
               "short_name" : "KA",
               "types" : [ "administrative_area_level_1", "political" ]
            },
            {
               "long_name" : "India",
               "short_name" : "IN",
               "types" : [ "country", "political" ]
            },
            {
               "long_name" : "591316",
               "short_name" : "591316",
               "types" : [ "postal_code" ]
            }
         ],
         "formatted_address" : "Milind Nagar, By Pass Road, Ugar Khurd, Karnataka 591316, India",
         "geometry" : {
            "location" : {
               "lat" : 16.6469918,
               "lng" : 74.8195159
            },
            "location_type" : "APPROXIMATE",
            "viewport" : {
               "northeast" : {
                  "lat" : 16.6483407802915,
                  "lng" : 74.82086488029151
               },
               "southwest" : {
                  "lat" : 16.6456428197085,
                  "lng" : 74.81816691970849
               }
            }
         },
         "types" : [ "point_of_interest", "establishment" ]
      },
      {
         "address_components" : [
            {
               "long_name" : "Milind Nagar",
               "short_name" : "Milind Nagar",
               "types" : [ "establishment" ]
            },
            {
               "long_name" : "Andheri East",
               "short_name" : "Andheri East",
               "types" : [ "sublocality_level_1", "sublocality", "political" ]
            },
            {
               "long_name" : "Mumbai",
               "short_name" : "Mumbai",
               "types" : [ "locality", "political" ]
            },
            {
               "long_name" : "Mumbai Suburban",
               "short_name" : "Mumbai Suburban",
               "types" : [ "administrative_area_level_2", "political" ]
            },
            {
               "long_name" : "Maharashtra",
               "short_name" : "MH",
               "types" : [ "administrative_area_level_1", "political" ]
            },
            {
               "long_name" : "India",
               "short_name" : "IN",
               "types" : [ "country", "political" ]
            },
            {
               "long_name" : "400072",
               "short_name" : "400072",
               "types" : [ "postal_code" ]
            }
         ],
         "formatted_address" : "Milind Nagar, Andheri East, Mumbai, Maharashtra 400072, India",
         "geometry" : {
            "bounds" : {
               "northeast" : {
                  "lat" : 19.1287143,
                  "lng" : 72.889472
               },
               "southwest" : {
                  "lat" : 19.1269223,
                  "lng" : 72.88772949999999
               }
            },
            "location" : {
               "lat" : 19.127981,
               "lng" : 72.88865439999999
            },
            "location_type" : "APPROXIMATE",
            "viewport" : {
               "northeast" : {
                  "lat" : 19.1291672802915,
                  "lng" : 72.88994973029149
               },
               "southwest" : {
                  "lat" : 19.1264693197085,
                  "lng" : 72.88725176970848
               }
            }
         },
         "types" : [ "establishment" ]
      }
   ],
   "status" : "OK"
}
