{
   "results" : [
      {
         "address_components" : [
            {
               "long_name" : "Mulund",
               "short_name" : "Mulund",
               "types" : [ "sublocality_level_2", "sublocality", "political" ]
            },
            {
               "long_name" : "Mulund West",
               "short_name" : "Mulund West",
               "types" : [ "sublocality_level_1", "sublocality", "political" ]
            },
            {
               "long_name" : "Mumbai",
               "short_name" : "Mumbai",
               "types" : [ "locality", "political" ]
            },
            {
               "long_name" : "Mumbai Suburban",
               "short_name" : "Mumbai Suburban",
               "types" : [ "administrative_area_level_2", "political" ]
            },
            {
               "long_name" : "Maharashtra",
               "short_name" : "MH",
               "types" : [ "administrative_area_level_1", "political" ]
            },
            {
               "long_name" : "India",
               "short_name" : "IN",
               "types" : [ "country", "political" ]
            },
            {
               "long_name" : "400080",
               "short_name" : "400080",
               "types" : [ "postal_code" ]
            }
         ],
         "formatted_address" : "Mulund, Mulund West, Mumbai, Maharashtra 400080, India",
         "geometry" : {
            "bounds" : {
               "northeast" : {
                  "lat" : 19.179016,
                  "lng" : 72.95288409999999
               },
               "southwest" : {
                  "lat" : 19.1718119,
                  "lng" : 72.94579499999999
               }
            },
            "location" : {
               "lat" : 19.1765331,
               "lng" : 72.94753299999999
            },
            "location_type" : "APPROXIMATE",
            "viewport" : {
               "northeast" : {
                  "lat" : 19.179016,
                  "lng" : 72.95288409999999
               },
               "southwest" : {
                  "lat" : 19.1718119,
                  "lng" : 72.94579499999999
               }
            }
         },
         "partial_match" : true,
         "types" : [ "sublocality_level_2", "sublocality", "political" ]
      },
      {
         "address_components" : [
            {
               "long_name" : "Vikhroli Village",
               "short_name" : "Vikhroli Village",
               "types" : [ "sublocality_level_3", "sublocality", "political" ]
            },
            {
               "long_name" : "Pirojshanagar",
               "short_name" : "Pirojshanagar",
               "types" : [ "sublocality_level_2", "sublocality", "political" ]
            },
            {
               "long_name" : "Vikhroli East",
               "short_name" : "Vikhroli East",
               "types" : [ "sublocality_level_1", "sublocality", "political" ]
            },
            {
               "long_name" : "Mumbai",
               "short_name" : "Mumbai",
               "types" : [ "locality", "political" ]
            },
            {
               "long_name" : "Mumbai Suburban",
               "short_name" : "Mumbai Suburban",
               "types" : [ "administrative_area_level_2", "political" ]
            },
            {
               "long_name" : "Maharashtra",
               "short_name" : "MH",
               "types" : [ "administrative_area_level_1", "political" ]
            },
            {
               "long_name" : "India",
               "short_name" : "IN",
               "types" : [ "country", "political" ]
            },
            {
               "long_name" : "400079",
               "short_name" : "400079",
               "types" : [ "postal_code" ]
            }
         ],
         "formatted_address" : "Vikhroli Village, Pirojshanagar, Vikhroli East, Mumbai, Maharashtra 400079, India",
         "geometry" : {
            "bounds" : {
               "northeast" : {
                  "lat" : 19.1058925,
                  "lng" : 72.930739
               },
               "southwest" : {
                  "lat" : 19.1039749,
                  "lng" : 72.9275155
               }
            },
            "location" : {
               "lat" : 19.104834,
               "lng" : 72.9287499
            },
            "location_type" : "APPROXIMATE",
            "viewport" : {
               "northeast" : {
                  "lat" : 19.1062826802915,
                  "lng" : 72.930739
               },
               "southwest" : {
                  "lat" : 19.1035847197085,
                  "lng" : 72.9275155
               }
            }
         },
         "partial_match" : true,
         "types" : [ "sublocality_level_3", "sublocality", "political" ]
      }
   ],
   "status" : "OK"
}
