{
   "results" : [
      {
         "address_components" : [
            {
               "long_name" : "Pedder Road",
               "short_name" : "Pedder Rd",
               "types" : [ "route" ]
            },
            {
               "long_name" : "San Bernardino National Forest",
               "short_name" : "San Bernardino National Forest",
               "types" : [ "establishment" ]
            },
            {
               "long_name" : "Big Bear Lake",
               "short_name" : "Big Bear Lake",
               "types" : [ "locality", "political" ]
            },
            {
               "long_name" : "San Bernardino County",
               "short_name" : "San Bernardino County",
               "types" : [ "administrative_area_level_2", "political" ]
            },
            {
               "long_name" : "California",
               "short_name" : "CA",
               "types" : [ "administrative_area_level_1", "political" ]
            },
            {
               "long_name" : "United States",
               "short_name" : "US",
               "types" : [ "country", "political" ]
            },
            {
               "long_name" : "92315",
               "short_name" : "92315",
               "types" : [ "postal_code" ]
            }
         ],
         "formatted_address" : "San Bernardino National Forest, Pedder Road, Big Bear Lake, CA 92315, USA",
         "geometry" : {
            "bounds" : {
               "northeast" : {
                  "lat" : 34.242029,
                  "lng" : -116.9097897
               },
               "southwest" : {
                  "lat" : 34.241499,
                  "lng" : -116.9114702
               }
            },
            "location" : {
               "lat" : 34.2417467,
               "lng" : -116.9106588
            },
            "location_type" : "GEOMETRIC_CENTER",
            "viewport" : {
               "northeast" : {
                  "lat" : 34.2431129802915,
                  "lng" : -116.9092809697085
               },
               "southwest" : {
                  "lat" : 34.2404150197085,
                  "lng" : -116.9119789302915
               }
            }
         },
         "types" : [ "route" ]
      },
      {
         "address_components" : [
            {
               "long_name" : "Pedder Road",
               "short_name" : "Pedder Rd",
               "types" : [ "route" ]
            },
            {
               "long_name" : "Overton",
               "short_name" : "Overton",
               "types" : [ "locality", "political" ]
            },
            {
               "long_name" : "Morecambe",
               "short_name" : "Morecambe",
               "types" : [ "postal_town" ]
            },
            {
               "long_name" : "Lancashire",
               "short_name" : "Lancs",
               "types" : [ "administrative_area_level_2", "political" ]
            },
            {
               "long_name" : "United Kingdom",
               "short_name" : "GB",
               "types" : [ "country", "political" ]
            },
            {
               "long_name" : "LA3 3HL",
               "short_name" : "LA3 3HL",
               "types" : [ "postal_code" ]
            }
         ],
         "formatted_address" : "Pedder Road, Overton, Morecambe, Lancashire LA3 3HL, UK",
         "geometry" : {
            "bounds" : {
               "northeast" : {
                  "lat" : 54.0167578,
                  "lng" : -2.8624599
               },
               "southwest" : {
                  "lat" : 54.0145077,
                  "lng" : -2.8655093
               }
            },
            "location" : {
               "lat" : 54.0156157,
               "lng" : -2.8636807
            },
            "location_type" : "GEOMETRIC_CENTER",
            "viewport" : {
               "northeast" : {
                  "lat" : 54.0169817302915,
                  "lng" : -2.8624599
               },
               "southwest" : {
                  "lat" : 54.0142837697085,
                  "lng" : -2.8655093
               }
            }
         },
         "types" : [ "route" ]
      },
      {
         "address_components" : [
            {
               "long_name" : "Pedder Road",
               "short_name" : "Pedder Rd",
               "types" : [ "route" ]
            },
            {
               "long_name" : "Clevedon",
               "short_name" : "Clevedon",
               "types" : [ "locality", "political" ]
            },
            {
               "long_name" : "Clevedon",
               "short_name" : "Clevedon",
               "types" : [ "postal_town" ]
            },
            {
               "long_name" : "North Somerset",
               "short_name" : "North Somerset",
               "types" : [ "administrative_area_level_2", "political" ]
            },
            {
               "long_name" : "United Kingdom",
               "short_name" : "GB",
               "types" : [ "country", "political" ]
            },
            {
               "long_name" : "BS21 5HB",
               "short_name" : "BS21 5HB",
               "types" : [ "postal_code" ]
            }
         ],
         "formatted_address" : "Pedder Road, Clevedon, North Somerset BS21 5HB, UK",
         "geometry" : {
            "bounds" : {
               "northeast" : {
                  "lat" : 51.4263495,
                  "lng" : -2.8548228
               },
               "southwest" : {
                  "lat" : 51.4258531,
                  "lng" : -2.8552911
               }
            },
            "location" : {
               "lat" : 51.4260855,
               "lng" : -2.85499
            },
            "location_type" : "GEOMETRIC_CENTER",
            "viewport" : {
               "northeast" : {
                  "lat" : 51.4274502802915,
                  "lng" : -2.853707969708498
               },
               "southwest" : {
                  "lat" : 51.4247523197085,
                  "lng" : -2.856405930291502
               }
            }
         },
         "types" : [ "route" ]
      },
      {
         "address_components" : [
            {
               "long_name" : "Pedder Road",
               "short_name" : "Pedder Road",
               "types" : [ "route" ]
            },
            {
               "long_name" : "Sikka Nagar",
               "short_name" : "Sikka Nagar",
               "types" : [ "neighborhood", "political" ]
            },
            {
               "long_name" : "Khetwadi",
               "short_name" : "Khetwadi",
               "types" : [ "sublocality_level_2", "sublocality", "political" ]
            },
            {
               "long_name" : "Girgaon",
               "short_name" : "Girgaon",
               "types" : [ "sublocality_level_1", "sublocality", "political" ]
            },
            {
               "long_name" : "Mumbai",
               "short_name" : "Mumbai",
               "types" : [ "locality", "political" ]
            },
            {
               "long_name" : "Mumbai",
               "short_name" : "Mumbai",
               "types" : [ "administrative_area_level_2", "political" ]
            },
            {
               "long_name" : "Maharashtra",
               "short_name" : "MH",
               "types" : [ "administrative_area_level_1", "political" ]
            },
            {
               "long_name" : "India",
               "short_name" : "IN",
               "types" : [ "country", "political" ]
            },
            {
               "long_name" : "400004",
               "short_name" : "400004",
               "types" : [ "postal_code" ]
            }
         ],
         "formatted_address" : "Pedder Road, Sikka Nagar, Khetwadi, Girgaon, Mumbai, Maharashtra 400004, India",
         "geometry" : {
            "bounds" : {
               "northeast" : {
                  "lat" : 18.9570286,
                  "lng" : 72.8234046
               },
               "southwest" : {
                  "lat" : 18.9566984,
                  "lng" : 72.823233
               }
            },
            "location" : {
               "lat" : 18.9568635,
               "lng" : 72.8233188
            },
            "location_type" : "GEOMETRIC_CENTER",
            "viewport" : {
               "northeast" : {
                  "lat" : 18.9582124802915,
                  "lng" : 72.82466778029151
               },
               "southwest" : {
                  "lat" : 18.9555145197085,
                  "lng" : 72.8219698197085
               }
            }
         },
         "types" : [ "route" ]
      }
   ],
   "status" : "OK"
}
