{
   "results" : [
      {
         "address_components" : [
            {
               "long_name" : "Plaza Theatre",
               "short_name" : "Plaza Theatre",
               "types" : [ "premise" ]
            },
            {
               "long_name" : "Perth",
               "short_name" : "Perth",
               "types" : [ "locality", "political" ]
            },
            {
               "long_name" : "Perth",
               "short_name" : "Perth",
               "types" : [ "colloquial_area", "locality", "political" ]
            },
            {
               "long_name" : "Western Australia",
               "short_name" : "WA",
               "types" : [ "administrative_area_level_1", "political" ]
            },
            {
               "long_name" : "Australia",
               "short_name" : "AU",
               "types" : [ "country", "political" ]
            },
            {
               "long_name" : "6000",
               "short_name" : "6000",
               "types" : [ "postal_code" ]
            }
         ],
         "formatted_address" : "Plaza Theatre, Perth WA 6000, Australia",
         "geometry" : {
            "bounds" : {
               "northeast" : {
                  "lat" : -31.9536672,
                  "lng" : 115.8595151
               },
               "southwest" : {
                  "lat" : -31.9541946,
                  "lng" : 115.859135
               }
            },
            "location" : {
               "lat" : -31.95409999999999,
               "lng" : 115.85932
            },
            "location_type" : "ROOFTOP",
            "viewport" : {
               "northeast" : {
                  "lat" : -31.9525819197085,
                  "lng" : 115.8606740302915
               },
               "southwest" : {
                  "lat" : -31.9552798802915,
                  "lng" : 115.8579760697085
               }
            }
         },
         "types" : [ "premise" ]
      },
      {
         "address_components" : [
            {
               "long_name" : "Place du Théatre",
               "short_name" : "Place du Théatre",
               "types" : [ "route" ]
            },
            {
               "long_name" : "Nogent-sur-Marne",
               "short_name" : "Nogent-sur-Marne",
               "types" : [ "locality", "political" ]
            },
            {
               "long_name" : "Val-de-Marne",
               "short_name" : "94",
               "types" : [ "administrative_area_level_2", "political" ]
            },
            {
               "long_name" : "Île-de-France",
               "short_name" : "IDF",
               "types" : [ "administrative_area_level_1", "political" ]
            },
            {
               "long_name" : "France",
               "short_name" : "FR",
               "types" : [ "country", "political" ]
            },
            {
               "long_name" : "94130",
               "short_name" : "94130",
               "types" : [ "postal_code" ]
            }
         ],
         "formatted_address" : "Place du Théatre, 94130 Nogent-sur-Marne, France",
         "geometry" : {
            "bounds" : {
               "northeast" : {
                  "lat" : 48.8391557,
                  "lng" : 2.4939689
               },
               "southwest" : {
                  "lat" : 48.8380025,
                  "lng" : 2.4934486
               }
            },
            "location" : {
               "lat" : 48.8383176,
               "lng" : 2.4937087
            },
            "location_type" : "GEOMETRIC_CENTER",
            "viewport" : {
               "northeast" : {
                  "lat" : 48.83992808029151,
                  "lng" : 2.495057730291502
               },
               "southwest" : {
                  "lat" : 48.83723011970851,
                  "lng" : 2.492359769708498
               }
            }
         },
         "partial_match" : true,
         "types" : [ "route" ]
      },
      {
         "address_components" : [
            {
               "long_name" : "Place du Theatre",
               "short_name" : "Place du Theatre",
               "types" : [ "route" ]
            },
            {
               "long_name" : "La Mure",
               "short_name" : "La Mure",
               "types" : [ "locality", "political" ]
            },
            {
               "long_name" : "Isère",
               "short_name" : "38",
               "types" : [ "administrative_area_level_2", "political" ]
            },
            {
               "long_name" : "Rhône-Alpes",
               "short_name" : "RA",
               "types" : [ "administrative_area_level_1", "political" ]
            },
            {
               "long_name" : "France",
               "short_name" : "FR",
               "types" : [ "country", "political" ]
            },
            {
               "long_name" : "38350",
               "short_name" : "38350",
               "types" : [ "postal_code" ]
            }
         ],
         "formatted_address" : "Place du Theatre, 38350 La Mure, France",
         "geometry" : {
            "bounds" : {
               "northeast" : {
                  "lat" : 44.9030913,
                  "lng" : 5.7861623
               },
               "southwest" : {
                  "lat" : 44.9028403,
                  "lng" : 5.7858079
               }
            },
            "location" : {
               "lat" : 44.903031,
               "lng" : 5.7858339
            },
            "location_type" : "GEOMETRIC_CENTER",
            "viewport" : {
               "northeast" : {
                  "lat" : 44.9043147802915,
                  "lng" : 5.787334080291502
               },
               "southwest" : {
                  "lat" : 44.9016168197085,
                  "lng" : 5.784636119708497
               }
            }
         },
         "partial_match" : true,
         "types" : [ "route" ]
      },
      {
         "address_components" : [
            {
               "long_name" : "Place du Théatre",
               "short_name" : "Place du Théatre",
               "types" : [ "route" ]
            },
            {
               "long_name" : "Cormeilles",
               "short_name" : "Cormeilles",
               "types" : [ "locality", "political" ]
            },
            {
               "long_name" : "Eure",
               "short_name" : "27",
               "types" : [ "administrative_area_level_2", "political" ]
            },
            {
               "long_name" : "Haute-Normandie",
               "short_name" : "Haute-Normandie",
               "types" : [ "administrative_area_level_1", "political" ]
            },
            {
               "long_name" : "France",
               "short_name" : "FR",
               "types" : [ "country", "political" ]
            },
            {
               "long_name" : "27260",
               "short_name" : "27260",
               "types" : [ "postal_code" ]
            }
         ],
         "formatted_address" : "Place du Théatre, 27260 Cormeilles, France",
         "geometry" : {
            "bounds" : {
               "northeast" : {
                  "lat" : 49.2482965,
                  "lng" : 0.376133
               },
               "southwest" : {
                  "lat" : 49.246901,
                  "lng" : 0.3743898
               }
            },
            "location" : {
               "lat" : 49.2473752,
               "lng" : 0.3748949
            },
            "location_type" : "GEOMETRIC_CENTER",
            "viewport" : {
               "northeast" : {
                  "lat" : 49.2489477302915,
                  "lng" : 0.376610380291502
               },
               "southwest" : {
                  "lat" : 49.2462497697085,
                  "lng" : 0.3739124197084979
               }
            }
         },
         "partial_match" : true,
         "types" : [ "route" ]
      },
      {
         "address_components" : [
            {
               "long_name" : "Teatralnaya ploshchad'",
               "short_name" : "Teatralnaya pl.",
               "types" : [ "route" ]
            },
            {
               "long_name" : "Sankt-Peterburg",
               "short_name" : "СПБ",
               "types" : [ "locality", "political" ]
            },
            {
               "long_name" : "gorod Sankt-Peterburg",
               "short_name" : "g. Sankt-Peterburg",
               "types" : [ "administrative_area_level_2", "political" ]
            },
            {
               "long_name" : "Saint Petersburg",
               "short_name" : "Saint Petersburg",
               "types" : [ "administrative_area_level_1", "political" ]
            },
            {
               "long_name" : "Russia",
               "short_name" : "RU",
               "types" : [ "country", "political" ]
            }
         ],
         "formatted_address" : "Teatralnaya ploshchad', Sankt-Peterburg, Russia",
         "geometry" : {
            "bounds" : {
               "northeast" : {
                  "lat" : 59.9270566,
                  "lng" : 30.3003237
               },
               "southwest" : {
                  "lat" : 59.92460320000001,
                  "lng" : 30.2950806
               }
            },
            "location" : {
               "lat" : 59.92535789999999,
               "lng" : 30.29751
            },
            "location_type" : "GEOMETRIC_CENTER",
            "viewport" : {
               "northeast" : {
                  "lat" : 59.92717888029151,
                  "lng" : 30.3003237
               },
               "southwest" : {
                  "lat" : 59.92448091970849,
                  "lng" : 30.2950806
               }
            }
         },
         "partial_match" : true,
         "types" : [ "route" ]
      },
      {
         "address_components" : [
            {
               "long_name" : "Teatralnaya ploshchad'",
               "short_name" : "Teatralnaya pl.",
               "types" : [ "route" ]
            },
            {
               "long_name" : "Tsentralnyy administrativnyy okrug",
               "short_name" : "Tsentralnyy administrativnyy okrug",
               "types" : [ "sublocality_level_1", "sublocality", "political" ]
            },
            {
               "long_name" : "Moskva",
               "short_name" : "Moskva",
               "types" : [ "locality", "political" ]
            },
            {
               "long_name" : "gorod Moskva",
               "short_name" : "g. Moskva",
               "types" : [ "administrative_area_level_2", "political" ]
            },
            {
               "long_name" : "Moscow",
               "short_name" : "Moscow",
               "types" : [ "administrative_area_level_1", "political" ]
            },
            {
               "long_name" : "Russia",
               "short_name" : "RU",
               "types" : [ "country", "political" ]
            }
         ],
         "formatted_address" : "Teatralnaya ploshchad', Moskva, Russia",
         "geometry" : {
            "bounds" : {
               "northeast" : {
                  "lat" : 55.7609528,
                  "lng" : 37.62133800000001
               },
               "southwest" : {
                  "lat" : 55.756806,
                  "lng" : 37.617451
               }
            },
            "location" : {
               "lat" : 55.7590952,
               "lng" : 37.6199701
            },
            "location_type" : "GEOMETRIC_CENTER",
            "viewport" : {
               "northeast" : {
                  "lat" : 55.7609528,
                  "lng" : 37.62133800000001
               },
               "southwest" : {
                  "lat" : 55.756806,
                  "lng" : 37.617451
               }
            }
         },
         "partial_match" : true,
         "types" : [ "route" ]
      },
      {
         "address_components" : [
            {
               "long_name" : "Place du Théatre",
               "short_name" : "Place du Théatre",
               "types" : [ "route" ]
            },
            {
               "long_name" : "Tourcoing",
               "short_name" : "Tourcoing",
               "types" : [ "locality", "political" ]
            },
            {
               "long_name" : "Nord",
               "short_name" : "59",
               "types" : [ "administrative_area_level_2", "political" ]
            },
            {
               "long_name" : "Nord-Pas-de-Calais",
               "short_name" : "Nord-Pas-de-Calais",
               "types" : [ "administrative_area_level_1", "political" ]
            },
            {
               "long_name" : "France",
               "short_name" : "FR",
               "types" : [ "country", "political" ]
            },
            {
               "long_name" : "59200",
               "short_name" : "59200",
               "types" : [ "postal_code" ]
            }
         ],
         "formatted_address" : "Place du Théatre, 59200 Tourcoing, France",
         "geometry" : {
            "bounds" : {
               "northeast" : {
                  "lat" : 50.7209059,
                  "lng" : 3.1537222
               },
               "southwest" : {
                  "lat" : 50.7201086,
                  "lng" : 3.1520907
               }
            },
            "location" : {
               "lat" : 50.7205387,
               "lng" : 3.1530964
            },
            "location_type" : "GEOMETRIC_CENTER",
            "viewport" : {
               "northeast" : {
                  "lat" : 50.72185623029149,
                  "lng" : 3.154255430291502
               },
               "southwest" : {
                  "lat" : 50.71915826970849,
                  "lng" : 3.151557469708498
               }
            }
         },
         "partial_match" : true,
         "types" : [ "route" ]
      },
      {
         "address_components" : [
            {
               "long_name" : "Place du Théatre",
               "short_name" : "Place du Théatre",
               "types" : [ "route" ]
            },
            {
               "long_name" : "La Roche-sur-Yon",
               "short_name" : "La Roche-sur-Yon",
               "types" : [ "locality", "political" ]
            },
            {
               "long_name" : "Vendée",
               "short_name" : "85",
               "types" : [ "administrative_area_level_2", "political" ]
            },
            {
               "long_name" : "Pays de la Loire",
               "short_name" : "Pays de la Loire",
               "types" : [ "administrative_area_level_1", "political" ]
            },
            {
               "long_name" : "France",
               "short_name" : "FR",
               "types" : [ "country", "political" ]
            },
            {
               "long_name" : "85000",
               "short_name" : "85000",
               "types" : [ "postal_code" ]
            }
         ],
         "formatted_address" : "Place du Théatre, 85000 La Roche-sur-Yon, France",
         "geometry" : {
            "bounds" : {
               "northeast" : {
                  "lat" : 46.671537,
                  "lng" : -1.4290587
               },
               "southwest" : {
                  "lat" : 46.6705111,
                  "lng" : -1.4303478
               }
            },
            "location" : {
               "lat" : 46.671423,
               "lng" : -1.430081
            },
            "location_type" : "GEOMETRIC_CENTER",
            "viewport" : {
               "northeast" : {
                  "lat" : 46.6723730302915,
                  "lng" : -1.428354269708498
               },
               "southwest" : {
                  "lat" : 46.6696750697085,
                  "lng" : -1.431052230291502
               }
            }
         },
         "partial_match" : true,
         "types" : [ "route" ]
      },
      {
         "address_components" : [
            {
               "long_name" : "Place du Théatre",
               "short_name" : "Place du Théatre",
               "types" : [ "route" ]
            },
            {
               "long_name" : "Fougères",
               "short_name" : "Fougères",
               "types" : [ "locality", "political" ]
            },
            {
               "long_name" : "Ille-et-Vilaine",
               "short_name" : "35",
               "types" : [ "administrative_area_level_2", "political" ]
            },
            {
               "long_name" : "Bretagne",
               "short_name" : "Bretagne",
               "types" : [ "administrative_area_level_1", "political" ]
            },
            {
               "long_name" : "France",
               "short_name" : "FR",
               "types" : [ "country", "political" ]
            },
            {
               "long_name" : "35300",
               "short_name" : "35300",
               "types" : [ "postal_code" ]
            }
         ],
         "formatted_address" : "Place du Théatre, 35133 Fougères, France",
         "geometry" : {
            "bounds" : {
               "northeast" : {
                  "lat" : 48.355081,
                  "lng" : -1.2024157
               },
               "southwest" : {
                  "lat" : 48.3545543,
                  "lng" : -1.2032705
               }
            },
            "location" : {
               "lat" : 48.3547752,
               "lng" : -1.2028235
            },
            "location_type" : "GEOMETRIC_CENTER",
            "viewport" : {
               "northeast" : {
                  "lat" : 48.3561666302915,
                  "lng" : -1.201494119708498
               },
               "southwest" : {
                  "lat" : 48.3534686697085,
                  "lng" : -1.204192080291502
               }
            }
         },
         "partial_match" : true,
         "types" : [ "route" ]
      },
      {
         "address_components" : [
            {
               "long_name" : "Place du Théatre",
               "short_name" : "Place du Théatre",
               "types" : [ "route" ]
            },
            {
               "long_name" : "Arras",
               "short_name" : "Arras",
               "types" : [ "locality", "political" ]
            },
            {
               "long_name" : "Pas-de-Calais",
               "short_name" : "62",
               "types" : [ "administrative_area_level_2", "political" ]
            },
            {
               "long_name" : "Nord-Pas-de-Calais",
               "short_name" : "Nord-Pas-de-Calais",
               "types" : [ "administrative_area_level_1", "political" ]
            },
            {
               "long_name" : "France",
               "short_name" : "FR",
               "types" : [ "country", "political" ]
            },
            {
               "long_name" : "62000",
               "short_name" : "62000",
               "types" : [ "postal_code" ]
            }
         ],
         "formatted_address" : "Place du Théatre, 62000 Arras, France",
         "geometry" : {
            "bounds" : {
               "northeast" : {
                  "lat" : 50.290766,
                  "lng" : 2.7739379
               },
               "southwest" : {
                  "lat" : 50.2900256,
                  "lng" : 2.7727439
               }
            },
            "location" : {
               "lat" : 50.2904111,
               "lng" : 2.7733314
            },
            "location_type" : "GEOMETRIC_CENTER",
            "viewport" : {
               "northeast" : {
                  "lat" : 50.29174478029149,
                  "lng" : 2.774689880291502
               },
               "southwest" : {
                  "lat" : 50.2890468197085,
                  "lng" : 2.771991919708498
               }
            }
         },
         "partial_match" : true,
         "types" : [ "route" ]
      },
      {
         "address_components" : [
            {
               "long_name" : "Place du Théatre",
               "short_name" : "Place du Théatre",
               "types" : [ "route" ]
            },
            {
               "long_name" : "Marseillan",
               "short_name" : "Marseillan",
               "types" : [ "locality", "political" ]
            },
            {
               "long_name" : "Hérault",
               "short_name" : "34",
               "types" : [ "administrative_area_level_2", "political" ]
            },
            {
               "long_name" : "Languedoc-Roussillon",
               "short_name" : "Languedoc-Roussillon",
               "types" : [ "administrative_area_level_1", "political" ]
            },
            {
               "long_name" : "France",
               "short_name" : "FR",
               "types" : [ "country", "political" ]
            },
            {
               "long_name" : "34340",
               "short_name" : "34340",
               "types" : [ "postal_code" ]
            }
         ],
         "formatted_address" : "Place du Théatre, 34340 Marseillan, France",
         "geometry" : {
            "bounds" : {
               "northeast" : {
                  "lat" : 43.3540049,
                  "lng" : 3.5305908
               },
               "southwest" : {
                  "lat" : 43.3529985,
                  "lng" : 3.5289277
               }
            },
            "location" : {
               "lat" : 43.3537238,
               "lng" : 3.529612
            },
            "location_type" : "GEOMETRIC_CENTER",
            "viewport" : {
               "northeast" : {
                  "lat" : 43.3548506802915,
                  "lng" : 3.531108230291502
               },
               "southwest" : {
                  "lat" : 43.3521527197085,
                  "lng" : 3.528410269708498
               }
            }
         },
         "partial_match" : true,
         "types" : [ "route" ]
      },
      {
         "address_components" : [
            {
               "long_name" : "Place du Théatre",
               "short_name" : "Place du Théatre",
               "types" : [ "route" ]
            },
            {
               "long_name" : "Montreuil",
               "short_name" : "Montreuil",
               "types" : [ "locality", "political" ]
            },
            {
               "long_name" : "Pas-de-Calais",
               "short_name" : "62",
               "types" : [ "administrative_area_level_2", "political" ]
            },
            {
               "long_name" : "Nord-Pas-de-Calais",
               "short_name" : "Nord-Pas-de-Calais",
               "types" : [ "administrative_area_level_1", "political" ]
            },
            {
               "long_name" : "France",
               "short_name" : "FR",
               "types" : [ "country", "political" ]
            },
            {
               "long_name" : "62170",
               "short_name" : "62170",
               "types" : [ "postal_code" ]
            }
         ],
         "formatted_address" : "Place du Théatre, 62170 Montreuil, France",
         "geometry" : {
            "bounds" : {
               "northeast" : {
                  "lat" : 50.461495,
                  "lng" : 1.7615218
               },
               "southwest" : {
                  "lat" : 50.4609333,
                  "lng" : 1.760192
               }
            },
            "location" : {
               "lat" : 50.461426,
               "lng" : 1.760984
            },
            "location_type" : "GEOMETRIC_CENTER",
            "viewport" : {
               "northeast" : {
                  "lat" : 50.46256313029151,
                  "lng" : 1.762205880291502
               },
               "southwest" : {
                  "lat" : 50.45986516970851,
                  "lng" : 1.759507919708498
               }
            }
         },
         "partial_match" : true,
         "types" : [ "route" ]
      },
      {
         "address_components" : [
            {
               "long_name" : "Place du Théatre",
               "short_name" : "Place du Théatre",
               "types" : [ "route" ]
            },
            {
               "long_name" : "Chagny",
               "short_name" : "Chagny",
               "types" : [ "locality", "political" ]
            },
            {
               "long_name" : "Saône-et-Loire",
               "short_name" : "71",
               "types" : [ "administrative_area_level_2", "political" ]
            },
            {
               "long_name" : "Bourgogne",
               "short_name" : "Bourgogne",
               "types" : [ "administrative_area_level_1", "political" ]
            },
            {
               "long_name" : "France",
               "short_name" : "FR",
               "types" : [ "country", "political" ]
            },
            {
               "long_name" : "71150",
               "short_name" : "71150",
               "types" : [ "postal_code" ]
            }
         ],
         "formatted_address" : "Place du Théatre, 71150 Chagny, France",
         "geometry" : {
            "bounds" : {
               "northeast" : {
                  "lat" : 46.9095228,
                  "lng" : 4.752191
               },
               "southwest" : {
                  "lat" : 46.908988,
                  "lng" : 4.7516611
               }
            },
            "location" : {
               "lat" : 46.9093323,
               "lng" : 4.7518714
            },
            "location_type" : "GEOMETRIC_CENTER",
            "viewport" : {
               "northeast" : {
                  "lat" : 46.9106043802915,
                  "lng" : 4.753275030291502
               },
               "southwest" : {
                  "lat" : 46.9079064197085,
                  "lng" : 4.750577069708497
               }
            }
         },
         "partial_match" : true,
         "types" : [ "route" ]
      },
      {
         "address_components" : [
            {
               "long_name" : "Place du Théâtre",
               "short_name" : "Place du Théâtre",
               "types" : [ "route" ]
            },
            {
               "long_name" : "Luxembourg",
               "short_name" : "Luxembourg",
               "types" : [ "locality", "political" ]
            },
            {
               "long_name" : "Luxembourg",
               "short_name" : "Luxembourg",
               "types" : [ "administrative_area_level_2", "political" ]
            },
            {
               "long_name" : "Luxembourg",
               "short_name" : "Luxembourg",
               "types" : [ "administrative_area_level_1", "political" ]
            },
            {
               "long_name" : "Luxembourg",
               "short_name" : "LU",
               "types" : [ "country", "political" ]
            },
            {
               "long_name" : "2651",
               "short_name" : "2651",
               "types" : [ "postal_code" ]
            }
         ],
         "formatted_address" : "Place du Théâtre, 1660 Luxembourg, Luxembourg",
         "geometry" : {
            "bounds" : {
               "northeast" : {
                  "lat" : 49.6131526,
                  "lng" : 6.1313507
               },
               "southwest" : {
                  "lat" : 49.6125002,
                  "lng" : 6.130232800000001
               }
            },
            "location" : {
               "lat" : 49.6127541,
               "lng" : 6.1304359
            },
            "location_type" : "GEOMETRIC_CENTER",
            "viewport" : {
               "northeast" : {
                  "lat" : 49.6141753802915,
                  "lng" : 6.132140730291503
               },
               "southwest" : {
                  "lat" : 49.6114774197085,
                  "lng" : 6.129442769708498
               }
            }
         },
         "partial_match" : true,
         "types" : [ "route" ]
      },
      {
         "address_components" : [
            {
               "long_name" : "Place du Théatre",
               "short_name" : "Place du Théatre",
               "types" : [ "route" ]
            },
            {
               "long_name" : "Albertville",
               "short_name" : "Albertville",
               "types" : [ "locality", "political" ]
            },
            {
               "long_name" : "Savoie",
               "short_name" : "73",
               "types" : [ "administrative_area_level_2", "political" ]
            },
            {
               "long_name" : "Rhône-Alpes",
               "short_name" : "RA",
               "types" : [ "administrative_area_level_1", "political" ]
            },
            {
               "long_name" : "France",
               "short_name" : "FR",
               "types" : [ "country", "political" ]
            },
            {
               "long_name" : "73200",
               "short_name" : "73200",
               "types" : [ "postal_code" ]
            }
         ],
         "formatted_address" : "Place du Théatre, 73200 Albertville, France",
         "geometry" : {
            "bounds" : {
               "northeast" : {
                  "lat" : 45.67645,
                  "lng" : 6.391666
               },
               "southwest" : {
                  "lat" : 45.67610699999999,
                  "lng" : 6.390549999999999
               }
            },
            "location" : {
               "lat" : 45.67628999999999,
               "lng" : 6.391013999999999
            },
            "location_type" : "GEOMETRIC_CENTER",
            "viewport" : {
               "northeast" : {
                  "lat" : 45.6776274802915,
                  "lng" : 6.392456980291502
               },
               "southwest" : {
                  "lat" : 45.6749295197085,
                  "lng" : 6.389759019708498
               }
            }
         },
         "partial_match" : true,
         "types" : [ "route" ]
      },
      {
         "address_components" : [
            {
               "long_name" : "Place du Théâtre",
               "short_name" : "Place du Théâtre",
               "types" : [ "route" ]
            },
            {
               "long_name" : "Namur",
               "short_name" : "Namur",
               "types" : [ "locality", "political" ]
            },
            {
               "long_name" : "Namur",
               "short_name" : "NA",
               "types" : [ "administrative_area_level_2", "political" ]
            },
            {
               "long_name" : "Région wallonne",
               "short_name" : "Région wallonne",
               "types" : [ "administrative_area_level_1", "political" ]
            },
            {
               "long_name" : "Belgium",
               "short_name" : "BE",
               "types" : [ "country", "political" ]
            },
            {
               "long_name" : "5000",
               "short_name" : "5000",
               "types" : [ "postal_code" ]
            }
         ],
         "formatted_address" : "Place du Théâtre, 5000 Namur, Belgium",
         "geometry" : {
            "bounds" : {
               "northeast" : {
                  "lat" : 50.46475720000001,
                  "lng" : 4.8686349
               },
               "southwest" : {
                  "lat" : 50.4638808,
                  "lng" : 4.867438
               }
            },
            "location" : {
               "lat" : 50.4642502,
               "lng" : 4.8676536
            },
            "location_type" : "GEOMETRIC_CENTER",
            "viewport" : {
               "northeast" : {
                  "lat" : 50.46566798029151,
                  "lng" : 4.869385430291502
               },
               "southwest" : {
                  "lat" : 50.46297001970851,
                  "lng" : 4.866687469708499
               }
            }
         },
         "partial_match" : true,
         "types" : [ "route" ]
      },
      {
         "address_components" : [
            {
               "long_name" : "Place du Théâtre",
               "short_name" : "Place du Théâtre",
               "types" : [ "route" ]
            },
            {
               "long_name" : "Dijon",
               "short_name" : "Dijon",
               "types" : [ "locality", "political" ]
            },
            {
               "long_name" : "Côte-d'Or",
               "short_name" : "21",
               "types" : [ "administrative_area_level_2", "political" ]
            },
            {
               "long_name" : "Bourgogne",
               "short_name" : "Bourgogne",
               "types" : [ "administrative_area_level_1", "political" ]
            },
            {
               "long_name" : "France",
               "short_name" : "FR",
               "types" : [ "country", "political" ]
            },
            {
               "long_name" : "21000",
               "short_name" : "21000",
               "types" : [ "postal_code" ]
            }
         ],
         "formatted_address" : "Place du Théâtre, 21000 Dijon, France",
         "geometry" : {
            "bounds" : {
               "northeast" : {
                  "lat" : 47.3212435,
                  "lng" : 5.044262499999999
               },
               "southwest" : {
                  "lat" : 47.3209016,
                  "lng" : 5.0430854
               }
            },
            "location" : {
               "lat" : 47.3212435,
               "lng" : 5.043444399999999
            },
            "location_type" : "GEOMETRIC_CENTER",
            "viewport" : {
               "northeast" : {
                  "lat" : 47.3224215302915,
                  "lng" : 5.045022930291501
               },
               "southwest" : {
                  "lat" : 47.3197235697085,
                  "lng" : 5.042324969708496
               }
            }
         },
         "partial_match" : true,
         "types" : [ "route" ]
      },
      {
         "address_components" : [
            {
               "long_name" : "Jalan Theatre",
               "short_name" : "Jalan Theatre",
               "types" : [ "route" ]
            },
            {
               "long_name" : "Pasir Penjih",
               "short_name" : "Pasir Penjih",
               "types" : [ "sublocality_level_1", "sublocality", "political" ]
            },
            {
               "long_name" : "Ipoh",
               "short_name" : "Ipoh",
               "types" : [ "locality", "political" ]
            },
            {
               "long_name" : "Perak",
               "short_name" : "Perak",
               "types" : [ "administrative_area_level_1", "political" ]
            },
            {
               "long_name" : "Malaysia",
               "short_name" : "MY",
               "types" : [ "country", "political" ]
            },
            {
               "long_name" : "31650",
               "short_name" : "31650",
               "types" : [ "postal_code" ]
            }
         ],
         "formatted_address" : "Jalan Theatre, Pasir Penjih, 31650 Ipoh, Perak, Malaysia",
         "geometry" : {
            "bounds" : {
               "northeast" : {
                  "lat" : 4.5741115,
                  "lng" : 101.092281
               },
               "southwest" : {
                  "lat" : 4.574081899999999,
                  "lng" : 101.0850414
               }
            },
            "location" : {
               "lat" : 4.5740983,
               "lng" : 101.0887591
            },
            "location_type" : "GEOMETRIC_CENTER",
            "viewport" : {
               "northeast" : {
                  "lat" : 4.575445680291502,
                  "lng" : 101.092281
               },
               "southwest" : {
                  "lat" : 4.572747719708498,
                  "lng" : 101.0850414
               }
            }
         },
         "partial_match" : true,
         "types" : [ "route" ]
      },
      {
         "address_components" : [
            {
               "long_name" : "Place du Théatre",
               "short_name" : "Place du Théatre",
               "types" : [ "route" ]
            },
            {
               "long_name" : "Montpezat-de-Quercy",
               "short_name" : "Montpezat-de-Quercy",
               "types" : [ "locality", "political" ]
            },
            {
               "long_name" : "Tarn-et-Garonne",
               "short_name" : "82",
               "types" : [ "administrative_area_level_2", "political" ]
            },
            {
               "long_name" : "Midi-Pyrénées",
               "short_name" : "Midi-Pyrénées",
               "types" : [ "administrative_area_level_1", "political" ]
            },
            {
               "long_name" : "France",
               "short_name" : "FR",
               "types" : [ "country", "political" ]
            },
            {
               "long_name" : "82270",
               "short_name" : "82270",
               "types" : [ "postal_code" ]
            }
         ],
         "formatted_address" : "Place du Théatre, 82270 Montpezat-de-Quercy, France",
         "geometry" : {
            "bounds" : {
               "northeast" : {
                  "lat" : 44.238557,
                  "lng" : 1.474655
               },
               "southwest" : {
                  "lat" : 44.2380242,
                  "lng" : 1.4743444
               }
            },
            "location" : {
               "lat" : 44.2383733,
               "lng" : 1.4745432
            },
            "location_type" : "GEOMETRIC_CENTER",
            "viewport" : {
               "northeast" : {
                  "lat" : 44.2396395802915,
                  "lng" : 1.475848680291502
               },
               "southwest" : {
                  "lat" : 44.2369416197085,
                  "lng" : 1.473150719708498
               }
            }
         },
         "partial_match" : true,
         "types" : [ "route" ]
      },
      {
         "address_components" : [
            {
               "long_name" : "Place du Théatre",
               "short_name" : "Place du Théatre",
               "types" : [ "route" ]
            },
            {
               "long_name" : "Écrins National Park",
               "short_name" : "Écrins National Park",
               "types" : [ "establishment" ]
            },
            {
               "long_name" : "Embrun",
               "short_name" : "Embrun",
               "types" : [ "locality", "political" ]
            },
            {
               "long_name" : "Hautes-Alpes",
               "short_name" : "05",
               "types" : [ "administrative_area_level_2", "political" ]
            },
            {
               "long_name" : "Provence-Alpes-Côte d'Azur",
               "short_name" : "PACA",
               "types" : [ "administrative_area_level_1", "political" ]
            },
            {
               "long_name" : "France",
               "short_name" : "FR",
               "types" : [ "country", "political" ]
            },
            {
               "long_name" : "05200",
               "short_name" : "05200",
               "types" : [ "postal_code" ]
            }
         ],
         "formatted_address" : "Écrins National Park, Place du Théatre, 05200 Embrun, France",
         "geometry" : {
            "bounds" : {
               "northeast" : {
                  "lat" : 44.5643812,
                  "lng" : 6.4949582
               },
               "southwest" : {
                  "lat" : 44.56413360000001,
                  "lng" : 6.4945553
               }
            },
            "location" : {
               "lat" : 44.5642511,
               "lng" : 6.4947231
            },
            "location_type" : "GEOMETRIC_CENTER",
            "viewport" : {
               "northeast" : {
                  "lat" : 44.56560638029151,
                  "lng" : 6.496105730291503
               },
               "southwest" : {
                  "lat" : 44.56290841970851,
                  "lng" : 6.493407769708498
               }
            }
         },
         "partial_match" : true,
         "types" : [ "route" ]
      },
      {
         "address_components" : [
            {
               "long_name" : "Jalan Theatre",
               "short_name" : "Jalan Theatre",
               "types" : [ "route" ]
            },
            {
               "long_name" : "Taman Jubilee",
               "short_name" : "Taman Jubilee",
               "types" : [ "sublocality_level_1", "sublocality", "political" ]
            },
            {
               "long_name" : "Ipoh",
               "short_name" : "Ipoh",
               "types" : [ "locality", "political" ]
            },
            {
               "long_name" : "Perak",
               "short_name" : "Perak",
               "types" : [ "administrative_area_level_1", "political" ]
            },
            {
               "long_name" : "Malaysia",
               "short_name" : "MY",
               "types" : [ "country", "political" ]
            },
            {
               "long_name" : "30300",
               "short_name" : "30300",
               "types" : [ "postal_code" ]
            }
         ],
         "formatted_address" : "Jalan Theatre, Taman Jubilee, 30300 Ipoh, Perak, Malaysia",
         "geometry" : {
            "bounds" : {
               "northeast" : {
                  "lat" : 4.594941599999999,
                  "lng" : 101.086807
               },
               "southwest" : {
                  "lat" : 4.593773,
                  "lng" : 101.0827357
               }
            },
            "location" : {
               "lat" : 4.594264799999999,
               "lng" : 101.0849777
            },
            "location_type" : "GEOMETRIC_CENTER",
            "viewport" : {
               "northeast" : {
                  "lat" : 4.595706280291502,
                  "lng" : 101.086807
               },
               "southwest" : {
                  "lat" : 4.593008319708497,
                  "lng" : 101.0827357
               }
            }
         },
         "partial_match" : true,
         "types" : [ "route" ]
      },
      {
         "address_components" : [
            {
               "long_name" : "Orinda Theatre Square",
               "short_name" : "Orinda Theatre Square",
               "types" : [ "route" ]
            },
            {
               "long_name" : "Orinda Theatre Square",
               "short_name" : "Orinda Theatre Square",
               "types" : [ "establishment" ]
            },
            {
               "long_name" : "Northwood - Tara",
               "short_name" : "Northwood - Tara",
               "types" : [ "neighborhood", "political" ]
            },
            {
               "long_name" : "Orinda",
               "short_name" : "Orinda",
               "types" : [ "locality", "political" ]
            },
            {
               "long_name" : "Contra Costa County",
               "short_name" : "Contra Costa County",
               "types" : [ "administrative_area_level_2", "political" ]
            },
            {
               "long_name" : "California",
               "short_name" : "CA",
               "types" : [ "administrative_area_level_1", "political" ]
            },
            {
               "long_name" : "United States",
               "short_name" : "US",
               "types" : [ "country", "political" ]
            },
            {
               "long_name" : "94563",
               "short_name" : "94563",
               "types" : [ "postal_code" ]
            }
         ],
         "formatted_address" : "Orinda Theatre Square, Orinda Theatre Square, Orinda, CA 94563, USA",
         "geometry" : {
            "bounds" : {
               "northeast" : {
                  "lat" : 37.8790581,
                  "lng" : -122.1817191
               },
               "southwest" : {
                  "lat" : 37.8782832,
                  "lng" : -122.1825868
               }
            },
            "location" : {
               "lat" : 37.8784526,
               "lng" : -122.1819015
            },
            "location_type" : "GEOMETRIC_CENTER",
            "viewport" : {
               "northeast" : {
                  "lat" : 37.88001963029151,
                  "lng" : -122.1808039697085
               },
               "southwest" : {
                  "lat" : 37.87732166970851,
                  "lng" : -122.1835019302915
               }
            }
         },
         "partial_match" : true,
         "types" : [ "route" ]
      },
      {
         "address_components" : [
            {
               "long_name" : "Place du Théatre",
               "short_name" : "Place du Théatre",
               "types" : [ "route" ]
            },
            {
               "long_name" : "Montcheutin",
               "short_name" : "Montcheutin",
               "types" : [ "locality", "political" ]
            },
            {
               "long_name" : "Ardennes",
               "short_name" : "08",
               "types" : [ "administrative_area_level_2", "political" ]
            },
            {
               "long_name" : "Champagne-Ardenne",
               "short_name" : "Champagne-Ardenne",
               "types" : [ "administrative_area_level_1", "political" ]
            },
            {
               "long_name" : "France",
               "short_name" : "FR",
               "types" : [ "country", "political" ]
            },
            {
               "long_name" : "08250",
               "short_name" : "08250",
               "types" : [ "postal_code" ]
            }
         ],
         "formatted_address" : "Place du Théatre, 08250 Montcheutin, France",
         "geometry" : {
            "bounds" : {
               "northeast" : {
                  "lat" : 49.292019,
                  "lng" : 4.821693
               },
               "southwest" : {
                  "lat" : 49.2913489,
                  "lng" : 4.821026
               }
            },
            "location" : {
               "lat" : 49.291812,
               "lng" : 4.821242
            },
            "location_type" : "GEOMETRIC_CENTER",
            "viewport" : {
               "northeast" : {
                  "lat" : 49.2930329302915,
                  "lng" : 4.822708480291502
               },
               "southwest" : {
                  "lat" : 49.29033496970851,
                  "lng" : 4.820010519708497
               }
            }
         },
         "partial_match" : true,
         "types" : [ "route" ]
      },
      {
         "address_components" : [
            {
               "long_name" : "Place du Théatre",
               "short_name" : "Place du Théatre",
               "types" : [ "route" ]
            },
            {
               "long_name" : "Saintes",
               "short_name" : "Saintes",
               "types" : [ "locality", "political" ]
            },
            {
               "long_name" : "Charente-maritime",
               "short_name" : "17",
               "types" : [ "administrative_area_level_2", "political" ]
            },
            {
               "long_name" : "Poitou-Charentes",
               "short_name" : "PCh",
               "types" : [ "administrative_area_level_1", "political" ]
            },
            {
               "long_name" : "France",
               "short_name" : "FR",
               "types" : [ "country", "political" ]
            },
            {
               "long_name" : "17100",
               "short_name" : "17100",
               "types" : [ "postal_code" ]
            }
         ],
         "formatted_address" : "Place du Théatre, 17100 Saintes, France",
         "geometry" : {
            "bounds" : {
               "northeast" : {
                  "lat" : 45.747257,
                  "lng" : -0.6342802
               },
               "southwest" : {
                  "lat" : 45.74677,
                  "lng" : -0.6347901000000001
               }
            },
            "location" : {
               "lat" : 45.747257,
               "lng" : -0.6343694999999999
            },
            "location_type" : "GEOMETRIC_CENTER",
            "viewport" : {
               "northeast" : {
                  "lat" : 45.7483624802915,
                  "lng" : -0.6331861697084981
               },
               "southwest" : {
                  "lat" : 45.74566451970851,
                  "lng" : -0.6358841302915021
               }
            }
         },
         "partial_match" : true,
         "types" : [ "route" ]
      },
      {
         "address_components" : [
            {
               "long_name" : "Place du Théatre",
               "short_name" : "Place du Théatre",
               "types" : [ "route" ]
            },
            {
               "long_name" : "Villepreux",
               "short_name" : "Villepreux",
               "types" : [ "locality", "political" ]
            },
            {
               "long_name" : "Yvelines",
               "short_name" : "78",
               "types" : [ "administrative_area_level_2", "political" ]
            },
            {
               "long_name" : "Île-de-France",
               "short_name" : "IDF",
               "types" : [ "administrative_area_level_1", "political" ]
            },
            {
               "long_name" : "France",
               "short_name" : "FR",
               "types" : [ "country", "political" ]
            },
            {
               "long_name" : "78450",
               "short_name" : "78450",
               "types" : [ "postal_code" ]
            }
         ],
         "formatted_address" : "Place du Théatre, 78450 Villepreux, France",
         "geometry" : {
            "bounds" : {
               "northeast" : {
                  "lat" : 48.8325258,
                  "lng" : 2.0074026
               },
               "southwest" : {
                  "lat" : 48.8318452,
                  "lng" : 2.0067049
               }
            },
            "location" : {
               "lat" : 48.83208339999999,
               "lng" : 2.0068079
            },
            "location_type" : "GEOMETRIC_CENTER",
            "viewport" : {
               "northeast" : {
                  "lat" : 48.8335344802915,
                  "lng" : 2.008402730291502
               },
               "southwest" : {
                  "lat" : 48.8308365197085,
                  "lng" : 2.005704769708498
               }
            }
         },
         "partial_match" : true,
         "types" : [ "route" ]
      },
      {
         "address_components" : [
            {
               "long_name" : "Place du Théatre",
               "short_name" : "Place du Théatre",
               "types" : [ "route" ]
            },
            {
               "long_name" : "La Ciotat",
               "short_name" : "La Ciotat",
               "types" : [ "locality", "political" ]
            },
            {
               "long_name" : "Bouches-du-Rhône",
               "short_name" : "13",
               "types" : [ "administrative_area_level_2", "political" ]
            },
            {
               "long_name" : "Provence-Alpes-Côte d'Azur",
               "short_name" : "PACA",
               "types" : [ "administrative_area_level_1", "political" ]
            },
            {
               "long_name" : "France",
               "short_name" : "FR",
               "types" : [ "country", "political" ]
            },
            {
               "long_name" : "13600",
               "short_name" : "13600",
               "types" : [ "postal_code" ]
            }
         ],
         "formatted_address" : "Place du Théatre, 13600 La Ciotat, France",
         "geometry" : {
            "bounds" : {
               "northeast" : {
                  "lat" : 43.1768141,
                  "lng" : 5.608416
               },
               "southwest" : {
                  "lat" : 43.1767331,
                  "lng" : 5.608206
               }
            },
            "location" : {
               "lat" : 43.1768141,
               "lng" : 5.608206
            },
            "location_type" : "GEOMETRIC_CENTER",
            "viewport" : {
               "northeast" : {
                  "lat" : 43.1781225802915,
                  "lng" : 5.609659980291503
               },
               "southwest" : {
                  "lat" : 43.1754246197085,
                  "lng" : 5.606962019708498
               }
            }
         },
         "partial_match" : true,
         "types" : [ "route" ]
      },
      {
         "address_components" : [
            {
               "long_name" : "Place du Théatre",
               "short_name" : "Place du Théatre",
               "types" : [ "route" ]
            },
            {
               "long_name" : "Bastia",
               "short_name" : "Bastia",
               "types" : [ "locality", "political" ]
            },
            {
               "long_name" : "Haute-Corse",
               "short_name" : "2B",
               "types" : [ "administrative_area_level_2", "political" ]
            },
            {
               "long_name" : "Corse",
               "short_name" : "Corse",
               "types" : [ "administrative_area_level_1", "political" ]
            },
            {
               "long_name" : "France",
               "short_name" : "FR",
               "types" : [ "country", "political" ]
            },
            {
               "long_name" : "20200",
               "short_name" : "20200",
               "types" : [ "postal_code" ]
            }
         ],
         "formatted_address" : "Place du Théatre, 20200 Bastia, France",
         "geometry" : {
            "bounds" : {
               "northeast" : {
                  "lat" : 42.6972783,
                  "lng" : 9.447847300000001
               },
               "southwest" : {
                  "lat" : 42.69698640000001,
                  "lng" : 9.4472875
               }
            },
            "location" : {
               "lat" : 42.6970633,
               "lng" : 9.447586399999999
            },
            "location_type" : "GEOMETRIC_CENTER",
            "viewport" : {
               "northeast" : {
                  "lat" : 42.6984813302915,
                  "lng" : 9.448916380291504
               },
               "southwest" : {
                  "lat" : 42.69578336970851,
                  "lng" : 9.446218419708499
               }
            }
         },
         "partial_match" : true,
         "types" : [ "route" ]
      },
      {
         "address_components" : [
            {
               "long_name" : "Place du Théatre",
               "short_name" : "Place du Théatre",
               "types" : [ "route" ]
            },
            {
               "long_name" : "Chambéry",
               "short_name" : "Chambéry",
               "types" : [ "locality", "political" ]
            },
            {
               "long_name" : "Savoie",
               "short_name" : "73",
               "types" : [ "administrative_area_level_2", "political" ]
            },
            {
               "long_name" : "Rhône-Alpes",
               "short_name" : "RA",
               "types" : [ "administrative_area_level_1", "political" ]
            },
            {
               "long_name" : "France",
               "short_name" : "FR",
               "types" : [ "country", "political" ]
            },
            {
               "long_name" : "73000",
               "short_name" : "73000",
               "types" : [ "postal_code" ]
            }
         ],
         "formatted_address" : "Place du Théatre, 73000 Chambéry, France",
         "geometry" : {
            "bounds" : {
               "northeast" : {
                  "lat" : 45.56498029999999,
                  "lng" : 5.9243533
               },
               "southwest" : {
                  "lat" : 45.5649093,
                  "lng" : 5.924233
               }
            },
            "location" : {
               "lat" : 45.56498029999999,
               "lng" : 5.9243533
            },
            "location_type" : "GEOMETRIC_CENTER",
            "viewport" : {
               "northeast" : {
                  "lat" : 45.5662937802915,
                  "lng" : 5.925642130291503
               },
               "southwest" : {
                  "lat" : 45.5635958197085,
                  "lng" : 5.922944169708498
               }
            }
         },
         "partial_match" : true,
         "types" : [ "route" ]
      },
      {
         "address_components" : [
            {
               "long_name" : "Place du Théatre",
               "short_name" : "Place du Théatre",
               "types" : [ "route" ]
            },
            {
               "long_name" : "Belleville",
               "short_name" : "Belleville",
               "types" : [ "locality", "political" ]
            },
            {
               "long_name" : "Rhône",
               "short_name" : "69",
               "types" : [ "administrative_area_level_2", "political" ]
            },
            {
               "long_name" : "Rhône-Alpes",
               "short_name" : "RA",
               "types" : [ "administrative_area_level_1", "political" ]
            },
            {
               "long_name" : "France",
               "short_name" : "FR",
               "types" : [ "country", "political" ]
            },
            {
               "long_name" : "69220",
               "short_name" : "69220",
               "types" : [ "postal_code" ]
            }
         ],
         "formatted_address" : "Place du Théatre, 69220 Belleville, France",
         "geometry" : {
            "bounds" : {
               "northeast" : {
                  "lat" : 46.1079502,
                  "lng" : 4.7510883
               },
               "southwest" : {
                  "lat" : 46.107795,
                  "lng" : 4.750306999999999
               }
            },
            "location" : {
               "lat" : 46.1079502,
               "lng" : 4.750306999999999
            },
            "location_type" : "GEOMETRIC_CENTER",
            "viewport" : {
               "northeast" : {
                  "lat" : 46.1092215802915,
                  "lng" : 4.752046630291503
               },
               "southwest" : {
                  "lat" : 46.1065236197085,
                  "lng" : 4.749348669708498
               }
            }
         },
         "partial_match" : true,
         "types" : [ "route" ]
      },
      {
         "address_components" : [
            {
               "long_name" : "Place du Théâtre",
               "short_name" : "Pl. du Théâtre",
               "types" : [ "route" ]
            },
            {
               "long_name" : "Lille",
               "short_name" : "Lille",
               "types" : [ "locality", "political" ]
            },
            {
               "long_name" : "Nord",
               "short_name" : "59",
               "types" : [ "administrative_area_level_2", "political" ]
            },
            {
               "long_name" : "Nord-Pas-de-Calais",
               "short_name" : "Nord-Pas-de-Calais",
               "types" : [ "administrative_area_level_1", "political" ]
            },
            {
               "long_name" : "France",
               "short_name" : "FR",
               "types" : [ "country", "political" ]
            },
            {
               "long_name" : "59800",
               "short_name" : "59800",
               "types" : [ "postal_code" ]
            }
         ],
         "formatted_address" : "Place du Théâtre, 59800 Lille, France",
         "geometry" : {
            "bounds" : {
               "northeast" : {
                  "lat" : 50.63793769999999,
                  "lng" : 3.0652399
               },
               "southwest" : {
                  "lat" : 50.63697,
                  "lng" : 3.063776
               }
            },
            "location" : {
               "lat" : 50.6374308,
               "lng" : 3.0646183
            },
            "location_type" : "GEOMETRIC_CENTER",
            "viewport" : {
               "northeast" : {
                  "lat" : 50.63880283029149,
                  "lng" : 3.065856930291502
               },
               "southwest" : {
                  "lat" : 50.63610486970849,
                  "lng" : 3.063158969708498
               }
            }
         },
         "partial_match" : true,
         "types" : [ "route" ]
      }
   ],
   "status" : "OK"
}
