{
   "results" : [
      {
         "address_components" : [
            {
               "long_name" : "Saki Vihar",
               "short_name" : "Saki Vihar",
               "types" : [ "neighborhood", "political" ]
            },
            {
               "long_name" : "Budhia Jadhav Wadi",
               "short_name" : "Budhia Jadhav Wadi",
               "types" : [ "sublocality_level_3", "sublocality", "political" ]
            },
            {
               "long_name" : "Marol",
               "short_name" : "Marol",
               "types" : [ "sublocality_level_2", "sublocality", "political" ]
            },
            {
               "long_name" : "Andheri East",
               "short_name" : "Andheri East",
               "types" : [ "sublocality_level_1", "sublocality", "political" ]
            },
            {
               "long_name" : "Mumbai",
               "short_name" : "Mumbai",
               "types" : [ "locality", "political" ]
            },
            {
               "long_name" : "Mumbai Suburban",
               "short_name" : "Mumbai Suburban",
               "types" : [ "administrative_area_level_2", "political" ]
            },
            {
               "long_name" : "Maharashtra",
               "short_name" : "MH",
               "types" : [ "administrative_area_level_1", "political" ]
            },
            {
               "long_name" : "India",
               "short_name" : "IN",
               "types" : [ "country", "political" ]
            },
            {
               "long_name" : "400072",
               "short_name" : "400072",
               "types" : [ "postal_code" ]
            }
         ],
         "formatted_address" : "Saki Vihar, Budhia Jadhav Wadi, Marol, Andheri East, Mumbai, Maharashtra 400072, India",
         "geometry" : {
            "bounds" : {
               "northeast" : {
                  "lat" : 19.1239793,
                  "lng" : 72.89253289999999
               },
               "southwest" : {
                  "lat" : 19.1202333,
                  "lng" : 72.8899504
               }
            },
            "location" : {
               "lat" : 19.1221519,
               "lng" : 72.8908345
            },
            "location_type" : "APPROXIMATE",
            "viewport" : {
               "northeast" : {
                  "lat" : 19.1239793,
                  "lng" : 72.89259063029151
               },
               "southwest" : {
                  "lat" : 19.1202333,
                  "lng" : 72.8898926697085
               }
            }
         },
         "types" : [ "neighborhood", "political" ]
      },
      {
         "address_components" : [
            {
               "long_name" : "Saki Vihar Road",
               "short_name" : "Saki Vihar Rd",
               "types" : [ "route" ]
            },
            {
               "long_name" : "Mumbai",
               "short_name" : "Mumbai",
               "types" : [ "locality", "political" ]
            },
            {
               "long_name" : "Maharashtra",
               "short_name" : "MH",
               "types" : [ "administrative_area_level_1", "political" ]
            },
            {
               "long_name" : "India",
               "short_name" : "IN",
               "types" : [ "country", "political" ]
            }
         ],
         "formatted_address" : "Saki Vihar Road, Mumbai, Maharashtra, India",
         "geometry" : {
            "bounds" : {
               "northeast" : {
                  "lat" : 19.1332866,
                  "lng" : 72.89727689999999
               },
               "southwest" : {
                  "lat" : 19.1041277,
                  "lng" : 72.88627799999999
               }
            },
            "location" : {
               "lat" : 19.1191236,
               "lng" : 72.89034939999999
            },
            "location_type" : "GEOMETRIC_CENTER",
            "viewport" : {
               "northeast" : {
                  "lat" : 19.1332866,
                  "lng" : 72.89727689999999
               },
               "southwest" : {
                  "lat" : 19.1041277,
                  "lng" : 72.88627799999999
               }
            }
         },
         "partial_match" : true,
         "types" : [ "route" ]
      },
      {
         "address_components" : [
            {
               "long_name" : "Saki Vihar Road",
               "short_name" : "Saki Vihar Rd",
               "types" : [ "route" ]
            },
            {
               "long_name" : "Passpoli",
               "short_name" : "Passpoli",
               "types" : [ "sublocality_level_2", "sublocality", "political" ]
            },
            {
               "long_name" : "Powai",
               "short_name" : "Powai",
               "types" : [ "sublocality_level_1", "sublocality", "political" ]
            },
            {
               "long_name" : "Mumbai",
               "short_name" : "Mumbai",
               "types" : [ "locality", "political" ]
            },
            {
               "long_name" : "Mumbai Suburban",
               "short_name" : "Mumbai Suburban",
               "types" : [ "administrative_area_level_2", "political" ]
            },
            {
               "long_name" : "Maharashtra",
               "short_name" : "MH",
               "types" : [ "administrative_area_level_1", "political" ]
            },
            {
               "long_name" : "India",
               "short_name" : "IN",
               "types" : [ "country", "political" ]
            },
            {
               "long_name" : "400076",
               "short_name" : "400076",
               "types" : [ "postal_code" ]
            }
         ],
         "formatted_address" : "Saki Vihar Road, Passpoli, Powai, Mumbai, Maharashtra 400076, India",
         "geometry" : {
            "location" : {
               "lat" : 19.1250571,
               "lng" : 72.89320579999999
            },
            "location_type" : "GEOMETRIC_CENTER",
            "viewport" : {
               "northeast" : {
                  "lat" : 19.1264060802915,
                  "lng" : 72.8945547802915
               },
               "southwest" : {
                  "lat" : 19.1237081197085,
                  "lng" : 72.89185681970848
               }
            }
         },
         "partial_match" : true,
         "types" : [ "route" ]
      }
   ],
   "status" : "OK"
}
