{
   "results" : [
      {
         "address_components" : [
            {
               "long_name" : "Sardar Vallabhbhai Marg",
               "short_name" : "Sardar Vallabhbhai Marg",
               "types" : [ "route" ]
            },
            {
               "long_name" : "Rander",
               "short_name" : "Rander",
               "types" : [ "sublocality_level_1", "sublocality", "political" ]
            },
            {
               "long_name" : "Surat",
               "short_name" : "Surat",
               "types" : [ "locality", "political" ]
            },
            {
               "long_name" : "Surat",
               "short_name" : "Surat",
               "types" : [ "administrative_area_level_2", "political" ]
            },
            {
               "long_name" : "Gujarat",
               "short_name" : "GJ",
               "types" : [ "administrative_area_level_1", "political" ]
            },
            {
               "long_name" : "India",
               "short_name" : "IN",
               "types" : [ "country", "political" ]
            }
         ],
         "formatted_address" : "Sardar Vallabhbhai Marg, Rander, Surat, Gujarat, India",
         "geometry" : {
            "bounds" : {
               "northeast" : {
                  "lat" : 21.2187843,
                  "lng" : 72.79608739999999
               },
               "southwest" : {
                  "lat" : 21.2154285,
                  "lng" : 72.79150509999999
               }
            },
            "location" : {
               "lat" : 21.2168484,
               "lng" : 72.79399049999999
            },
            "location_type" : "GEOMETRIC_CENTER",
            "viewport" : {
               "northeast" : {
                  "lat" : 21.2187843,
                  "lng" : 72.79608739999999
               },
               "southwest" : {
                  "lat" : 21.2154285,
                  "lng" : 72.79150509999999
               }
            }
         },
         "partial_match" : true,
         "types" : [ "route" ]
      },
      {
         "address_components" : [
            {
               "long_name" : "Sardar Vallabhbhai Patel Road",
               "short_name" : "SVP Road",
               "types" : [ "route" ]
            },
            {
               "long_name" : "Mumbai",
               "short_name" : "Mumbai",
               "types" : [ "locality", "political" ]
            },
            {
               "long_name" : "Maharashtra",
               "short_name" : "MH",
               "types" : [ "administrative_area_level_1", "political" ]
            },
            {
               "long_name" : "India",
               "short_name" : "IN",
               "types" : [ "country", "political" ]
            }
         ],
         "formatted_address" : "Sardar Vallabhbhai Patel Road, Mumbai, Maharashtra, India",
         "geometry" : {
            "bounds" : {
               "northeast" : {
                  "lat" : 18.9603063,
                  "lng" : 72.8427063
               },
               "southwest" : {
                  "lat" : 18.9556232,
                  "lng" : 72.8124373
               }
            },
            "location" : {
               "lat" : 18.9580666,
               "lng" : 72.82768299999999
            },
            "location_type" : "GEOMETRIC_CENTER",
            "viewport" : {
               "northeast" : {
                  "lat" : 18.9603063,
                  "lng" : 72.8427063
               },
               "southwest" : {
                  "lat" : 18.9556232,
                  "lng" : 72.8124373
               }
            }
         },
         "partial_match" : true,
         "types" : [ "route" ]
      },
      {
         "address_components" : [
            {
               "long_name" : "Sardar Vallabhbhai Patel International Airport",
               "short_name" : "Sardar Vallabhbhai Patel International Airport",
               "types" : [ "establishment" ]
            },
            {
               "long_name" : "Ahmedabad",
               "short_name" : "Ahmedabad",
               "types" : [ "locality", "political" ]
            },
            {
               "long_name" : "Ahmedabad",
               "short_name" : "Ahmedabad",
               "types" : [ "administrative_area_level_2", "political" ]
            },
            {
               "long_name" : "Gujarat",
               "short_name" : "GJ",
               "types" : [ "administrative_area_level_1", "political" ]
            },
            {
               "long_name" : "India",
               "short_name" : "IN",
               "types" : [ "country", "political" ]
            },
            {
               "long_name" : "380003",
               "short_name" : "380003",
               "types" : [ "postal_code" ]
            }
         ],
         "formatted_address" : "Sardar Vallabhbhai Patel International Airport (AMD), Ahmedabad, Gujarat 380003, India",
         "geometry" : {
            "bounds" : {
               "northeast" : {
                  "lat" : 23.0919183,
                  "lng" : 72.65004979999999
               },
               "southwest" : {
                  "lat" : 23.0600196,
                  "lng" : 72.6123491
               }
            },
            "location" : {
               "lat" : 23.0734262,
               "lng" : 72.626571
            },
            "location_type" : "APPROXIMATE",
            "viewport" : {
               "northeast" : {
                  "lat" : 23.0919183,
                  "lng" : 72.65004979999999
               },
               "southwest" : {
                  "lat" : 23.0600196,
                  "lng" : 72.6123491
               }
            }
         },
         "partial_match" : true,
         "types" : [ "airport", "transit_station", "establishment" ]
      },
      {
         "address_components" : [
            {
               "long_name" : "Sardar Vallabhbhai Patel Avenue",
               "short_name" : "Sardar Vallabhbhai Patel Ave",
               "types" : [ "route" ]
            },
            {
               "long_name" : "Durgapur",
               "short_name" : "Durgapur",
               "types" : [ "locality", "political" ]
            },
            {
               "long_name" : "Bardhaman",
               "short_name" : "Bardhaman",
               "types" : [ "administrative_area_level_2", "political" ]
            },
            {
               "long_name" : "West Bengal",
               "short_name" : "WB",
               "types" : [ "administrative_area_level_1", "political" ]
            },
            {
               "long_name" : "India",
               "short_name" : "IN",
               "types" : [ "country", "political" ]
            }
         ],
         "formatted_address" : "Sardar Vallabhbhai Patel Avenue, Durgapur, West Bengal, India",
         "geometry" : {
            "bounds" : {
               "northeast" : {
                  "lat" : 23.5331509,
                  "lng" : 87.362898
               },
               "southwest" : {
                  "lat" : 23.5210749,
                  "lng" : 87.3432402
               }
            },
            "location" : {
               "lat" : 23.5269846,
               "lng" : 87.35400919999999
            },
            "location_type" : "GEOMETRIC_CENTER",
            "viewport" : {
               "northeast" : {
                  "lat" : 23.5331509,
                  "lng" : 87.362898
               },
               "southwest" : {
                  "lat" : 23.5210749,
                  "lng" : 87.3432402
               }
            }
         },
         "partial_match" : true,
         "types" : [ "route" ]
      },
      {
         "address_components" : [
            {
               "long_name" : "Sardar Vallabhbhai Patel Road",
               "short_name" : "Sardar Vallabhbhai Patel Rd",
               "types" : [ "route" ]
            },
            {
               "long_name" : "Ahmedabad",
               "short_name" : "Ahmedabad",
               "types" : [ "locality", "political" ]
            },
            {
               "long_name" : "Ahmedabad",
               "short_name" : "Ahmedabad",
               "types" : [ "administrative_area_level_2", "political" ]
            },
            {
               "long_name" : "Gujarat",
               "short_name" : "GJ",
               "types" : [ "administrative_area_level_1", "political" ]
            },
            {
               "long_name" : "India",
               "short_name" : "IN",
               "types" : [ "country", "political" ]
            }
         ],
         "formatted_address" : "Sardar Vallabhbhai Patel Road, Ahmedabad, Gujarat, India",
         "geometry" : {
            "bounds" : {
               "northeast" : {
                  "lat" : 23.0745584,
                  "lng" : 72.55701169999999
               },
               "southwest" : {
                  "lat" : 23.0686693,
                  "lng" : 72.5430465
               }
            },
            "location" : {
               "lat" : 23.0717378,
               "lng" : 72.5501062
            },
            "location_type" : "GEOMETRIC_CENTER",
            "viewport" : {
               "northeast" : {
                  "lat" : 23.0745584,
                  "lng" : 72.55701169999999
               },
               "southwest" : {
                  "lat" : 23.0686693,
                  "lng" : 72.5430465
               }
            }
         },
         "partial_match" : true,
         "types" : [ "route" ]
      },
      {
         "address_components" : [
            {
               "long_name" : "Sardar Vallabhbhai Patel Road",
               "short_name" : "Sardar Vallabhbhai Patel Rd",
               "types" : [ "route" ]
            },
            {
               "long_name" : "Sanjeevini Nagar",
               "short_name" : "Sanjeevini Nagar",
               "types" : [ "sublocality_level_1", "sublocality", "political" ]
            },
            {
               "long_name" : "Bengaluru",
               "short_name" : "Bengaluru",
               "types" : [ "locality", "political" ]
            },
            {
               "long_name" : "Bangalore Urban",
               "short_name" : "Bangalore Urban",
               "types" : [ "administrative_area_level_2", "political" ]
            },
            {
               "long_name" : "Karnataka",
               "short_name" : "KA",
               "types" : [ "administrative_area_level_1", "political" ]
            },
            {
               "long_name" : "India",
               "short_name" : "IN",
               "types" : [ "country", "political" ]
            },
            {
               "long_name" : "560092",
               "short_name" : "560092",
               "types" : [ "postal_code" ]
            }
         ],
         "formatted_address" : "Sardar Vallabhbhai Patel Road, Sanjeevini Nagar, Bengaluru, Karnataka 560092, India",
         "geometry" : {
            "bounds" : {
               "northeast" : {
                  "lat" : 13.0570893,
                  "lng" : 77.58879050000002
               },
               "southwest" : {
                  "lat" : 13.0549699,
                  "lng" : 77.587214
               }
            },
            "location" : {
               "lat" : 13.0562753,
               "lng" : 77.5872801
            },
            "location_type" : "GEOMETRIC_CENTER",
            "viewport" : {
               "northeast" : {
                  "lat" : 13.0573785802915,
                  "lng" : 77.58935123029153
               },
               "southwest" : {
                  "lat" : 13.0546806197085,
                  "lng" : 77.58665326970851
               }
            }
         },
         "partial_match" : true,
         "types" : [ "route" ]
      },
      {
         "address_components" : [
            {
               "long_name" : "Sardar Vallabhbhai Patel Road",
               "short_name" : "Sardar Vallabhbhai Patel Rd",
               "types" : [ "route" ]
            },
            {
               "long_name" : "Karaikal",
               "short_name" : "Karaikal",
               "types" : [ "locality", "political" ]
            },
            {
               "long_name" : "Karaikal",
               "short_name" : "Karaikal",
               "types" : [ "administrative_area_level_2", "political" ]
            },
            {
               "long_name" : "Tamil Nadu",
               "short_name" : "TN",
               "types" : [ "administrative_area_level_1", "political" ]
            },
            {
               "long_name" : "India",
               "short_name" : "IN",
               "types" : [ "country", "political" ]
            },
            {
               "long_name" : "609602",
               "short_name" : "609602",
               "types" : [ "postal_code" ]
            }
         ],
         "formatted_address" : "Sardar Vallabhbhai Patel Road, Karaikal, Tamil Nadu 609602, India",
         "geometry" : {
            "bounds" : {
               "northeast" : {
                  "lat" : 10.9178621,
                  "lng" : 79.84623669999999
               },
               "southwest" : {
                  "lat" : 10.9130467,
                  "lng" : 79.845726
               }
            },
            "location" : {
               "lat" : 10.9160214,
               "lng" : 79.8459472
            },
            "location_type" : "GEOMETRIC_CENTER",
            "viewport" : {
               "northeast" : {
                  "lat" : 10.9178621,
                  "lng" : 79.8473303302915
               },
               "southwest" : {
                  "lat" : 10.9130467,
                  "lng" : 79.84463236970849
               }
            }
         },
         "partial_match" : true,
         "types" : [ "route" ]
      },
      {
         "address_components" : [
            {
               "long_name" : "SV Commerce College",
               "short_name" : "SV Commerce College",
               "types" : [ "point_of_interest", "establishment" ]
            },
            {
               "long_name" : "Gheekanta",
               "short_name" : "Gheekanta",
               "types" : [ "sublocality_level_2", "sublocality", "political" ]
            },
            {
               "long_name" : "Ratan Pole",
               "short_name" : "Ratan Pole",
               "types" : [ "sublocality_level_1", "sublocality", "political" ]
            },
            {
               "long_name" : "Ahmedabad",
               "short_name" : "Ahmedabad",
               "types" : [ "locality", "political" ]
            },
            {
               "long_name" : "Ahmedabad",
               "short_name" : "Ahmedabad",
               "types" : [ "administrative_area_level_2", "political" ]
            },
            {
               "long_name" : "Gujarat",
               "short_name" : "GJ",
               "types" : [ "administrative_area_level_1", "political" ]
            },
            {
               "long_name" : "India",
               "short_name" : "IN",
               "types" : [ "country", "political" ]
            },
            {
               "long_name" : "380001",
               "short_name" : "380001",
               "types" : [ "postal_code" ]
            }
         ],
         "formatted_address" : "SV Commerce College, Gheekanta, Ratan Pole, Ahmedabad, Gujarat 380001, India",
         "geometry" : {
            "location" : {
               "lat" : 23.027591,
               "lng" : 72.5852845
            },
            "location_type" : "APPROXIMATE",
            "viewport" : {
               "northeast" : {
                  "lat" : 23.0289399802915,
                  "lng" : 72.58663348029151
               },
               "southwest" : {
                  "lat" : 23.0262420197085,
                  "lng" : 72.5839355197085
               }
            }
         },
         "partial_match" : true,
         "types" : [ "point_of_interest", "establishment" ]
      }
   ],
   "status" : "OK"
}
