{
   "results" : [
      {
         "address_components" : [
            {
               "long_name" : "Atghara",
               "short_name" : "Atghara",
               "types" : [ "locality", "political" ]
            },
            {
               "long_name" : "Malda",
               "short_name" : "Malda",
               "types" : [ "administrative_area_level_2", "political" ]
            },
            {
               "long_name" : "West Bengal",
               "short_name" : "WB",
               "types" : [ "administrative_area_level_1", "political" ]
            },
            {
               "long_name" : "India",
               "short_name" : "IN",
               "types" : [ "country", "political" ]
            },
            {
               "long_name" : "732124",
               "short_name" : "732124",
               "types" : [ "postal_code" ]
            }
         ],
         "formatted_address" : "Atghara, West Bengal 732124, India",
         "geometry" : {
            "bounds" : {
               "northeast" : {
                  "lat" : 25.2642301,
                  "lng" : 88.30431999999999
               },
               "southwest" : {
                  "lat" : 25.24447,
                  "lng" : 88.28715
               }
            },
            "location" : {
               "lat" : 25.2531923,
               "lng" : 88.2923363
            },
            "location_type" : "APPROXIMATE",
            "viewport" : {
               "northeast" : {
                  "lat" : 25.2642301,
                  "lng" : 88.30431999999999
               },
               "southwest" : {
                  "lat" : 25.24447,
                  "lng" : 88.28715
               }
            }
         },
         "types" : [ "locality", "political" ]
      },
      {
         "address_components" : [
            {
               "long_name" : "Atghara",
               "short_name" : "Atghara",
               "types" : [ "locality", "political" ]
            },
            {
               "long_name" : "South 24 Parganas",
               "short_name" : "South 24 Parganas",
               "types" : [ "administrative_area_level_2", "political" ]
            },
            {
               "long_name" : "West Bengal",
               "short_name" : "WB",
               "types" : [ "administrative_area_level_1", "political" ]
            },
            {
               "long_name" : "India",
               "short_name" : "IN",
               "types" : [ "country", "political" ]
            }
         ],
         "formatted_address" : "Atghara, West Bengal, India",
         "geometry" : {
            "bounds" : {
               "northeast" : {
                  "lat" : 22.37639,
                  "lng" : 88.46928
               },
               "southwest" : {
                  "lat" : 22.36211,
                  "lng" : 88.46320999999999
               }
            },
            "location" : {
               "lat" : 22.3697613,
               "lng" : 88.4658215
            },
            "location_type" : "APPROXIMATE",
            "viewport" : {
               "northeast" : {
                  "lat" : 22.37639,
                  "lng" : 88.46928
               },
               "southwest" : {
                  "lat" : 22.36211,
                  "lng" : 88.46320999999999
               }
            }
         },
         "types" : [ "locality", "political" ]
      },
      {
         "address_components" : [
            {
               "long_name" : "Atghara",
               "short_name" : "Atghara",
               "types" : [ "locality", "political" ]
            },
            {
               "long_name" : "North 24 Parganas",
               "short_name" : "North 24 Parganas",
               "types" : [ "administrative_area_level_2", "political" ]
            },
            {
               "long_name" : "West Bengal",
               "short_name" : "WB",
               "types" : [ "administrative_area_level_1", "political" ]
            },
            {
               "long_name" : "India",
               "short_name" : "IN",
               "types" : [ "country", "political" ]
            }
         ],
         "formatted_address" : "Atghara, West Bengal, India",
         "geometry" : {
            "bounds" : {
               "northeast" : {
                  "lat" : 22.8080199,
                  "lng" : 88.78797
               },
               "southwest" : {
                  "lat" : 22.7892,
                  "lng" : 88.7628299
               }
            },
            "location" : {
               "lat" : 22.7969417,
               "lng" : 88.7758503
            },
            "location_type" : "APPROXIMATE",
            "viewport" : {
               "northeast" : {
                  "lat" : 22.8080199,
                  "lng" : 88.78797
               },
               "southwest" : {
                  "lat" : 22.7892,
                  "lng" : 88.7628299
               }
            }
         },
         "types" : [ "locality", "political" ]
      },
      {
         "address_components" : [
            {
               "long_name" : "Atghara",
               "short_name" : "Atghara",
               "types" : [ "locality", "political" ]
            },
            {
               "long_name" : "Uttar Dinajpur",
               "short_name" : "Uttar Dinajpur",
               "types" : [ "administrative_area_level_2", "political" ]
            },
            {
               "long_name" : "West Bengal",
               "short_name" : "WB",
               "types" : [ "administrative_area_level_1", "political" ]
            },
            {
               "long_name" : "India",
               "short_name" : "IN",
               "types" : [ "country", "political" ]
            },
            {
               "long_name" : "733129",
               "short_name" : "733129",
               "types" : [ "postal_code" ]
            }
         ],
         "formatted_address" : "Atghara, West Bengal 733129, India",
         "geometry" : {
            "bounds" : {
               "northeast" : {
                  "lat" : 25.6151801,
                  "lng" : 88.3635501
               },
               "southwest" : {
                  "lat" : 25.59167,
                  "lng" : 88.34266
               }
            },
            "location" : {
               "lat" : 25.6032592,
               "lng" : 88.35064679999999
            },
            "location_type" : "APPROXIMATE",
            "viewport" : {
               "northeast" : {
                  "lat" : 25.6151801,
                  "lng" : 88.3635501
               },
               "southwest" : {
                  "lat" : 25.59167,
                  "lng" : 88.34266
               }
            }
         },
         "types" : [ "locality", "political" ]
      },
      {
         "address_components" : [
            {
               "long_name" : "Atghara",
               "short_name" : "Atghara",
               "types" : [ "locality", "political" ]
            },
            {
               "long_name" : "Hooghly",
               "short_name" : "Hooghly",
               "types" : [ "administrative_area_level_2", "political" ]
            },
            {
               "long_name" : "West Bengal",
               "short_name" : "WB",
               "types" : [ "administrative_area_level_1", "political" ]
            },
            {
               "long_name" : "India",
               "short_name" : "IN",
               "types" : [ "country", "political" ]
            },
            {
               "long_name" : "712412",
               "short_name" : "712412",
               "types" : [ "postal_code" ]
            }
         ],
         "formatted_address" : "Atghara, West Bengal 712412, India",
         "geometry" : {
            "bounds" : {
               "northeast" : {
                  "lat" : 22.7535601,
                  "lng" : 87.89181010000001
               },
               "southwest" : {
                  "lat" : 22.74351,
                  "lng" : 87.87994999999999
               }
            },
            "location" : {
               "lat" : 22.7474754,
               "lng" : 87.88565779999999
            },
            "location_type" : "APPROXIMATE",
            "viewport" : {
               "northeast" : {
                  "lat" : 22.7535601,
                  "lng" : 87.89181010000001
               },
               "southwest" : {
                  "lat" : 22.74351,
                  "lng" : 87.87994999999999
               }
            }
         },
         "types" : [ "locality", "political" ]
      },
      {
         "address_components" : [
            {
               "long_name" : "Atghara",
               "short_name" : "Atghara",
               "types" : [ "locality", "political" ]
            },
            {
               "long_name" : "West Medinipur",
               "short_name" : "West Medinipur",
               "types" : [ "administrative_area_level_2", "political" ]
            },
            {
               "long_name" : "West Bengal",
               "short_name" : "WB",
               "types" : [ "administrative_area_level_1", "political" ]
            },
            {
               "long_name" : "India",
               "short_name" : "IN",
               "types" : [ "country", "political" ]
            }
         ],
         "formatted_address" : "Atghara, West Bengal, India",
         "geometry" : {
            "bounds" : {
               "northeast" : {
                  "lat" : 22.7077499,
                  "lng" : 87.58248010000001
               },
               "southwest" : {
                  "lat" : 22.6961401,
                  "lng" : 87.57136009999999
               }
            },
            "location" : {
               "lat" : 22.7043836,
               "lng" : 87.575423
            },
            "location_type" : "APPROXIMATE",
            "viewport" : {
               "northeast" : {
                  "lat" : 22.7077499,
                  "lng" : 87.58248010000001
               },
               "southwest" : {
                  "lat" : 22.6961401,
                  "lng" : 87.57136009999999
               }
            }
         },
         "types" : [ "locality", "political" ]
      },
      {
         "address_components" : [
            {
               "long_name" : "Atghara",
               "short_name" : "Atghara",
               "types" : [ "locality", "political" ]
            },
            {
               "long_name" : "Bardhaman",
               "short_name" : "Bardhaman",
               "types" : [ "administrative_area_level_2", "political" ]
            },
            {
               "long_name" : "West Bengal",
               "short_name" : "WB",
               "types" : [ "administrative_area_level_1", "political" ]
            },
            {
               "long_name" : "India",
               "short_name" : "IN",
               "types" : [ "country", "political" ]
            }
         ],
         "formatted_address" : "Atghara, West Bengal, India",
         "geometry" : {
            "bounds" : {
               "northeast" : {
                  "lat" : 23.5536299,
                  "lng" : 87.8776199
               },
               "southwest" : {
                  "lat" : 23.5354901,
                  "lng" : 87.85715999999999
               }
            },
            "location" : {
               "lat" : 23.5434273,
               "lng" : 87.8672509
            },
            "location_type" : "APPROXIMATE",
            "viewport" : {
               "northeast" : {
                  "lat" : 23.5536299,
                  "lng" : 87.8776199
               },
               "southwest" : {
                  "lat" : 23.5354901,
                  "lng" : 87.85715999999999
               }
            }
         },
         "types" : [ "locality", "political" ]
      },
      {
         "address_components" : [
            {
               "long_name" : "Atghara",
               "short_name" : "Atghara",
               "types" : [ "point_of_interest", "establishment" ]
            },
            {
               "long_name" : "Jessore",
               "short_name" : "Jessore",
               "types" : [ "locality", "political" ]
            },
            {
               "long_name" : "Jessore",
               "short_name" : "Jessore",
               "types" : [ "administrative_area_level_2", "political" ]
            },
            {
               "long_name" : "Khulna Division",
               "short_name" : "Khulna Division",
               "types" : [ "administrative_area_level_1", "political" ]
            },
            {
               "long_name" : "Bangladesh",
               "short_name" : "BD",
               "types" : [ "country", "political" ]
            },
            {
               "long_name" : "7440",
               "short_name" : "7440",
               "types" : [ "postal_code" ]
            }
         ],
         "formatted_address" : "Atghara, Jessore 7440, Bangladesh",
         "geometry" : {
            "location" : {
               "lat" : 22.941637,
               "lng" : 89.18683999999999
            },
            "location_type" : "APPROXIMATE",
            "viewport" : {
               "northeast" : {
                  "lat" : 22.9429859802915,
                  "lng" : 89.18818898029149
               },
               "southwest" : {
                  "lat" : 22.9402880197085,
                  "lng" : 89.18549101970848
               }
            }
         },
         "types" : [ "point_of_interest", "establishment" ]
      },
      {
         "address_components" : [
            {
               "long_name" : "Atghara",
               "short_name" : "Atghara",
               "types" : [ "sublocality_level_2", "sublocality", "political" ]
            },
            {
               "long_name" : "Nayabad",
               "short_name" : "Nayabad",
               "types" : [ "sublocality_level_1", "sublocality", "political" ]
            },
            {
               "long_name" : "Kolkata",
               "short_name" : "Kolkata",
               "types" : [ "locality", "political" ]
            },
            {
               "long_name" : "Kolkata",
               "short_name" : "Kolkata",
               "types" : [ "administrative_area_level_2", "political" ]
            },
            {
               "long_name" : "West Bengal",
               "short_name" : "WB",
               "types" : [ "administrative_area_level_1", "political" ]
            },
            {
               "long_name" : "India",
               "short_name" : "IN",
               "types" : [ "country", "political" ]
            },
            {
               "long_name" : "700150",
               "short_name" : "700150",
               "types" : [ "postal_code" ]
            }
         ],
         "formatted_address" : "Atghara, Nayabad, Kolkata, West Bengal 700150, India",
         "geometry" : {
            "bounds" : {
               "northeast" : {
                  "lat" : 22.4881099,
                  "lng" : 88.43127799999999
               },
               "southwest" : {
                  "lat" : 22.479712,
                  "lng" : 88.41647909999999
               }
            },
            "location" : {
               "lat" : 22.4825847,
               "lng" : 88.4246364
            },
            "location_type" : "APPROXIMATE",
            "viewport" : {
               "northeast" : {
                  "lat" : 22.4881099,
                  "lng" : 88.43127799999999
               },
               "southwest" : {
                  "lat" : 22.479712,
                  "lng" : 88.41647909999999
               }
            }
         },
         "types" : [ "sublocality_level_2", "sublocality", "political" ]
      },
      {
         "address_components" : [
            {
               "long_name" : "Atghara",
               "short_name" : "Atghara",
               "types" : [ "bus_station", "transit_station", "establishment" ]
            },
            {
               "long_name" : "Rajarhat Road",
               "short_name" : "Rajarhat Rd",
               "types" : [ "route" ]
            },
            {
               "long_name" : "Atghara",
               "short_name" : "Atghara",
               "types" : [ "neighborhood", "political" ]
            },
            {
               "long_name" : "Dash Drone",
               "short_name" : "Dash Drone",
               "types" : [ "sublocality_level_3", "sublocality", "political" ]
            },
            {
               "long_name" : "Newtown",
               "short_name" : "Newtown",
               "types" : [ "sublocality_level_1", "sublocality", "political" ]
            },
            {
               "long_name" : "Kolkata",
               "short_name" : "Kolkata",
               "types" : [ "locality", "political" ]
            },
            {
               "long_name" : "Kolkata",
               "short_name" : "Kolkata",
               "types" : [ "administrative_area_level_2", "political" ]
            },
            {
               "long_name" : "West Bengal",
               "short_name" : "WB",
               "types" : [ "administrative_area_level_1", "political" ]
            },
            {
               "long_name" : "India",
               "short_name" : "IN",
               "types" : [ "country", "political" ]
            },
            {
               "long_name" : "700052",
               "short_name" : "700052",
               "types" : [ "postal_code" ]
            }
         ],
         "formatted_address" : "Atghara, Rajarhat Road, Atghara, Dash Drone, Newtown, Kolkata, West Bengal 700052, India",
         "geometry" : {
            "location" : {
               "lat" : 22.6249048,
               "lng" : 88.4424573
            },
            "location_type" : "APPROXIMATE",
            "viewport" : {
               "northeast" : {
                  "lat" : 22.6262537802915,
                  "lng" : 88.4438062802915
               },
               "southwest" : {
                  "lat" : 22.6235558197085,
                  "lng" : 88.44110831970849
               }
            }
         },
         "types" : [ "bus_station", "transit_station", "establishment" ]
      },
      {
         "address_components" : [
            {
               "long_name" : "Atghara",
               "short_name" : "Atghara",
               "types" : [ "neighborhood", "political" ]
            },
            {
               "long_name" : "Dash Drone",
               "short_name" : "Dash Drone",
               "types" : [ "sublocality_level_3", "sublocality", "political" ]
            },
            {
               "long_name" : "Newtown",
               "short_name" : "Newtown",
               "types" : [ "sublocality_level_1", "sublocality", "political" ]
            },
            {
               "long_name" : "Kolkata",
               "short_name" : "Kolkata",
               "types" : [ "locality", "political" ]
            },
            {
               "long_name" : "Kolkata",
               "short_name" : "Kolkata",
               "types" : [ "administrative_area_level_2", "political" ]
            },
            {
               "long_name" : "West Bengal",
               "short_name" : "WB",
               "types" : [ "administrative_area_level_1", "political" ]
            },
            {
               "long_name" : "India",
               "short_name" : "IN",
               "types" : [ "country", "political" ]
            },
            {
               "long_name" : "700052",
               "short_name" : "700052",
               "types" : [ "postal_code" ]
            }
         ],
         "formatted_address" : "Atghara, Dash Drone, Newtown, Kolkata, West Bengal 700052, India",
         "geometry" : {
            "bounds" : {
               "northeast" : {
                  "lat" : 22.6271826,
                  "lng" : 88.4497154
               },
               "southwest" : {
                  "lat" : 22.6221517,
                  "lng" : 88.4392118
               }
            },
            "location" : {
               "lat" : 22.6250187,
               "lng" : 88.4434169
            },
            "location_type" : "APPROXIMATE",
            "viewport" : {
               "northeast" : {
                  "lat" : 22.6271826,
                  "lng" : 88.4497154
               },
               "southwest" : {
                  "lat" : 22.6221517,
                  "lng" : 88.4392118
               }
            }
         },
         "types" : [ "neighborhood", "political" ]
      }
   ],
   "status" : "OK"
}
