{
   "results" : [
      {
         "address_components" : [
            {
               "long_name" : "Bortola",
               "short_name" : "Bortola",
               "types" : [ "sublocality_level_2", "sublocality", "political" ]
            },
            {
               "long_name" : "Barabazar Market",
               "short_name" : "Barabazar Market",
               "types" : [ "sublocality_level_1", "sublocality", "political" ]
            },
            {
               "long_name" : "Kolkata",
               "short_name" : "Kolkata",
               "types" : [ "locality", "political" ]
            },
            {
               "long_name" : "Kolkata",
               "short_name" : "Kolkata",
               "types" : [ "administrative_area_level_2", "political" ]
            },
            {
               "long_name" : "West Bengal",
               "short_name" : "WB",
               "types" : [ "administrative_area_level_1", "political" ]
            },
            {
               "long_name" : "India",
               "short_name" : "IN",
               "types" : [ "country", "political" ]
            }
         ],
         "formatted_address" : "Bortola, Barabazar Market, Kolkata, West Bengal, India",
         "geometry" : {
            "bounds" : {
               "northeast" : {
                  "lat" : 22.5818439,
                  "lng" : 88.35685909999999
               },
               "southwest" : {
                  "lat" : 22.5765861,
                  "lng" : 88.350651
               }
            },
            "location" : {
               "lat" : 22.5794444,
               "lng" : 88.3536817
            },
            "location_type" : "APPROXIMATE",
            "viewport" : {
               "northeast" : {
                  "lat" : 22.5818439,
                  "lng" : 88.35685909999999
               },
               "southwest" : {
                  "lat" : 22.5765861,
                  "lng" : 88.350651
               }
            }
         },
         "types" : [ "sublocality_level_2", "sublocality", "political" ]
      },
      {
         "address_components" : [
            {
               "long_name" : "Bortola",
               "short_name" : "Bortola",
               "types" : [ "transit_station", "establishment" ]
            },
            {
               "long_name" : "Bara Bazar",
               "short_name" : "Bara Bazar",
               "types" : [ "sublocality_level_2", "sublocality", "political" ]
            },
            {
               "long_name" : "Barabazar Market",
               "short_name" : "Barabazar Market",
               "types" : [ "sublocality_level_1", "sublocality", "political" ]
            },
            {
               "long_name" : "Kolkata",
               "short_name" : "Kolkata",
               "types" : [ "locality", "political" ]
            },
            {
               "long_name" : "Kolkata",
               "short_name" : "Kolkata",
               "types" : [ "administrative_area_level_2", "political" ]
            },
            {
               "long_name" : "West Bengal",
               "short_name" : "WB",
               "types" : [ "administrative_area_level_1", "political" ]
            },
            {
               "long_name" : "India",
               "short_name" : "IN",
               "types" : [ "country", "political" ]
            },
            {
               "long_name" : "700001",
               "short_name" : "700001",
               "types" : [ "postal_code" ]
            }
         ],
         "formatted_address" : "Bortola, Bara Bazar, Barabazar Market, Kolkata, West Bengal 700001",
         "geometry" : {
            "location" : {
               "lat" : 22.579438,
               "lng" : 88.356712
            },
            "location_type" : "APPROXIMATE",
            "viewport" : {
               "northeast" : {
                  "lat" : 22.5807869802915,
                  "lng" : 88.35806098029151
               },
               "southwest" : {
                  "lat" : 22.5780890197085,
                  "lng" : 88.35536301970849
               }
            }
         },
         "types" : [ "transit_station", "establishment" ]
      },
      {
         "address_components" : [
            {
               "long_name" : "Bortola",
               "short_name" : "Bortola",
               "types" : [ "locality", "political" ]
            },
            {
               "long_name" : "Gondia",
               "short_name" : "Gondia",
               "types" : [ "administrative_area_level_2", "political" ]
            },
            {
               "long_name" : "Maharashtra",
               "short_name" : "MH",
               "types" : [ "administrative_area_level_1", "political" ]
            },
            {
               "long_name" : "India",
               "short_name" : "IN",
               "types" : [ "country", "political" ]
            }
         ],
         "formatted_address" : "Bortola, Maharashtra, India",
         "geometry" : {
            "bounds" : {
               "northeast" : {
                  "lat" : 20.9075999,
                  "lng" : 80.04487999999999
               },
               "southwest" : {
                  "lat" : 20.8872901,
                  "lng" : 80.02906999999999
               }
            },
            "location" : {
               "lat" : 20.9001201,
               "lng" : 80.0339312
            },
            "location_type" : "APPROXIMATE",
            "viewport" : {
               "northeast" : {
                  "lat" : 20.9075999,
                  "lng" : 80.04487999999999
               },
               "southwest" : {
                  "lat" : 20.8872901,
                  "lng" : 80.02906999999999
               }
            }
         },
         "types" : [ "locality", "political" ]
      },
      {
         "address_components" : [
            {
               "long_name" : "Bartala",
               "short_name" : "Bartala",
               "types" : [ "locality", "political" ]
            },
            {
               "long_name" : "Barpeta",
               "short_name" : "Barpeta",
               "types" : [ "administrative_area_level_2", "political" ]
            },
            {
               "long_name" : "Assam",
               "short_name" : "AS",
               "types" : [ "administrative_area_level_1", "political" ]
            },
            {
               "long_name" : "India",
               "short_name" : "IN",
               "types" : [ "country", "political" ]
            },
            {
               "long_name" : "781138",
               "short_name" : "781138",
               "types" : [ "postal_code" ]
            }
         ],
         "formatted_address" : "Bartala, Assam 781138, India",
         "geometry" : {
            "bounds" : {
               "northeast" : {
                  "lat" : 26.27787,
                  "lng" : 91.3281441
               },
               "southwest" : {
                  "lat" : 26.2648629,
                  "lng" : 91.31492609999999
               }
            },
            "location" : {
               "lat" : 26.2701804,
               "lng" : 91.32161819999999
            },
            "location_type" : "APPROXIMATE",
            "viewport" : {
               "northeast" : {
                  "lat" : 26.27787,
                  "lng" : 91.3281441
               },
               "southwest" : {
                  "lat" : 26.2648629,
                  "lng" : 91.31492609999999
               }
            }
         },
         "types" : [ "locality", "political" ]
      },
      {
         "address_components" : [
            {
               "long_name" : "Bortola",
               "short_name" : "Bortola",
               "types" : [ "locality", "political" ]
            },
            {
               "long_name" : "Gadchiroli",
               "short_name" : "Gadchiroli",
               "types" : [ "administrative_area_level_2", "political" ]
            },
            {
               "long_name" : "Maharashtra",
               "short_name" : "MH",
               "types" : [ "administrative_area_level_1", "political" ]
            },
            {
               "long_name" : "India",
               "short_name" : "IN",
               "types" : [ "country", "political" ]
            }
         ],
         "formatted_address" : "Bortola, Maharashtra, India",
         "geometry" : {
            "bounds" : {
               "northeast" : {
                  "lat" : 20.5209,
                  "lng" : 80.30368989999999
               },
               "southwest" : {
                  "lat" : 20.48366,
                  "lng" : 80.24556
               }
            },
            "location" : {
               "lat" : 20.5040156,
               "lng" : 80.27115879999999
            },
            "location_type" : "APPROXIMATE",
            "viewport" : {
               "northeast" : {
                  "lat" : 20.5209,
                  "lng" : 80.30368989999999
               },
               "southwest" : {
                  "lat" : 20.48366,
                  "lng" : 80.24556
               }
            }
         },
         "types" : [ "locality", "political" ]
      }
   ],
   "status" : "OK"
}
