{
   "results" : [
      {
         "address_components" : [
            {
               "long_name" : "Darga Road",
               "short_name" : "Darga Rd",
               "types" : [ "route" ]
            },
            {
               "long_name" : "Gulbarga",
               "short_name" : "Gulbarga",
               "types" : [ "locality", "political" ]
            },
            {
               "long_name" : "Gulbarga",
               "short_name" : "Gulbarga",
               "types" : [ "administrative_area_level_2", "political" ]
            },
            {
               "long_name" : "Karnataka",
               "short_name" : "KA",
               "types" : [ "administrative_area_level_1", "political" ]
            },
            {
               "long_name" : "India",
               "short_name" : "IN",
               "types" : [ "country", "political" ]
            }
         ],
         "formatted_address" : "Darga Road, Gulbarga, Karnataka, India",
         "geometry" : {
            "bounds" : {
               "northeast" : {
                  "lat" : 17.3500168,
                  "lng" : 76.84532639999999
               },
               "southwest" : {
                  "lat" : 17.3335544,
                  "lng" : 76.83670499999999
               }
            },
            "location" : {
               "lat" : 17.3419045,
               "lng" : 76.844438
            },
            "location_type" : "GEOMETRIC_CENTER",
            "viewport" : {
               "northeast" : {
                  "lat" : 17.3500168,
                  "lng" : 76.84532639999999
               },
               "southwest" : {
                  "lat" : 17.3335544,
                  "lng" : 76.83670499999999
               }
            }
         },
         "types" : [ "route" ]
      },
      {
         "address_components" : [
            {
               "long_name" : "West Kelley Drive",
               "short_name" : "W Kelley Dr",
               "types" : [ "route" ]
            },
            {
               "long_name" : "Millersburg",
               "short_name" : "Millersburg",
               "types" : [ "locality", "political" ]
            },
            {
               "long_name" : "Case",
               "short_name" : "Case",
               "types" : [ "administrative_area_level_3", "political" ]
            },
            {
               "long_name" : "Presque Isle County",
               "short_name" : "Presque Isle County",
               "types" : [ "administrative_area_level_2", "political" ]
            },
            {
               "long_name" : "Michigan",
               "short_name" : "MI",
               "types" : [ "administrative_area_level_1", "political" ]
            },
            {
               "long_name" : "United States",
               "short_name" : "US",
               "types" : [ "country", "political" ]
            },
            {
               "long_name" : "49759",
               "short_name" : "49759",
               "types" : [ "postal_code" ]
            }
         ],
         "formatted_address" : "West Kelley Drive, Millersburg, MI 49759, USA",
         "geometry" : {
            "bounds" : {
               "northeast" : {
                  "lat" : 45.328263,
                  "lng" : -84.01404389999999
               },
               "southwest" : {
                  "lat" : 45.3228821,
                  "lng" : -84.021154
               }
            },
            "location" : {
               "lat" : 45.3253233,
               "lng" : -84.0177441
            },
            "location_type" : "GEOMETRIC_CENTER",
            "viewport" : {
               "northeast" : {
                  "lat" : 45.328263,
                  "lng" : -84.01404389999999
               },
               "southwest" : {
                  "lat" : 45.3228821,
                  "lng" : -84.021154
               }
            }
         },
         "types" : [ "route" ]
      },
      {
         "address_components" : [
            {
               "long_name" : "Dharga Road",
               "short_name" : "Dharga Rd",
               "types" : [ "route" ]
            },
            {
               "long_name" : "Chennai",
               "short_name" : "Chennai",
               "types" : [ "locality", "political" ]
            },
            {
               "long_name" : "Kanchipuram",
               "short_name" : "Kanchipuram",
               "types" : [ "administrative_area_level_2", "political" ]
            },
            {
               "long_name" : "Tamil Nadu",
               "short_name" : "TN",
               "types" : [ "administrative_area_level_1", "political" ]
            },
            {
               "long_name" : "India",
               "short_name" : "IN",
               "types" : [ "country", "political" ]
            },
            {
               "long_name" : "600043",
               "short_name" : "600043",
               "types" : [ "postal_code" ]
            }
         ],
         "formatted_address" : "Dharga Road, Chennai, Tamil Nadu 600043, India",
         "geometry" : {
            "bounds" : {
               "northeast" : {
                  "lat" : 12.9695178,
                  "lng" : 80.17037320000001
               },
               "southwest" : {
                  "lat" : 12.9610255,
                  "lng" : 80.1486828
               }
            },
            "location" : {
               "lat" : 12.9628107,
               "lng" : 80.16124479999999
            },
            "location_type" : "GEOMETRIC_CENTER",
            "viewport" : {
               "northeast" : {
                  "lat" : 12.9695178,
                  "lng" : 80.17037320000001
               },
               "southwest" : {
                  "lat" : 12.9610255,
                  "lng" : 80.1486828
               }
            }
         },
         "types" : [ "route" ]
      },
      {
         "address_components" : [
            {
               "long_name" : "Darga Road",
               "short_name" : "Darga Rd",
               "types" : [ "route" ]
            },
            {
               "long_name" : "Kolkata",
               "short_name" : "Kolkata",
               "types" : [ "locality", "political" ]
            },
            {
               "long_name" : "Kolkata",
               "short_name" : "Kolkata",
               "types" : [ "administrative_area_level_2", "political" ]
            },
            {
               "long_name" : "West Bengal",
               "short_name" : "WB",
               "types" : [ "administrative_area_level_1", "political" ]
            },
            {
               "long_name" : "India",
               "short_name" : "IN",
               "types" : [ "country", "political" ]
            },
            {
               "long_name" : "700017",
               "short_name" : "700017",
               "types" : [ "postal_code" ]
            }
         ],
         "formatted_address" : "Darga Road, Kolkata, West Bengal 700017, India",
         "geometry" : {
            "bounds" : {
               "northeast" : {
                  "lat" : 22.5448683,
                  "lng" : 88.37171499999999
               },
               "southwest" : {
                  "lat" : 22.5399215,
                  "lng" : 88.37027429999999
               }
            },
            "location" : {
               "lat" : 22.5424186,
               "lng" : 88.3708671
            },
            "location_type" : "GEOMETRIC_CENTER",
            "viewport" : {
               "northeast" : {
                  "lat" : 22.5448683,
                  "lng" : 88.3723436302915
               },
               "southwest" : {
                  "lat" : 22.5399215,
                  "lng" : 88.36964566970849
               }
            }
         },
         "types" : [ "route" ]
      },
      {
         "address_components" : [
            {
               "long_name" : "Darga Road",
               "short_name" : "Darga Rd",
               "types" : [ "route" ]
            },
            {
               "long_name" : "Parbhani",
               "short_name" : "Parbhani",
               "types" : [ "locality", "political" ]
            },
            {
               "long_name" : "Parbhani",
               "short_name" : "Parbhani",
               "types" : [ "administrative_area_level_2", "political" ]
            },
            {
               "long_name" : "Maharashtra",
               "short_name" : "MH",
               "types" : [ "administrative_area_level_1", "political" ]
            },
            {
               "long_name" : "India",
               "short_name" : "IN",
               "types" : [ "country", "political" ]
            },
            {
               "long_name" : "431401",
               "short_name" : "431401",
               "types" : [ "postal_code" ]
            }
         ],
         "formatted_address" : "Darga Road, Parbhani, Maharashtra 431401, India",
         "geometry" : {
            "bounds" : {
               "northeast" : {
                  "lat" : 19.2714728,
                  "lng" : 76.7619917
               },
               "southwest" : {
                  "lat" : 19.2707165,
                  "lng" : 76.7561108
               }
            },
            "location" : {
               "lat" : 19.2710059,
               "lng" : 76.7587152
            },
            "location_type" : "GEOMETRIC_CENTER",
            "viewport" : {
               "northeast" : {
                  "lat" : 19.2724436302915,
                  "lng" : 76.7619917
               },
               "southwest" : {
                  "lat" : 19.2697456697085,
                  "lng" : 76.7561108
               }
            }
         },
         "types" : [ "route" ]
      },
      {
         "address_components" : [
            {
               "long_name" : "Darga Road",
               "short_name" : "Darga Rd",
               "types" : [ "route" ]
            },
            {
               "long_name" : "Naidupeta",
               "short_name" : "Naidupeta",
               "types" : [ "locality", "political" ]
            },
            {
               "long_name" : "Nellore",
               "short_name" : "Nellore",
               "types" : [ "administrative_area_level_2", "political" ]
            },
            {
               "long_name" : "Andhra Pradesh",
               "short_name" : "AP",
               "types" : [ "administrative_area_level_1", "political" ]
            },
            {
               "long_name" : "India",
               "short_name" : "IN",
               "types" : [ "country", "political" ]
            },
            {
               "long_name" : "524126",
               "short_name" : "524126",
               "types" : [ "postal_code" ]
            }
         ],
         "formatted_address" : "Darga Road, Naidupeta, Andhra Pradesh 524126, India",
         "geometry" : {
            "bounds" : {
               "northeast" : {
                  "lat" : 13.9075551,
                  "lng" : 79.901197
               },
               "southwest" : {
                  "lat" : 13.9069802,
                  "lng" : 79.89814779999999
               }
            },
            "location" : {
               "lat" : 13.9072927,
               "lng" : 79.8998201
            },
            "location_type" : "GEOMETRIC_CENTER",
            "viewport" : {
               "northeast" : {
                  "lat" : 13.9086166302915,
                  "lng" : 79.901197
               },
               "southwest" : {
                  "lat" : 13.9059186697085,
                  "lng" : 79.89814779999999
               }
            }
         },
         "types" : [ "route" ]
      },
      {
         "address_components" : [
            {
               "long_name" : "Darga Road",
               "short_name" : "Darga Rd",
               "types" : [ "route" ]
            },
            {
               "long_name" : "Darga",
               "short_name" : "Darga",
               "types" : [ "locality", "political" ]
            },
            {
               "long_name" : "Mianwali District",
               "short_name" : "Mianwali District",
               "types" : [ "administrative_area_level_2", "political" ]
            },
            {
               "long_name" : "Punjab",
               "short_name" : "Punjab",
               "types" : [ "administrative_area_level_1", "political" ]
            },
            {
               "long_name" : "Pakistan",
               "short_name" : "PK",
               "types" : [ "country", "political" ]
            }
         ],
         "formatted_address" : "Darga Road, Darga, Pakistan",
         "geometry" : {
            "bounds" : {
               "northeast" : {
                  "lat" : 33.1934582,
                  "lng" : 71.54407379999999
               },
               "southwest" : {
                  "lat" : 33.1807891,
                  "lng" : 71.53191799999999
               }
            },
            "location" : {
               "lat" : 33.1858129,
               "lng" : 71.5397394
            },
            "location_type" : "GEOMETRIC_CENTER",
            "viewport" : {
               "northeast" : {
                  "lat" : 33.1934582,
                  "lng" : 71.54407379999999
               },
               "southwest" : {
                  "lat" : 33.1807891,
                  "lng" : 71.53191799999999
               }
            }
         },
         "types" : [ "route" ]
      },
      {
         "address_components" : [
            {
               "long_name" : "Darga Road",
               "short_name" : "Darga Rd",
               "types" : [ "route" ]
            },
            {
               "long_name" : "Mianwali District",
               "short_name" : "Mianwali District",
               "types" : [ "administrative_area_level_2", "political" ]
            },
            {
               "long_name" : "Punjab",
               "short_name" : "Punjab",
               "types" : [ "administrative_area_level_1", "political" ]
            },
            {
               "long_name" : "Pakistan",
               "short_name" : "PK",
               "types" : [ "country", "political" ]
            }
         ],
         "formatted_address" : "Darga Road, Pakistan",
         "geometry" : {
            "bounds" : {
               "northeast" : {
                  "lat" : 33.1905038,
                  "lng" : 71.54407379999999
               },
               "southwest" : {
                  "lat" : 33.1806815,
                  "lng" : 71.53160459999999
               }
            },
            "location" : {
               "lat" : 33.1850542,
               "lng" : 71.5391654
            },
            "location_type" : "GEOMETRIC_CENTER",
            "viewport" : {
               "northeast" : {
                  "lat" : 33.1905038,
                  "lng" : 71.54407379999999
               },
               "southwest" : {
                  "lat" : 33.1806815,
                  "lng" : 71.53160459999999
               }
            }
         },
         "types" : [ "route" ]
      },
      {
         "address_components" : [
            {
               "long_name" : "Dhargha Road",
               "short_name" : "Dhargha Rd",
               "types" : [ "route" ]
            },
            {
               "long_name" : "Madhumati Colony",
               "short_name" : "Madhumati Colony",
               "types" : [ "sublocality_level_1", "sublocality", "political" ]
            },
            {
               "long_name" : "Navsari",
               "short_name" : "Navsari",
               "types" : [ "locality", "political" ]
            },
            {
               "long_name" : "Navsari",
               "short_name" : "Navsari",
               "types" : [ "administrative_area_level_2", "political" ]
            },
            {
               "long_name" : "Gujarat",
               "short_name" : "GJ",
               "types" : [ "administrative_area_level_1", "political" ]
            },
            {
               "long_name" : "India",
               "short_name" : "IN",
               "types" : [ "country", "political" ]
            },
            {
               "long_name" : "396445",
               "short_name" : "396445",
               "types" : [ "postal_code" ]
            }
         ],
         "formatted_address" : "Dhargha Road, Madhumati Colony, Navsari, Gujarat 396445, India",
         "geometry" : {
            "bounds" : {
               "northeast" : {
                  "lat" : 20.9522709,
                  "lng" : 72.9327035
               },
               "southwest" : {
                  "lat" : 20.9459482,
                  "lng" : 72.93144239999999
               }
            },
            "location" : {
               "lat" : 20.9489638,
               "lng" : 72.93254480000002
            },
            "location_type" : "GEOMETRIC_CENTER",
            "viewport" : {
               "northeast" : {
                  "lat" : 20.9522709,
                  "lng" : 72.9334219302915
               },
               "southwest" : {
                  "lat" : 20.9459482,
                  "lng" : 72.9307239697085
               }
            }
         },
         "types" : [ "route" ]
      },
      {
         "address_components" : [
            {
               "long_name" : "Darga Road",
               "short_name" : "Darga Rd",
               "types" : [ "route" ]
            },
            {
               "long_name" : "Penukonda",
               "short_name" : "Penukonda",
               "types" : [ "locality", "political" ]
            },
            {
               "long_name" : "Anantapuram",
               "short_name" : "Anantapuram",
               "types" : [ "administrative_area_level_2", "political" ]
            },
            {
               "long_name" : "Andhra Pradesh",
               "short_name" : "AP",
               "types" : [ "administrative_area_level_1", "political" ]
            },
            {
               "long_name" : "India",
               "short_name" : "IN",
               "types" : [ "country", "political" ]
            },
            {
               "long_name" : "515110",
               "short_name" : "515110",
               "types" : [ "postal_code" ]
            }
         ],
         "formatted_address" : "Darga Road, Penukonda, Andhra Pradesh 515110, India",
         "geometry" : {
            "bounds" : {
               "northeast" : {
                  "lat" : 14.085164,
                  "lng" : 77.6003743
               },
               "southwest" : {
                  "lat" : 14.0833953,
                  "lng" : 77.5951469
               }
            },
            "location" : {
               "lat" : 14.0845345,
               "lng" : 77.59795369999999
            },
            "location_type" : "GEOMETRIC_CENTER",
            "viewport" : {
               "northeast" : {
                  "lat" : 14.0856286302915,
                  "lng" : 77.6003743
               },
               "southwest" : {
                  "lat" : 14.0829306697085,
                  "lng" : 77.5951469
               }
            }
         },
         "types" : [ "route" ]
      },
      {
         "address_components" : [
            {
               "long_name" : "Darga Road",
               "short_name" : "Darga Rd",
               "types" : [ "route" ]
            },
            {
               "long_name" : "Guruvar Peth",
               "short_name" : "Guruvar Peth",
               "types" : [ "sublocality_level_1", "sublocality", "political" ]
            },
            {
               "long_name" : "Miraj",
               "short_name" : "Miraj",
               "types" : [ "locality", "political" ]
            },
            {
               "long_name" : "Sangli",
               "short_name" : "Sangli",
               "types" : [ "administrative_area_level_2", "political" ]
            },
            {
               "long_name" : "Maharashtra",
               "short_name" : "MH",
               "types" : [ "administrative_area_level_1", "political" ]
            },
            {
               "long_name" : "India",
               "short_name" : "IN",
               "types" : [ "country", "political" ]
            },
            {
               "long_name" : "416410",
               "short_name" : "416410",
               "types" : [ "postal_code" ]
            }
         ],
         "formatted_address" : "Darga Road, Guruvar Peth, Miraj, Maharashtra 416410, India",
         "geometry" : {
            "bounds" : {
               "northeast" : {
                  "lat" : 16.8215019,
                  "lng" : 74.6494589
               },
               "southwest" : {
                  "lat" : 16.8194662,
                  "lng" : 74.6456462
               }
            },
            "location" : {
               "lat" : 16.8204457,
               "lng" : 74.6473798
            },
            "location_type" : "GEOMETRIC_CENTER",
            "viewport" : {
               "northeast" : {
                  "lat" : 16.8218330302915,
                  "lng" : 74.6494589
               },
               "southwest" : {
                  "lat" : 16.8191350697085,
                  "lng" : 74.6456462
               }
            }
         },
         "types" : [ "route" ]
      },
      {
         "address_components" : [
            {
               "long_name" : "Dharga Road",
               "short_name" : "Dharga Rd",
               "types" : [ "route" ]
            },
            {
               "long_name" : "Tirusulam",
               "short_name" : "Tirusulam",
               "types" : [ "sublocality_level_1", "sublocality", "political" ]
            },
            {
               "long_name" : "Chennai",
               "short_name" : "Chennai",
               "types" : [ "locality", "political" ]
            },
            {
               "long_name" : "Kanchipuram",
               "short_name" : "Kanchipuram",
               "types" : [ "administrative_area_level_2", "political" ]
            },
            {
               "long_name" : "Tamil Nadu",
               "short_name" : "TN",
               "types" : [ "administrative_area_level_1", "political" ]
            },
            {
               "long_name" : "India",
               "short_name" : "IN",
               "types" : [ "country", "political" ]
            },
            {
               "long_name" : "600043",
               "short_name" : "600043",
               "types" : [ "postal_code" ]
            }
         ],
         "formatted_address" : "Dharga Road, Tirusulam, Chennai, Tamil Nadu 600043, India",
         "geometry" : {
            "bounds" : {
               "northeast" : {
                  "lat" : 12.9633997,
                  "lng" : 80.17477909999999
               },
               "southwest" : {
                  "lat" : 12.9620511,
                  "lng" : 80.1707162
               }
            },
            "location" : {
               "lat" : 12.9627323,
               "lng" : 80.17361029999999
            },
            "location_type" : "GEOMETRIC_CENTER",
            "viewport" : {
               "northeast" : {
                  "lat" : 12.9640743802915,
                  "lng" : 80.17477909999999
               },
               "southwest" : {
                  "lat" : 12.9613764197085,
                  "lng" : 80.1707162
               }
            }
         },
         "types" : [ "route" ]
      },
      {
         "address_components" : [
            {
               "long_name" : "Zenda Chowk Road",
               "short_name" : "Zenda Chowk Rd",
               "types" : [ "route" ]
            },
            {
               "long_name" : "Khajipura",
               "short_name" : "Khajipura",
               "types" : [ "sublocality_level_1", "sublocality", "political" ]
            },
            {
               "long_name" : "Basmat",
               "short_name" : "Basmat",
               "types" : [ "locality", "political" ]
            },
            {
               "long_name" : "Hingoli",
               "short_name" : "Hingoli",
               "types" : [ "administrative_area_level_2", "political" ]
            },
            {
               "long_name" : "Maharashtra",
               "short_name" : "MH",
               "types" : [ "administrative_area_level_1", "political" ]
            },
            {
               "long_name" : "India",
               "short_name" : "IN",
               "types" : [ "country", "political" ]
            },
            {
               "long_name" : "431512",
               "short_name" : "431512",
               "types" : [ "postal_code" ]
            }
         ],
         "formatted_address" : "Zenda Chowk Road, Khajipura, Basmat, Maharashtra 431512, India",
         "geometry" : {
            "bounds" : {
               "northeast" : {
                  "lat" : 19.3280364,
                  "lng" : 77.1609768
               },
               "southwest" : {
                  "lat" : 19.3273176,
                  "lng" : 77.1580156
               }
            },
            "location" : {
               "lat" : 19.3277326,
               "lng" : 77.15962490000001
            },
            "location_type" : "GEOMETRIC_CENTER",
            "viewport" : {
               "northeast" : {
                  "lat" : 19.3290259802915,
                  "lng" : 77.1609768
               },
               "southwest" : {
                  "lat" : 19.3263280197085,
                  "lng" : 77.1580156
               }
            }
         },
         "types" : [ "route" ]
      },
      {
         "address_components" : [
            {
               "long_name" : "Krushi Office Road",
               "short_name" : "Krushi Office Rd",
               "types" : [ "route" ]
            },
            {
               "long_name" : "Sironcha",
               "short_name" : "Sironcha",
               "types" : [ "locality", "political" ]
            },
            {
               "long_name" : "Gadchiroli",
               "short_name" : "Gadchiroli",
               "types" : [ "administrative_area_level_2", "political" ]
            },
            {
               "long_name" : "Andhra Pradesh",
               "short_name" : "AP",
               "types" : [ "administrative_area_level_1", "political" ]
            },
            {
               "long_name" : "India",
               "short_name" : "IN",
               "types" : [ "country", "political" ]
            },
            {
               "long_name" : "442504",
               "short_name" : "442504",
               "types" : [ "postal_code" ]
            }
         ],
         "formatted_address" : "Krushi Office Road, Sironcha, Andhra Pradesh 442504, India",
         "geometry" : {
            "bounds" : {
               "northeast" : {
                  "lat" : 18.8495713,
                  "lng" : 79.96119759999999
               },
               "southwest" : {
                  "lat" : 18.8491567,
                  "lng" : 79.9582762
               }
            },
            "location" : {
               "lat" : 18.8492532,
               "lng" : 79.95978889999999
            },
            "location_type" : "GEOMETRIC_CENTER",
            "viewport" : {
               "northeast" : {
                  "lat" : 18.8507129802915,
                  "lng" : 79.96119759999999
               },
               "southwest" : {
                  "lat" : 18.8480150197085,
                  "lng" : 79.9582762
               }
            }
         },
         "types" : [ "route" ]
      },
      {
         "address_components" : [
            {
               "long_name" : "Dargha Road",
               "short_name" : "Dargha Rd",
               "types" : [ "route" ]
            },
            {
               "long_name" : "Mehrauli Village",
               "short_name" : "Mehrauli Village",
               "types" : [ "sublocality_level_2", "sublocality", "political" ]
            },
            {
               "long_name" : "Mehrauli",
               "short_name" : "Mehrauli",
               "types" : [ "sublocality_level_1", "sublocality", "political" ]
            },
            {
               "long_name" : "New Delhi",
               "short_name" : "New Delhi",
               "types" : [ "locality", "political" ]
            },
            {
               "long_name" : "South Delhi",
               "short_name" : "South Delhi",
               "types" : [ "administrative_area_level_2", "political" ]
            },
            {
               "long_name" : "Delhi",
               "short_name" : "DL",
               "types" : [ "administrative_area_level_1", "political" ]
            },
            {
               "long_name" : "India",
               "short_name" : "IN",
               "types" : [ "country", "political" ]
            },
            {
               "long_name" : "110016",
               "short_name" : "110016",
               "types" : [ "postal_code" ]
            }
         ],
         "formatted_address" : "Dargha Road, Mehrauli Village, Mehrauli, New Delhi, Delhi 110016, India",
         "geometry" : {
            "bounds" : {
               "northeast" : {
                  "lat" : 28.5224867,
                  "lng" : 77.1819311
               },
               "southwest" : {
                  "lat" : 28.5205637,
                  "lng" : 77.1812127
               }
            },
            "location" : {
               "lat" : 28.521523,
               "lng" : 77.18159129999999
            },
            "location_type" : "GEOMETRIC_CENTER",
            "viewport" : {
               "northeast" : {
                  "lat" : 28.52287418029151,
                  "lng" : 77.18292088029149
               },
               "southwest" : {
                  "lat" : 28.5201762197085,
                  "lng" : 77.18022291970848
               }
            }
         },
         "types" : [ "route" ]
      },
      {
         "address_components" : [
            {
               "long_name" : "Dharga Road",
               "short_name" : "Dharga Rd",
               "types" : [ "route" ]
            },
            {
               "long_name" : "North Soorankudy",
               "short_name" : "North Soorankudy",
               "types" : [ "neighborhood", "political" ]
            },
            {
               "long_name" : "Dharmapuram",
               "short_name" : "Dharmapuram",
               "types" : [ "locality", "political" ]
            },
            {
               "long_name" : "Kanyakumari",
               "short_name" : "Kanyakumari",
               "types" : [ "administrative_area_level_2", "political" ]
            },
            {
               "long_name" : "Tamil Nadu",
               "short_name" : "TN",
               "types" : [ "administrative_area_level_1", "political" ]
            },
            {
               "long_name" : "India",
               "short_name" : "IN",
               "types" : [ "country", "political" ]
            },
            {
               "long_name" : "629501",
               "short_name" : "629501",
               "types" : [ "postal_code" ]
            }
         ],
         "formatted_address" : "Dharga Road, North Soorankudy, Dharmapuram, Tamil Nadu 629501, India",
         "geometry" : {
            "bounds" : {
               "northeast" : {
                  "lat" : 8.1447766,
                  "lng" : 77.41865129999999
               },
               "southwest" : {
                  "lat" : 8.1445607,
                  "lng" : 77.41557399999999
               }
            },
            "location" : {
               "lat" : 8.1446884,
               "lng" : 77.4170931
            },
            "location_type" : "GEOMETRIC_CENTER",
            "viewport" : {
               "northeast" : {
                  "lat" : 8.146017630291503,
                  "lng" : 77.41865129999999
               },
               "southwest" : {
                  "lat" : 8.143319669708498,
                  "lng" : 77.41557399999999
               }
            }
         },
         "types" : [ "route" ]
      },
      {
         "address_components" : [
            {
               "long_name" : "Dargha Road",
               "short_name" : "Dargha Rd",
               "types" : [ "route" ]
            },
            {
               "long_name" : "Chinnasandra",
               "short_name" : "Chinnasandra",
               "types" : [ "locality", "political" ]
            },
            {
               "long_name" : "Chikballapur",
               "short_name" : "Chikballapur",
               "types" : [ "administrative_area_level_2", "political" ]
            },
            {
               "long_name" : "Karnataka",
               "short_name" : "KA",
               "types" : [ "administrative_area_level_1", "political" ]
            },
            {
               "long_name" : "India",
               "short_name" : "IN",
               "types" : [ "country", "political" ]
            },
            {
               "long_name" : "563125",
               "short_name" : "563125",
               "types" : [ "postal_code" ]
            }
         ],
         "formatted_address" : "Dargha Road, Chinnasandra, Karnataka 563125, India",
         "geometry" : {
            "bounds" : {
               "northeast" : {
                  "lat" : 13.3581568,
                  "lng" : 78.033514
               },
               "southwest" : {
                  "lat" : 13.3558575,
                  "lng" : 78.0334216
               }
            },
            "location" : {
               "lat" : 13.3560973,
               "lng" : 78.03347219999999
            },
            "location_type" : "GEOMETRIC_CENTER",
            "viewport" : {
               "northeast" : {
                  "lat" : 13.3583561302915,
                  "lng" : 78.03481678029151
               },
               "southwest" : {
                  "lat" : 13.3556581697085,
                  "lng" : 78.03211881970849
               }
            }
         },
         "types" : [ "route" ]
      },
      {
         "address_components" : [
            {
               "long_name" : "Darga Road",
               "short_name" : "Darga Road",
               "types" : [ "route" ]
            },
            {
               "long_name" : "Gudur",
               "short_name" : "Gudur",
               "types" : [ "locality", "political" ]
            },
            {
               "long_name" : "Nellore",
               "short_name" : "Nellore",
               "types" : [ "administrative_area_level_2", "political" ]
            },
            {
               "long_name" : "Andhra Pradesh",
               "short_name" : "AP",
               "types" : [ "administrative_area_level_1", "political" ]
            },
            {
               "long_name" : "India",
               "short_name" : "IN",
               "types" : [ "country", "political" ]
            },
            {
               "long_name" : "524101",
               "short_name" : "524101",
               "types" : [ "postal_code" ]
            }
         ],
         "formatted_address" : "Darga Road, Gudur, Andhra Pradesh 524101, India",
         "geometry" : {
            "bounds" : {
               "northeast" : {
                  "lat" : 14.1504476,
                  "lng" : 79.85191069999999
               },
               "southwest" : {
                  "lat" : 14.1502642,
                  "lng" : 79.85076459999999
               }
            },
            "location" : {
               "lat" : 14.1504055,
               "lng" : 79.85138260000001
            },
            "location_type" : "GEOMETRIC_CENTER",
            "viewport" : {
               "northeast" : {
                  "lat" : 14.1517048802915,
                  "lng" : 79.85268663029149
               },
               "southwest" : {
                  "lat" : 14.1490069197085,
                  "lng" : 79.84998866970848
               }
            }
         },
         "types" : [ "route" ]
      },
      {
         "address_components" : [
            {
               "long_name" : "Dargha Road",
               "short_name" : "Dargha Rd",
               "types" : [ "route" ]
            },
            {
               "long_name" : "Amalsad",
               "short_name" : "Amalsad",
               "types" : [ "locality", "political" ]
            },
            {
               "long_name" : "Navsari",
               "short_name" : "Navsari",
               "types" : [ "administrative_area_level_2", "political" ]
            },
            {
               "long_name" : "Gujarat",
               "short_name" : "GJ",
               "types" : [ "administrative_area_level_1", "political" ]
            },
            {
               "long_name" : "India",
               "short_name" : "IN",
               "types" : [ "country", "political" ]
            },
            {
               "long_name" : "396370",
               "short_name" : "396370",
               "types" : [ "postal_code" ]
            }
         ],
         "formatted_address" : "Dargha Road, Amalsad, Gujarat 396370, India",
         "geometry" : {
            "bounds" : {
               "northeast" : {
                  "lat" : 20.8164749,
                  "lng" : 72.9553999
               },
               "southwest" : {
                  "lat" : 20.8140399,
                  "lng" : 72.9546395
               }
            },
            "location" : {
               "lat" : 20.8151461,
               "lng" : 72.9551089
            },
            "location_type" : "GEOMETRIC_CENTER",
            "viewport" : {
               "northeast" : {
                  "lat" : 20.8166063802915,
                  "lng" : 72.9563686802915
               },
               "southwest" : {
                  "lat" : 20.8139084197085,
                  "lng" : 72.9536707197085
               }
            }
         },
         "types" : [ "route" ]
      },
      {
         "address_components" : [
            {
               "long_name" : "Darga Road",
               "short_name" : "Darga Road",
               "types" : [ "route" ]
            },
            {
               "long_name" : "Rayachoty",
               "short_name" : "Rayachoty",
               "types" : [ "locality", "political" ]
            },
            {
               "long_name" : "Kadapa",
               "short_name" : "Kadapa",
               "types" : [ "administrative_area_level_2", "political" ]
            },
            {
               "long_name" : "Andhra Pradesh",
               "short_name" : "AP",
               "types" : [ "administrative_area_level_1", "political" ]
            },
            {
               "long_name" : "India",
               "short_name" : "IN",
               "types" : [ "country", "political" ]
            },
            {
               "long_name" : "516270",
               "short_name" : "516270",
               "types" : [ "postal_code" ]
            }
         ],
         "formatted_address" : "Darga Road, Rayachoty, Andhra Pradesh 516270, India",
         "geometry" : {
            "bounds" : {
               "northeast" : {
                  "lat" : 14.0648094,
                  "lng" : 78.74960899999999
               },
               "southwest" : {
                  "lat" : 14.0639244,
                  "lng" : 78.7466338
               }
            },
            "location" : {
               "lat" : 14.0645882,
               "lng" : 78.74801789999999
            },
            "location_type" : "GEOMETRIC_CENTER",
            "viewport" : {
               "northeast" : {
                  "lat" : 14.0657158802915,
                  "lng" : 78.74960899999999
               },
               "southwest" : {
                  "lat" : 14.0630179197085,
                  "lng" : 78.7466338
               }
            }
         },
         "types" : [ "route" ]
      },
      {
         "address_components" : [
            {
               "long_name" : "Dharga Road",
               "short_name" : "Dharga Rd",
               "types" : [ "route" ]
            },
            {
               "long_name" : "Chennai",
               "short_name" : "Chennai",
               "types" : [ "locality", "political" ]
            },
            {
               "long_name" : "Chennai",
               "short_name" : "Chennai",
               "types" : [ "administrative_area_level_2", "political" ]
            },
            {
               "long_name" : "Tamil Nadu",
               "short_name" : "TN",
               "types" : [ "administrative_area_level_1", "political" ]
            },
            {
               "long_name" : "India",
               "short_name" : "IN",
               "types" : [ "country", "political" ]
            },
            {
               "long_name" : "600012",
               "short_name" : "600012",
               "types" : [ "postal_code" ]
            }
         ],
         "formatted_address" : "Dharga Road, Chennai, Tamil Nadu 600012, India",
         "geometry" : {
            "bounds" : {
               "northeast" : {
                  "lat" : 13.0992418,
                  "lng" : 80.2552317
               },
               "southwest" : {
                  "lat" : 13.0976381,
                  "lng" : 80.25433009999999
               }
            },
            "location" : {
               "lat" : 13.0985688,
               "lng" : 80.25474299999999
            },
            "location_type" : "GEOMETRIC_CENTER",
            "viewport" : {
               "northeast" : {
                  "lat" : 13.0997889302915,
                  "lng" : 80.2561298802915
               },
               "southwest" : {
                  "lat" : 13.0970909697085,
                  "lng" : 80.25343191970849
               }
            }
         },
         "types" : [ "route" ]
      },
      {
         "address_components" : [
            {
               "long_name" : "Dargha Road",
               "short_name" : "Dargha Rd",
               "types" : [ "route" ]
            },
            {
               "long_name" : "Lakhisarai",
               "short_name" : "Lakhisarai",
               "types" : [ "locality", "political" ]
            },
            {
               "long_name" : "Lakhisarai",
               "short_name" : "Lakhisarai",
               "types" : [ "administrative_area_level_2", "political" ]
            },
            {
               "long_name" : "Bihar",
               "short_name" : "BR",
               "types" : [ "administrative_area_level_1", "political" ]
            },
            {
               "long_name" : "India",
               "short_name" : "IN",
               "types" : [ "country", "political" ]
            },
            {
               "long_name" : "811311",
               "short_name" : "811311",
               "types" : [ "postal_code" ]
            }
         ],
         "formatted_address" : "Dargha Road, Lakhisarai, Bihar 811311, India",
         "geometry" : {
            "bounds" : {
               "northeast" : {
                  "lat" : 25.1818944,
                  "lng" : 86.09660439999999
               },
               "southwest" : {
                  "lat" : 25.179854,
                  "lng" : 86.0956829
               }
            },
            "location" : {
               "lat" : 25.1807775,
               "lng" : 86.09598749999999
            },
            "location_type" : "GEOMETRIC_CENTER",
            "viewport" : {
               "northeast" : {
                  "lat" : 25.1822231802915,
                  "lng" : 86.0974926302915
               },
               "southwest" : {
                  "lat" : 25.1795252197085,
                  "lng" : 86.09479466970848
               }
            }
         },
         "types" : [ "route" ]
      },
      {
         "address_components" : [
            {
               "long_name" : "Dargha Road",
               "short_name" : "Dargha Rd",
               "types" : [ "route" ]
            },
            {
               "long_name" : "Tetavli",
               "short_name" : "Tetavli",
               "types" : [ "sublocality_level_3", "sublocality", "political" ]
            },
            {
               "long_name" : "Kausa",
               "short_name" : "Kausa",
               "types" : [ "sublocality_level_2", "sublocality", "political" ]
            },
            {
               "long_name" : "Mumbra",
               "short_name" : "Mumbra",
               "types" : [ "sublocality_level_1", "sublocality", "political" ]
            },
            {
               "long_name" : "Thane",
               "short_name" : "Thane",
               "types" : [ "locality", "political" ]
            },
            {
               "long_name" : "Thane",
               "short_name" : "Thane",
               "types" : [ "administrative_area_level_2", "political" ]
            },
            {
               "long_name" : "Maharashtra",
               "short_name" : "MH",
               "types" : [ "administrative_area_level_1", "political" ]
            },
            {
               "long_name" : "India",
               "short_name" : "IN",
               "types" : [ "country", "political" ]
            },
            {
               "long_name" : "400612",
               "short_name" : "400612",
               "types" : [ "postal_code" ]
            }
         ],
         "formatted_address" : "Dargha Road, Tetavli, Kausa, Mumbra, Thane, Maharashtra 400612, India",
         "geometry" : {
            "bounds" : {
               "northeast" : {
                  "lat" : 19.1695242,
                  "lng" : 73.02476009999999
               },
               "southwest" : {
                  "lat" : 19.1687584,
                  "lng" : 73.0234129
               }
            },
            "location" : {
               "lat" : 19.1691675,
               "lng" : 73.0239687
            },
            "location_type" : "GEOMETRIC_CENTER",
            "viewport" : {
               "northeast" : {
                  "lat" : 19.1704902802915,
                  "lng" : 73.02543548029151
               },
               "southwest" : {
                  "lat" : 19.1677923197085,
                  "lng" : 73.0227375197085
               }
            }
         },
         "types" : [ "route" ]
      },
      {
         "address_components" : [
            {
               "long_name" : "Darga Road",
               "short_name" : "Darga Rd",
               "types" : [ "route" ]
            },
            {
               "long_name" : "Dargahpara",
               "short_name" : "Dargahpara",
               "types" : [ "sublocality_level_1", "sublocality", "political" ]
            },
            {
               "long_name" : "Rajshahi",
               "short_name" : "Rajshahi",
               "types" : [ "locality", "political" ]
            },
            {
               "long_name" : "Rajshahi",
               "short_name" : "Rajshahi",
               "types" : [ "administrative_area_level_2", "political" ]
            },
            {
               "long_name" : "Rajshahi Division",
               "short_name" : "Rajshahi Division",
               "types" : [ "administrative_area_level_1", "political" ]
            },
            {
               "long_name" : "Bangladesh",
               "short_name" : "BD",
               "types" : [ "country", "political" ]
            }
         ],
         "formatted_address" : "Darga Road, Rajshahi, Bangladesh",
         "geometry" : {
            "bounds" : {
               "northeast" : {
                  "lat" : 24.3646017,
                  "lng" : 88.5904968
               },
               "southwest" : {
                  "lat" : 24.3641896,
                  "lng" : 88.58916429999999
               }
            },
            "location" : {
               "lat" : 24.3643334,
               "lng" : 88.58976330000002
            },
            "location_type" : "GEOMETRIC_CENTER",
            "viewport" : {
               "northeast" : {
                  "lat" : 24.3657446302915,
                  "lng" : 88.5911795302915
               },
               "southwest" : {
                  "lat" : 24.3630466697085,
                  "lng" : 88.58848156970848
               }
            }
         },
         "types" : [ "route" ]
      },
      {
         "address_components" : [
            {
               "long_name" : "East Darga Road",
               "short_name" : "E Darga Rd",
               "types" : [ "route" ]
            },
            {
               "long_name" : "Cedar",
               "short_name" : "Cedar",
               "types" : [ "locality", "political" ]
            },
            {
               "long_name" : "Kasson",
               "short_name" : "Kasson",
               "types" : [ "administrative_area_level_3", "political" ]
            },
            {
               "long_name" : "Leelanau County",
               "short_name" : "Leelanau County",
               "types" : [ "administrative_area_level_2", "political" ]
            },
            {
               "long_name" : "Michigan",
               "short_name" : "MI",
               "types" : [ "administrative_area_level_1", "political" ]
            },
            {
               "long_name" : "United States",
               "short_name" : "US",
               "types" : [ "country", "political" ]
            },
            {
               "long_name" : "49621",
               "short_name" : "49621",
               "types" : [ "postal_code" ]
            }
         ],
         "formatted_address" : "East Darga Road, Cedar, MI 49621, USA",
         "geometry" : {
            "bounds" : {
               "northeast" : {
                  "lat" : 44.8545921,
                  "lng" : -85.8133792
               },
               "southwest" : {
                  "lat" : 44.8496762,
                  "lng" : -85.83393049999999
               }
            },
            "location" : {
               "lat" : 44.852381,
               "lng" : -85.8237925
            },
            "location_type" : "GEOMETRIC_CENTER",
            "viewport" : {
               "northeast" : {
                  "lat" : 44.8545921,
                  "lng" : -85.8133792
               },
               "southwest" : {
                  "lat" : 44.8496762,
                  "lng" : -85.83393049999999
               }
            }
         },
         "partial_match" : true,
         "types" : [ "route" ]
      },
      {
         "address_components" : [
            {
               "long_name" : "Darga Road",
               "short_name" : "Darga Rd",
               "types" : [ "route" ]
            },
            {
               "long_name" : "Warud Bk.",
               "short_name" : "Warud Bk.",
               "types" : [ "locality", "political" ]
            },
            {
               "long_name" : "Jalna",
               "short_name" : "Jalna",
               "types" : [ "administrative_area_level_2", "political" ]
            },
            {
               "long_name" : "Maharashtra",
               "short_name" : "MH",
               "types" : [ "administrative_area_level_1", "political" ]
            },
            {
               "long_name" : "India",
               "short_name" : "IN",
               "types" : [ "country", "political" ]
            },
            {
               "long_name" : "431206",
               "short_name" : "431206",
               "types" : [ "postal_code" ]
            }
         ],
         "formatted_address" : "Darga Road, Warud Bk., Maharashtra 431206, India",
         "geometry" : {
            "bounds" : {
               "northeast" : {
                  "lat" : 20.2570266,
                  "lng" : 76.12820619999999
               },
               "southwest" : {
                  "lat" : 20.2569476,
                  "lng" : 76.12770309999999
               }
            },
            "location" : {
               "lat" : 20.2569889,
               "lng" : 76.12793719999999
            },
            "location_type" : "GEOMETRIC_CENTER",
            "viewport" : {
               "northeast" : {
                  "lat" : 20.25833608029151,
                  "lng" : 76.1293036302915
               },
               "southwest" : {
                  "lat" : 20.2556381197085,
                  "lng" : 76.1266056697085
               }
            }
         },
         "types" : [ "route" ]
      }
   ],
   "status" : "OK"
}
