{
   "results" : [
      {
         "address_components" : [
            {
               "long_name" : "PWD Road",
               "short_name" : "PWD Rd",
               "types" : [ "route" ]
            },
            {
               "long_name" : "West Bengal",
               "short_name" : "WB",
               "types" : [ "administrative_area_level_1", "political" ]
            },
            {
               "long_name" : "India",
               "short_name" : "IN",
               "types" : [ "country", "political" ]
            }
         ],
         "formatted_address" : "PWD Road, West Bengal, India",
         "geometry" : {
            "bounds" : {
               "northeast" : {
                  "lat" : 22.6572214,
                  "lng" : 88.37733469999999
               },
               "southwest" : {
                  "lat" : 22.651397,
                  "lng" : 88.3159543
               }
            },
            "location" : {
               "lat" : 22.6525328,
               "lng" : 88.3466749
            },
            "location_type" : "GEOMETRIC_CENTER",
            "viewport" : {
               "northeast" : {
                  "lat" : 22.6572214,
                  "lng" : 88.37733469999999
               },
               "southwest" : {
                  "lat" : 22.651397,
                  "lng" : 88.3159543
               }
            }
         },
         "types" : [ "route" ]
      },
      {
         "address_components" : [
            {
               "long_name" : "PWD Road",
               "short_name" : "PWD Rd",
               "types" : [ "route" ]
            },
            {
               "long_name" : "Jalpaiguri",
               "short_name" : "Jalpaiguri",
               "types" : [ "administrative_area_level_2", "political" ]
            },
            {
               "long_name" : "West Bengal",
               "short_name" : "WB",
               "types" : [ "administrative_area_level_1", "political" ]
            },
            {
               "long_name" : "India",
               "short_name" : "IN",
               "types" : [ "country", "political" ]
            },
            {
               "long_name" : "735224",
               "short_name" : "735224",
               "types" : [ "postal_code" ]
            }
         ],
         "formatted_address" : "PWD Road, West Bengal 735224, India",
         "geometry" : {
            "bounds" : {
               "northeast" : {
                  "lat" : 26.556437,
                  "lng" : 88.92456349999999
               },
               "southwest" : {
                  "lat" : 26.4886095,
                  "lng" : 88.91141039999999
               }
            },
            "location" : {
               "lat" : 26.523556,
               "lng" : 88.9239085
            },
            "location_type" : "GEOMETRIC_CENTER",
            "viewport" : {
               "northeast" : {
                  "lat" : 26.556437,
                  "lng" : 88.92456349999999
               },
               "southwest" : {
                  "lat" : 26.4886095,
                  "lng" : 88.91141039999999
               }
            }
         },
         "types" : [ "route" ]
      },
      {
         "address_components" : [
            {
               "long_name" : "PWD Road",
               "short_name" : "PWD Rd",
               "types" : [ "route" ]
            },
            {
               "long_name" : "Satkhamar",
               "short_name" : "Satkhamar",
               "types" : [ "locality", "political" ]
            },
            {
               "long_name" : "Jalpaiguri",
               "short_name" : "Jalpaiguri",
               "types" : [ "administrative_area_level_2", "political" ]
            },
            {
               "long_name" : "West Bengal",
               "short_name" : "WB",
               "types" : [ "administrative_area_level_1", "political" ]
            },
            {
               "long_name" : "India",
               "short_name" : "IN",
               "types" : [ "country", "political" ]
            },
            {
               "long_name" : "735133",
               "short_name" : "735133",
               "types" : [ "postal_code" ]
            }
         ],
         "formatted_address" : "PWD Road, Satkhamar, West Bengal 735133, India",
         "geometry" : {
            "bounds" : {
               "northeast" : {
                  "lat" : 26.5464087,
                  "lng" : 88.6091661
               },
               "southwest" : {
                  "lat" : 26.4847045,
                  "lng" : 88.60293730000001
               }
            },
            "location" : {
               "lat" : 26.5153576,
               "lng" : 88.6067963
            },
            "location_type" : "GEOMETRIC_CENTER",
            "viewport" : {
               "northeast" : {
                  "lat" : 26.5464087,
                  "lng" : 88.6091661
               },
               "southwest" : {
                  "lat" : 26.4847045,
                  "lng" : 88.60293730000001
               }
            }
         },
         "types" : [ "route" ]
      },
      {
         "address_components" : [
            {
               "long_name" : "Dunlop Flyover",
               "short_name" : "Dunlop Flyover",
               "types" : [ "route" ]
            },
            {
               "long_name" : "Dunlop",
               "short_name" : "Dunlop",
               "types" : [ "neighborhood", "political" ]
            },
            {
               "long_name" : "Kolkata",
               "short_name" : "Kolkata",
               "types" : [ "locality", "political" ]
            },
            {
               "long_name" : "North 24 Parganas",
               "short_name" : "North 24 Parganas",
               "types" : [ "administrative_area_level_2", "political" ]
            },
            {
               "long_name" : "West Bengal",
               "short_name" : "WB",
               "types" : [ "administrative_area_level_1", "political" ]
            },
            {
               "long_name" : "India",
               "short_name" : "IN",
               "types" : [ "country", "political" ]
            },
            {
               "long_name" : "700108",
               "short_name" : "700108",
               "types" : [ "postal_code" ]
            }
         ],
         "formatted_address" : "Dunlop Flyover, Dunlop, Kolkata, West Bengal 700108, India",
         "geometry" : {
            "bounds" : {
               "northeast" : {
                  "lat" : 22.6526465,
                  "lng" : 88.37754079999999
               },
               "southwest" : {
                  "lat" : 22.6491109,
                  "lng" : 88.373655
               }
            },
            "location" : {
               "lat" : 22.6523751,
               "lng" : 88.3758421
            },
            "location_type" : "GEOMETRIC_CENTER",
            "viewport" : {
               "northeast" : {
                  "lat" : 22.6526465,
                  "lng" : 88.37754079999999
               },
               "southwest" : {
                  "lat" : 22.6491109,
                  "lng" : 88.373655
               }
            }
         },
         "types" : [ "route" ]
      },
      {
         "address_components" : [
            {
               "long_name" : "PWD Road",
               "short_name" : "PWD Road",
               "types" : [ "route" ]
            },
            {
               "long_name" : "Thrissur",
               "short_name" : "TSR",
               "types" : [ "administrative_area_level_2", "political" ]
            },
            {
               "long_name" : "Kerala",
               "short_name" : "KL",
               "types" : [ "administrative_area_level_1", "political" ]
            },
            {
               "long_name" : "India",
               "short_name" : "IN",
               "types" : [ "country", "political" ]
            },
            {
               "long_name" : "680123",
               "short_name" : "680123",
               "types" : [ "postal_code" ]
            }
         ],
         "formatted_address" : "PWD Road, Kerala 680123, India",
         "geometry" : {
            "bounds" : {
               "northeast" : {
                  "lat" : 10.2796552,
                  "lng" : 76.2035403
               },
               "southwest" : {
                  "lat" : 10.2599734,
                  "lng" : 76.1863097
               }
            },
            "location" : {
               "lat" : 10.2648984,
               "lng" : 76.193651
            },
            "location_type" : "GEOMETRIC_CENTER",
            "viewport" : {
               "northeast" : {
                  "lat" : 10.2796552,
                  "lng" : 76.2035403
               },
               "southwest" : {
                  "lat" : 10.2599734,
                  "lng" : 76.1863097
               }
            }
         },
         "types" : [ "route" ]
      },
      {
         "address_components" : [
            {
               "long_name" : "PWD Road",
               "short_name" : "PWD Rd",
               "types" : [ "route" ]
            },
            {
               "long_name" : "P.W.D Colony",
               "short_name" : "P.W.D Colony",
               "types" : [ "sublocality_level_1", "sublocality", "political" ]
            },
            {
               "long_name" : "Jodhpur",
               "short_name" : "Jodhpur",
               "types" : [ "locality", "political" ]
            },
            {
               "long_name" : "Jodhpur",
               "short_name" : "Jodhpur",
               "types" : [ "administrative_area_level_2", "political" ]
            },
            {
               "long_name" : "Rajasthan",
               "short_name" : "RJ",
               "types" : [ "administrative_area_level_1", "political" ]
            },
            {
               "long_name" : "India",
               "short_name" : "IN",
               "types" : [ "country", "political" ]
            },
            {
               "long_name" : "342001",
               "short_name" : "342001",
               "types" : [ "postal_code" ]
            }
         ],
         "formatted_address" : "PWD Road, P.W.D Colony, Jodhpur, Rajasthan 342001, India",
         "geometry" : {
            "bounds" : {
               "northeast" : {
                  "lat" : 26.2739441,
                  "lng" : 73.0232151
               },
               "southwest" : {
                  "lat" : 26.2702689,
                  "lng" : 73.0187699
               }
            },
            "location" : {
               "lat" : 26.2710257,
               "lng" : 73.0208755
            },
            "location_type" : "GEOMETRIC_CENTER",
            "viewport" : {
               "northeast" : {
                  "lat" : 26.2739441,
                  "lng" : 73.0232151
               },
               "southwest" : {
                  "lat" : 26.2702689,
                  "lng" : 73.0187699
               }
            }
         },
         "types" : [ "route" ]
      },
      {
         "address_components" : [
            {
               "long_name" : "PWD Road",
               "short_name" : "PWD Rd",
               "types" : [ "route" ]
            },
            {
               "long_name" : "Porur",
               "short_name" : "Porur",
               "types" : [ "locality", "political" ]
            },
            {
               "long_name" : "Malappuram",
               "short_name" : "Malappuram",
               "types" : [ "administrative_area_level_2", "political" ]
            },
            {
               "long_name" : "Kerala",
               "short_name" : "KL",
               "types" : [ "administrative_area_level_1", "political" ]
            },
            {
               "long_name" : "India",
               "short_name" : "IN",
               "types" : [ "country", "political" ]
            }
         ],
         "formatted_address" : "PWD Road, Porur, Kerala, India",
         "geometry" : {
            "bounds" : {
               "northeast" : {
                  "lat" : 11.1837493,
                  "lng" : 76.2168965
               },
               "southwest" : {
                  "lat" : 11.1565606,
                  "lng" : 76.2026846
               }
            },
            "location" : {
               "lat" : 11.1708078,
               "lng" : 76.2094706
            },
            "location_type" : "GEOMETRIC_CENTER",
            "viewport" : {
               "northeast" : {
                  "lat" : 11.1837493,
                  "lng" : 76.2168965
               },
               "southwest" : {
                  "lat" : 11.1565606,
                  "lng" : 76.2026846
               }
            }
         },
         "types" : [ "route" ]
      },
      {
         "address_components" : [
            {
               "long_name" : "P.W.D. Road",
               "short_name" : "P.W.D. Rd",
               "types" : [ "route" ]
            },
            {
               "long_name" : "Dimapur",
               "short_name" : "DMR",
               "types" : [ "locality", "political" ]
            },
            {
               "long_name" : "Dimapur",
               "short_name" : "Dimapur",
               "types" : [ "administrative_area_level_2", "political" ]
            },
            {
               "long_name" : "Nagaland",
               "short_name" : "NL",
               "types" : [ "administrative_area_level_1", "political" ]
            },
            {
               "long_name" : "India",
               "short_name" : "IN",
               "types" : [ "country", "political" ]
            },
            {
               "long_name" : "797113",
               "short_name" : "797113",
               "types" : [ "postal_code" ]
            }
         ],
         "formatted_address" : "P.W.D. Road, Dimapur, Nagaland 797113, India",
         "geometry" : {
            "bounds" : {
               "northeast" : {
                  "lat" : 25.9104929,
                  "lng" : 93.7158695
               },
               "southwest" : {
                  "lat" : 25.9089515,
                  "lng" : 93.70846519999999
               }
            },
            "location" : {
               "lat" : 25.9098237,
               "lng" : 93.7121423
            },
            "location_type" : "GEOMETRIC_CENTER",
            "viewport" : {
               "northeast" : {
                  "lat" : 25.91107118029151,
                  "lng" : 93.7158695
               },
               "southwest" : {
                  "lat" : 25.9083732197085,
                  "lng" : 93.70846519999999
               }
            }
         },
         "types" : [ "route" ]
      },
      {
         "address_components" : [
            {
               "long_name" : "PWD Road",
               "short_name" : "PWD Rd",
               "types" : [ "route" ]
            },
            {
               "long_name" : "Bengaluru",
               "short_name" : "Bengaluru",
               "types" : [ "locality", "political" ]
            },
            {
               "long_name" : "Bangalore Urban",
               "short_name" : "Bangalore Urban",
               "types" : [ "administrative_area_level_2", "political" ]
            },
            {
               "long_name" : "Karnataka",
               "short_name" : "KA",
               "types" : [ "administrative_area_level_1", "political" ]
            },
            {
               "long_name" : "India",
               "short_name" : "IN",
               "types" : [ "country", "political" ]
            }
         ],
         "formatted_address" : "PWD Road, Bengaluru, Karnataka, India",
         "geometry" : {
            "bounds" : {
               "northeast" : {
                  "lat" : 12.9932597,
                  "lng" : 77.68196259999999
               },
               "southwest" : {
                  "lat" : 12.9885412,
                  "lng" : 77.67890659999999
               }
            },
            "location" : {
               "lat" : 12.9911062,
               "lng" : 77.6800726
            },
            "location_type" : "GEOMETRIC_CENTER",
            "viewport" : {
               "northeast" : {
                  "lat" : 12.9932597,
                  "lng" : 77.68196259999999
               },
               "southwest" : {
                  "lat" : 12.9885412,
                  "lng" : 77.67890659999999
               }
            }
         },
         "types" : [ "route" ]
      },
      {
         "address_components" : [
            {
               "long_name" : "PWD Road",
               "short_name" : "PWD Rd",
               "types" : [ "route" ]
            },
            {
               "long_name" : "Madhubani",
               "short_name" : "Madhubani",
               "types" : [ "administrative_area_level_2", "political" ]
            },
            {
               "long_name" : "Bihar",
               "short_name" : "BR",
               "types" : [ "administrative_area_level_1", "political" ]
            },
            {
               "long_name" : "India",
               "short_name" : "IN",
               "types" : [ "country", "political" ]
            },
            {
               "long_name" : "847402",
               "short_name" : "847402",
               "types" : [ "postal_code" ]
            }
         ],
         "formatted_address" : "PWD Road, Bihar 847402, India",
         "geometry" : {
            "bounds" : {
               "northeast" : {
                  "lat" : 26.2520083,
                  "lng" : 86.44139469999999
               },
               "southwest" : {
                  "lat" : 26.2365224,
                  "lng" : 86.41159709999999
               }
            },
            "location" : {
               "lat" : 26.2496116,
               "lng" : 86.4240437
            },
            "location_type" : "GEOMETRIC_CENTER",
            "viewport" : {
               "northeast" : {
                  "lat" : 26.2520083,
                  "lng" : 86.44139469999999
               },
               "southwest" : {
                  "lat" : 26.2365224,
                  "lng" : 86.41159709999999
               }
            }
         },
         "types" : [ "route" ]
      },
      {
         "address_components" : [
            {
               "long_name" : "PWD Road",
               "short_name" : "PWD Rd",
               "types" : [ "route" ]
            },
            {
               "long_name" : "Huslurdanga",
               "short_name" : "Huslurdanga",
               "types" : [ "locality", "political" ]
            },
            {
               "long_name" : "Jalpaiguri",
               "short_name" : "Jalpaiguri",
               "types" : [ "administrative_area_level_2", "political" ]
            },
            {
               "long_name" : "West Bengal",
               "short_name" : "WB",
               "types" : [ "administrative_area_level_1", "political" ]
            },
            {
               "long_name" : "India",
               "short_name" : "IN",
               "types" : [ "country", "political" ]
            },
            {
               "long_name" : "735224",
               "short_name" : "735224",
               "types" : [ "postal_code" ]
            }
         ],
         "formatted_address" : "PWD Road, Huslurdanga, West Bengal 735224, India",
         "geometry" : {
            "bounds" : {
               "northeast" : {
                  "lat" : 26.5571604,
                  "lng" : 88.92063899999999
               },
               "southwest" : {
                  "lat" : 26.556437,
                  "lng" : 88.91424859999999
               }
            },
            "location" : {
               "lat" : 26.5565745,
               "lng" : 88.9194241
            },
            "location_type" : "GEOMETRIC_CENTER",
            "viewport" : {
               "northeast" : {
                  "lat" : 26.5581476802915,
                  "lng" : 88.92063899999999
               },
               "southwest" : {
                  "lat" : 26.55544971970849,
                  "lng" : 88.91424859999999
               }
            }
         },
         "types" : [ "route" ]
      },
      {
         "address_components" : [
            {
               "long_name" : "PWD Road",
               "short_name" : "PWD Rd",
               "types" : [ "route" ]
            },
            {
               "long_name" : "Pimpri-Chinchwad",
               "short_name" : "Pimpri-Chinchwad",
               "types" : [ "locality", "political" ]
            },
            {
               "long_name" : "Pune",
               "short_name" : "Pune",
               "types" : [ "administrative_area_level_2", "political" ]
            },
            {
               "long_name" : "Maharashtra",
               "short_name" : "MH",
               "types" : [ "administrative_area_level_1", "political" ]
            },
            {
               "long_name" : "India",
               "short_name" : "IN",
               "types" : [ "country", "political" ]
            },
            {
               "long_name" : "411027",
               "short_name" : "411027",
               "types" : [ "postal_code" ]
            }
         ],
         "formatted_address" : "PWD Road, Pimpri-Chinchwad, Maharashtra 411027, India",
         "geometry" : {
            "bounds" : {
               "northeast" : {
                  "lat" : 18.5762208,
                  "lng" : 73.8200344
               },
               "southwest" : {
                  "lat" : 18.574077,
                  "lng" : 73.807757
               }
            },
            "location" : {
               "lat" : 18.575628,
               "lng" : 73.81363300000001
            },
            "location_type" : "GEOMETRIC_CENTER",
            "viewport" : {
               "northeast" : {
                  "lat" : 18.57649788029151,
                  "lng" : 73.8200344
               },
               "southwest" : {
                  "lat" : 18.5737999197085,
                  "lng" : 73.807757
               }
            }
         },
         "types" : [ "route" ]
      },
      {
         "address_components" : [
            {
               "long_name" : "PWD Road",
               "short_name" : "PWD Rd",
               "types" : [ "route" ]
            },
            {
               "long_name" : "Bhiwani",
               "short_name" : "Bhiwani",
               "types" : [ "locality", "political" ]
            },
            {
               "long_name" : "Bhiwani",
               "short_name" : "Bhiwani",
               "types" : [ "administrative_area_level_2", "political" ]
            },
            {
               "long_name" : "Haryana",
               "short_name" : "HR",
               "types" : [ "administrative_area_level_1", "political" ]
            },
            {
               "long_name" : "India",
               "short_name" : "IN",
               "types" : [ "country", "political" ]
            },
            {
               "long_name" : "127021",
               "short_name" : "127021",
               "types" : [ "postal_code" ]
            }
         ],
         "formatted_address" : "PWD Road, Bhiwani, Haryana 127021, India",
         "geometry" : {
            "bounds" : {
               "northeast" : {
                  "lat" : 28.8080769,
                  "lng" : 76.1612409
               },
               "southwest" : {
                  "lat" : 28.8023637,
                  "lng" : 76.14691069999999
               }
            },
            "location" : {
               "lat" : 28.8050875,
               "lng" : 76.15419779999999
            },
            "location_type" : "GEOMETRIC_CENTER",
            "viewport" : {
               "northeast" : {
                  "lat" : 28.8080769,
                  "lng" : 76.1612409
               },
               "southwest" : {
                  "lat" : 28.8023637,
                  "lng" : 76.14691069999999
               }
            }
         },
         "types" : [ "route" ]
      },
      {
         "address_components" : [
            {
               "long_name" : "PWD Road",
               "short_name" : "PWD Rd",
               "types" : [ "route" ]
            },
            {
               "long_name" : "Sarenga",
               "short_name" : "Sarenga",
               "types" : [ "sublocality_level_3", "sublocality", "political" ]
            },
            {
               "long_name" : "Manikpur",
               "short_name" : "Manikpur",
               "types" : [ "sublocality_level_2", "sublocality", "political" ]
            },
            {
               "long_name" : "Sankrail",
               "short_name" : "Sankrail",
               "types" : [ "sublocality_level_1", "sublocality", "political" ]
            },
            {
               "long_name" : "Howrah",
               "short_name" : "Howrah",
               "types" : [ "locality", "political" ]
            },
            {
               "long_name" : "Howrah",
               "short_name" : "Howrah",
               "types" : [ "administrative_area_level_2", "political" ]
            },
            {
               "long_name" : "West Bengal",
               "short_name" : "WB",
               "types" : [ "administrative_area_level_1", "political" ]
            },
            {
               "long_name" : "India",
               "short_name" : "IN",
               "types" : [ "country", "political" ]
            },
            {
               "long_name" : "711309",
               "short_name" : "711309",
               "types" : [ "postal_code" ]
            }
         ],
         "formatted_address" : "PWD Road, Sarenga, Manikpur, Sankrail, Howrah, West Bengal 711309, India",
         "geometry" : {
            "bounds" : {
               "northeast" : {
                  "lat" : 22.5361123,
                  "lng" : 88.2263138
               },
               "southwest" : {
                  "lat" : 22.5217394,
                  "lng" : 88.20730069999999
               }
            },
            "location" : {
               "lat" : 22.5283756,
               "lng" : 88.217091
            },
            "location_type" : "GEOMETRIC_CENTER",
            "viewport" : {
               "northeast" : {
                  "lat" : 22.5361123,
                  "lng" : 88.2263138
               },
               "southwest" : {
                  "lat" : 22.5217394,
                  "lng" : 88.20730069999999
               }
            }
         },
         "types" : [ "route" ]
      },
      {
         "address_components" : [
            {
               "long_name" : "Maniyakupara Road",
               "short_name" : "Maniyakupara Rd",
               "types" : [ "route" ]
            },
            {
               "long_name" : "Kurianad",
               "short_name" : "Kurianad",
               "types" : [ "locality", "political" ]
            },
            {
               "long_name" : "Kottayam",
               "short_name" : "KTM",
               "types" : [ "administrative_area_level_2", "political" ]
            },
            {
               "long_name" : "Kerala",
               "short_name" : "KL",
               "types" : [ "administrative_area_level_1", "political" ]
            },
            {
               "long_name" : "India",
               "short_name" : "IN",
               "types" : [ "country", "political" ]
            },
            {
               "long_name" : "686636",
               "short_name" : "686636",
               "types" : [ "postal_code" ]
            }
         ],
         "formatted_address" : "Maniyakupara Road, Kurianad, Kerala 686636, India",
         "geometry" : {
            "bounds" : {
               "northeast" : {
                  "lat" : 9.793888500000001,
                  "lng" : 76.5955838
               },
               "southwest" : {
                  "lat" : 9.782169400000001,
                  "lng" : 76.57812509999999
               }
            },
            "location" : {
               "lat" : 9.792067099999999,
               "lng" : 76.58808859999999
            },
            "location_type" : "GEOMETRIC_CENTER",
            "viewport" : {
               "northeast" : {
                  "lat" : 9.793888500000001,
                  "lng" : 76.5955838
               },
               "southwest" : {
                  "lat" : 9.782169400000001,
                  "lng" : 76.57812509999999
               }
            }
         },
         "types" : [ "route" ]
      },
      {
         "address_components" : [
            {
               "long_name" : "PWD Road",
               "short_name" : "PWD Rd",
               "types" : [ "route" ]
            },
            {
               "long_name" : "Bhirhar",
               "short_name" : "Bhirhar",
               "types" : [ "locality", "political" ]
            },
            {
               "long_name" : "Supaul",
               "short_name" : "Supaul",
               "types" : [ "administrative_area_level_2", "political" ]
            },
            {
               "long_name" : "Bihar",
               "short_name" : "BR",
               "types" : [ "administrative_area_level_1", "political" ]
            },
            {
               "long_name" : "India",
               "short_name" : "IN",
               "types" : [ "country", "political" ]
            },
            {
               "long_name" : "847402",
               "short_name" : "847402",
               "types" : [ "postal_code" ]
            }
         ],
         "formatted_address" : "PWD Road, Bhirhar, Bihar 847402, India",
         "geometry" : {
            "bounds" : {
               "northeast" : {
                  "lat" : 26.2693511,
                  "lng" : 86.4255112
               },
               "southwest" : {
                  "lat" : 26.2500495,
                  "lng" : 86.4177382
               }
            },
            "location" : {
               "lat" : 26.259802,
               "lng" : 86.42155769999999
            },
            "location_type" : "GEOMETRIC_CENTER",
            "viewport" : {
               "northeast" : {
                  "lat" : 26.2693511,
                  "lng" : 86.4255112
               },
               "southwest" : {
                  "lat" : 26.2500495,
                  "lng" : 86.4177382
               }
            }
         },
         "types" : [ "route" ]
      },
      {
         "address_components" : [
            {
               "long_name" : "PWD Road",
               "short_name" : "PWD Rd",
               "types" : [ "route" ]
            },
            {
               "long_name" : "Bhukuradia",
               "short_name" : "Bhukuradia",
               "types" : [ "locality", "political" ]
            },
            {
               "long_name" : "Kamrup",
               "short_name" : "Kamrup",
               "types" : [ "administrative_area_level_2", "political" ]
            },
            {
               "long_name" : "Assam",
               "short_name" : "AS",
               "types" : [ "administrative_area_level_1", "political" ]
            },
            {
               "long_name" : "India",
               "short_name" : "IN",
               "types" : [ "country", "political" ]
            },
            {
               "long_name" : "781136",
               "short_name" : "781136",
               "types" : [ "postal_code" ]
            }
         ],
         "formatted_address" : "PWD Road, Bhukuradia, Assam 781136, India",
         "geometry" : {
            "bounds" : {
               "northeast" : {
                  "lat" : 26.1368167,
                  "lng" : 91.0847417
               },
               "southwest" : {
                  "lat" : 26.1292903,
                  "lng" : 91.07936719999999
               }
            },
            "location" : {
               "lat" : 26.1334315,
               "lng" : 91.08215319999999
            },
            "location_type" : "GEOMETRIC_CENTER",
            "viewport" : {
               "northeast" : {
                  "lat" : 26.1368167,
                  "lng" : 91.0847417
               },
               "southwest" : {
                  "lat" : 26.1292903,
                  "lng" : 91.07936719999999
               }
            }
         },
         "types" : [ "route" ]
      },
      {
         "address_components" : [
            {
               "long_name" : "PWD Road",
               "short_name" : "PWD Rd",
               "types" : [ "route" ]
            },
            {
               "long_name" : "Tarapur",
               "short_name" : "Tarapur",
               "types" : [ "sublocality_level_1", "sublocality", "political" ]
            },
            {
               "long_name" : "Silchar",
               "short_name" : "Silchar",
               "types" : [ "locality", "political" ]
            },
            {
               "long_name" : "Cachar",
               "short_name" : "Cachar",
               "types" : [ "administrative_area_level_2", "political" ]
            },
            {
               "long_name" : "Assam",
               "short_name" : "AS",
               "types" : [ "administrative_area_level_1", "political" ]
            },
            {
               "long_name" : "India",
               "short_name" : "IN",
               "types" : [ "country", "political" ]
            }
         ],
         "formatted_address" : "PWD Road, Tarapur, Silchar, Assam, India",
         "geometry" : {
            "bounds" : {
               "northeast" : {
                  "lat" : 24.8314355,
                  "lng" : 92.79552729999999
               },
               "southwest" : {
                  "lat" : 24.8266266,
                  "lng" : 92.7953352
               }
            },
            "location" : {
               "lat" : 24.8286772,
               "lng" : 92.79544609999999
            },
            "location_type" : "GEOMETRIC_CENTER",
            "viewport" : {
               "northeast" : {
                  "lat" : 24.8314355,
                  "lng" : 92.7967802302915
               },
               "southwest" : {
                  "lat" : 24.8266266,
                  "lng" : 92.7940822697085
               }
            }
         },
         "types" : [ "route" ]
      },
      {
         "address_components" : [
            {
               "long_name" : "PWD Road",
               "short_name" : "PWD Road",
               "types" : [ "route" ]
            },
            {
               "long_name" : "GRA Phase I",
               "short_name" : "GRA Phase I",
               "types" : [ "sublocality_level_1", "sublocality", "political" ]
            },
            {
               "long_name" : "Onitsha",
               "short_name" : "Onitsha",
               "types" : [ "locality", "political" ]
            },
            {
               "long_name" : "Onitsha",
               "short_name" : "Onitsha",
               "types" : [ "administrative_area_level_2", "political" ]
            },
            {
               "long_name" : "Anambra",
               "short_name" : "Anambra",
               "types" : [ "administrative_area_level_1", "political" ]
            },
            {
               "long_name" : "Nigeria",
               "short_name" : "NG",
               "types" : [ "country", "political" ]
            },
            {
               "long_name" : "430",
               "short_name" : "430",
               "types" : [ "postal_code_prefix", "postal_code" ]
            }
         ],
         "formatted_address" : "PWD Road, Onitsha 430, Nigeria",
         "geometry" : {
            "bounds" : {
               "northeast" : {
                  "lat" : 6.1639263,
                  "lng" : 6.7792886
               },
               "southwest" : {
                  "lat" : 6.159587,
                  "lng" : 6.7780191
               }
            },
            "location" : {
               "lat" : 6.161472799999999,
               "lng" : 6.7780267
            },
            "location_type" : "GEOMETRIC_CENTER",
            "viewport" : {
               "northeast" : {
                  "lat" : 6.1639263,
                  "lng" : 6.780002830291503
               },
               "southwest" : {
                  "lat" : 6.159587,
                  "lng" : 6.777304869708498
               }
            }
         },
         "types" : [ "route" ]
      },
      {
         "address_components" : [
            {
               "long_name" : "PWD Road",
               "short_name" : "PWD Rd",
               "types" : [ "route" ]
            },
            {
               "long_name" : "Ernakulam",
               "short_name" : "EKM",
               "types" : [ "administrative_area_level_2", "political" ]
            },
            {
               "long_name" : "Kerala",
               "short_name" : "KL",
               "types" : [ "administrative_area_level_1", "political" ]
            },
            {
               "long_name" : "India",
               "short_name" : "IN",
               "types" : [ "country", "political" ]
            },
            {
               "long_name" : "682315",
               "short_name" : "682315",
               "types" : [ "postal_code" ]
            }
         ],
         "formatted_address" : "PWD Road, Kerala 682315, India",
         "geometry" : {
            "bounds" : {
               "northeast" : {
                  "lat" : 9.87236,
                  "lng" : 76.3918877
               },
               "southwest" : {
                  "lat" : 9.8665567,
                  "lng" : 76.38950989999999
               }
            },
            "location" : {
               "lat" : 9.8694741,
               "lng" : 76.3901523
            },
            "location_type" : "GEOMETRIC_CENTER",
            "viewport" : {
               "northeast" : {
                  "lat" : 9.87236,
                  "lng" : 76.39204778029151
               },
               "southwest" : {
                  "lat" : 9.8665567,
                  "lng" : 76.3893498197085
               }
            }
         },
         "types" : [ "route" ]
      },
      {
         "address_components" : [
            {
               "long_name" : "PWD Road",
               "short_name" : "PWD Rd",
               "types" : [ "route" ]
            },
            {
               "long_name" : "Landmark Colony",
               "short_name" : "Landmark Colony",
               "types" : [ "sublocality_level_1", "sublocality", "political" ]
            },
            {
               "long_name" : "Dimapur",
               "short_name" : "DMR",
               "types" : [ "locality", "political" ]
            },
            {
               "long_name" : "Dimapur",
               "short_name" : "Dimapur",
               "types" : [ "administrative_area_level_2", "political" ]
            },
            {
               "long_name" : "Nagaland",
               "short_name" : "NL",
               "types" : [ "administrative_area_level_1", "political" ]
            },
            {
               "long_name" : "India",
               "short_name" : "IN",
               "types" : [ "country", "political" ]
            },
            {
               "long_name" : "797113",
               "short_name" : "797113",
               "types" : [ "postal_code" ]
            }
         ],
         "formatted_address" : "PWD Road, Landmark Colony, Dimapur, Nagaland 797113, India",
         "geometry" : {
            "bounds" : {
               "northeast" : {
                  "lat" : 25.909393,
                  "lng" : 93.71414449999999
               },
               "southwest" : {
                  "lat" : 25.9079124,
                  "lng" : 93.71096009999999
               }
            },
            "location" : {
               "lat" : 25.9083641,
               "lng" : 93.71269789999999
            },
            "location_type" : "GEOMETRIC_CENTER",
            "viewport" : {
               "northeast" : {
                  "lat" : 25.9100016802915,
                  "lng" : 93.71414449999999
               },
               "southwest" : {
                  "lat" : 25.90730371970849,
                  "lng" : 93.71096009999999
               }
            }
         },
         "types" : [ "route" ]
      },
      {
         "address_components" : [
            {
               "long_name" : "PWD Road",
               "short_name" : "PWD Rd",
               "types" : [ "route" ]
            },
            {
               "long_name" : "Musabani",
               "short_name" : "Musabani",
               "types" : [ "locality", "political" ]
            },
            {
               "long_name" : "East Singhbhum",
               "short_name" : "East Singhbhum",
               "types" : [ "administrative_area_level_2", "political" ]
            },
            {
               "long_name" : "Jharkhand",
               "short_name" : "JH",
               "types" : [ "administrative_area_level_1", "political" ]
            },
            {
               "long_name" : "India",
               "short_name" : "IN",
               "types" : [ "country", "political" ]
            },
            {
               "long_name" : "832104",
               "short_name" : "832104",
               "types" : [ "postal_code" ]
            }
         ],
         "formatted_address" : "PWD Road, Musabani, Jharkhand 832104, India",
         "geometry" : {
            "bounds" : {
               "northeast" : {
                  "lat" : 22.5247005,
                  "lng" : 86.4562499
               },
               "southwest" : {
                  "lat" : 22.5226283,
                  "lng" : 86.44985630000001
               }
            },
            "location" : {
               "lat" : 22.5243688,
               "lng" : 86.45343799999999
            },
            "location_type" : "GEOMETRIC_CENTER",
            "viewport" : {
               "northeast" : {
                  "lat" : 22.5250133802915,
                  "lng" : 86.4562499
               },
               "southwest" : {
                  "lat" : 22.5223154197085,
                  "lng" : 86.44985630000001
               }
            }
         },
         "types" : [ "route" ]
      },
      {
         "address_components" : [
            {
               "long_name" : "PWD Road",
               "short_name" : "PWD Rd",
               "types" : [ "route" ]
            },
            {
               "long_name" : "Kuriachira",
               "short_name" : "Kuriachira",
               "types" : [ "sublocality_level_1", "sublocality", "political" ]
            },
            {
               "long_name" : "Thrissur",
               "short_name" : "Thrissur",
               "types" : [ "locality", "political" ]
            },
            {
               "long_name" : "Thrissur",
               "short_name" : "TSR",
               "types" : [ "administrative_area_level_2", "political" ]
            },
            {
               "long_name" : "Kerala",
               "short_name" : "KL",
               "types" : [ "administrative_area_level_1", "political" ]
            },
            {
               "long_name" : "India",
               "short_name" : "IN",
               "types" : [ "country", "political" ]
            },
            {
               "long_name" : "680006",
               "short_name" : "680006",
               "types" : [ "postal_code" ]
            }
         ],
         "formatted_address" : "PWD Road, Kuriachira, Thrissur, Kerala 680006, India",
         "geometry" : {
            "bounds" : {
               "northeast" : {
                  "lat" : 10.5057694,
                  "lng" : 76.2346747
               },
               "southwest" : {
                  "lat" : 10.5037537,
                  "lng" : 76.2328595
               }
            },
            "location" : {
               "lat" : 10.5044513,
               "lng" : 76.23355140000001
            },
            "location_type" : "GEOMETRIC_CENTER",
            "viewport" : {
               "northeast" : {
                  "lat" : 10.5061105302915,
                  "lng" : 76.2351160802915
               },
               "southwest" : {
                  "lat" : 10.5034125697085,
                  "lng" : 76.2324181197085
               }
            }
         },
         "types" : [ "route" ]
      },
      {
         "address_components" : [
            {
               "long_name" : "PWD Road",
               "short_name" : "PWD Rd",
               "types" : [ "route" ]
            },
            {
               "long_name" : "Bhowali",
               "short_name" : "Bhowali",
               "types" : [ "sublocality_level_1", "sublocality", "political" ]
            },
            {
               "long_name" : "Bhawanipur",
               "short_name" : "Bhawanipur",
               "types" : [ "locality", "political" ]
            },
            {
               "long_name" : "Nainital",
               "short_name" : "Nainital",
               "types" : [ "administrative_area_level_2", "political" ]
            },
            {
               "long_name" : "Uttarakhand",
               "short_name" : "UT",
               "types" : [ "administrative_area_level_1", "political" ]
            },
            {
               "long_name" : "India",
               "short_name" : "IN",
               "types" : [ "country", "political" ]
            },
            {
               "long_name" : "263132",
               "short_name" : "263132",
               "types" : [ "postal_code" ]
            }
         ],
         "formatted_address" : "PWD Road, Bhowali, Bhawanipur, Uttarakhand 263132, India",
         "geometry" : {
            "bounds" : {
               "northeast" : {
                  "lat" : 29.3862242,
                  "lng" : 79.5144126
               },
               "southwest" : {
                  "lat" : 29.3846805,
                  "lng" : 79.5134747
               }
            },
            "location" : {
               "lat" : 29.3855849,
               "lng" : 79.5138419
            },
            "location_type" : "GEOMETRIC_CENTER",
            "viewport" : {
               "northeast" : {
                  "lat" : 29.3868013302915,
                  "lng" : 79.51529263029151
               },
               "southwest" : {
                  "lat" : 29.38410336970851,
                  "lng" : 79.51259466970851
               }
            }
         },
         "types" : [ "route" ]
      },
      {
         "address_components" : [
            {
               "long_name" : "PWD Road",
               "short_name" : "PWD Rd",
               "types" : [ "route" ]
            },
            {
               "long_name" : "Hafania Kitte Ka",
               "short_name" : "Hafania Kitte Ka",
               "types" : [ "locality", "political" ]
            },
            {
               "long_name" : "Karimganj",
               "short_name" : "Karimganj",
               "types" : [ "administrative_area_level_2", "political" ]
            },
            {
               "long_name" : "Assam",
               "short_name" : "AS",
               "types" : [ "administrative_area_level_1", "political" ]
            },
            {
               "long_name" : "India",
               "short_name" : "IN",
               "types" : [ "country", "political" ]
            }
         ],
         "formatted_address" : "PWD Road, Hafania Kitte Ka, Assam, India",
         "geometry" : {
            "bounds" : {
               "northeast" : {
                  "lat" : 24.7427889,
                  "lng" : 92.3855889
               },
               "southwest" : {
                  "lat" : 24.721281,
                  "lng" : 92.3489024
               }
            },
            "location" : {
               "lat" : 24.728512,
               "lng" : 92.3600757
            },
            "location_type" : "GEOMETRIC_CENTER",
            "viewport" : {
               "northeast" : {
                  "lat" : 24.7427889,
                  "lng" : 92.3855889
               },
               "southwest" : {
                  "lat" : 24.721281,
                  "lng" : 92.3489024
               }
            }
         },
         "types" : [ "route" ]
      },
      {
         "address_components" : [
            {
               "long_name" : "PWD Road",
               "short_name" : "PWD Rd",
               "types" : [ "route" ]
            },
            {
               "long_name" : "Bharwain",
               "short_name" : "Bharwain",
               "types" : [ "locality", "political" ]
            },
            {
               "long_name" : "Una",
               "short_name" : "Una",
               "types" : [ "administrative_area_level_2", "political" ]
            },
            {
               "long_name" : "Himachal Pradesh",
               "short_name" : "HP",
               "types" : [ "administrative_area_level_1", "political" ]
            },
            {
               "long_name" : "India",
               "short_name" : "IN",
               "types" : [ "country", "political" ]
            },
            {
               "long_name" : "177109",
               "short_name" : "177109",
               "types" : [ "postal_code" ]
            }
         ],
         "formatted_address" : "PWD Road, Bharwain, Himachal Pradesh 177109, India",
         "geometry" : {
            "bounds" : {
               "northeast" : {
                  "lat" : 31.7995576,
                  "lng" : 76.1241871
               },
               "southwest" : {
                  "lat" : 31.7989307,
                  "lng" : 76.1231303
               }
            },
            "location" : {
               "lat" : 31.7991792,
               "lng" : 76.12374410000001
            },
            "location_type" : "GEOMETRIC_CENTER",
            "viewport" : {
               "northeast" : {
                  "lat" : 31.8005931302915,
                  "lng" : 76.1250076802915
               },
               "southwest" : {
                  "lat" : 31.7978951697085,
                  "lng" : 76.12230971970848
               }
            }
         },
         "types" : [ "route" ]
      }
   ],
   "status" : "OK"
}
