{
   "results" : [
      {
         "address_components" : [
            {
               "long_name" : "Raja Manindra Road",
               "short_name" : "Raja Manindra Rd",
               "types" : [ "route" ]
            },
            {
               "long_name" : "Kolkata",
               "short_name" : "Kolkata",
               "types" : [ "locality", "political" ]
            },
            {
               "long_name" : "West Bengal",
               "short_name" : "WB",
               "types" : [ "administrative_area_level_1", "political" ]
            },
            {
               "long_name" : "India",
               "short_name" : "IN",
               "types" : [ "country", "political" ]
            }
         ],
         "formatted_address" : "Raja Manindra Road, Kolkata, West Bengal, India",
         "geometry" : {
            "bounds" : {
               "northeast" : {
                  "lat" : 22.6126059,
                  "lng" : 88.39093
               },
               "southwest" : {
                  "lat" : 22.6073257,
                  "lng" : 88.3773963
               }
            },
            "location" : {
               "lat" : 22.6118869,
               "lng" : 88.38520969999999
            },
            "location_type" : "GEOMETRIC_CENTER",
            "viewport" : {
               "northeast" : {
                  "lat" : 22.6126059,
                  "lng" : 88.39093
               },
               "southwest" : {
                  "lat" : 22.6073257,
                  "lng" : 88.3773963
               }
            }
         },
         "partial_match" : true,
         "types" : [ "route" ]
      },
      {
         "address_components" : [
            {
               "long_name" : "Raja Manindra Road",
               "short_name" : "Raja Manindra Rd",
               "types" : [ "route" ]
            },
            {
               "long_name" : "Gangulipara",
               "short_name" : "Gangulipara",
               "types" : [ "sublocality_level_2", "sublocality", "political" ]
            },
            {
               "long_name" : "Paikpara",
               "short_name" : "Paikpara",
               "types" : [ "sublocality_level_1", "sublocality", "political" ]
            },
            {
               "long_name" : "Kolkata",
               "short_name" : "Kolkata",
               "types" : [ "locality", "political" ]
            },
            {
               "long_name" : "Kolkata",
               "short_name" : "Kolkata",
               "types" : [ "administrative_area_level_2", "political" ]
            },
            {
               "long_name" : "West Bengal",
               "short_name" : "WB",
               "types" : [ "administrative_area_level_1", "political" ]
            },
            {
               "long_name" : "India",
               "short_name" : "IN",
               "types" : [ "country", "political" ]
            },
            {
               "long_name" : "700037",
               "short_name" : "700037",
               "types" : [ "postal_code" ]
            }
         ],
         "formatted_address" : "Raja Manindra Road, Gangulipara, Paikpara, Kolkata, West Bengal 700037, India",
         "geometry" : {
            "location" : {
               "lat" : 22.6133781,
               "lng" : 88.3851997
            },
            "location_type" : "GEOMETRIC_CENTER",
            "viewport" : {
               "northeast" : {
                  "lat" : 22.6147270802915,
                  "lng" : 88.38654868029151
               },
               "southwest" : {
                  "lat" : 22.6120291197085,
                  "lng" : 88.38385071970851
               }
            }
         },
         "partial_match" : true,
         "types" : [ "route" ]
      }
   ],
   "status" : "OK"
}
