{
   "results" : [
      {
         "address_components" : [
            {
               "long_name" : "Strand Bank Road",
               "short_name" : "Strand Bank Rd",
               "types" : [ "route" ]
            },
            {
               "long_name" : "Kolkata",
               "short_name" : "Kolkata",
               "types" : [ "locality", "political" ]
            },
            {
               "long_name" : "Kolkata",
               "short_name" : "Kolkata",
               "types" : [ "administrative_area_level_2", "political" ]
            },
            {
               "long_name" : "West Bengal",
               "short_name" : "WB",
               "types" : [ "administrative_area_level_1", "political" ]
            },
            {
               "long_name" : "India",
               "short_name" : "IN",
               "types" : [ "country", "political" ]
            }
         ],
         "formatted_address" : "Strand Bank Road, Kolkata, West Bengal, India",
         "geometry" : {
            "bounds" : {
               "northeast" : {
                  "lat" : 22.6064278,
                  "lng" : 88.36662899999999
               },
               "southwest" : {
                  "lat" : 22.580091,
                  "lng" : 88.348361
               }
            },
            "location" : {
               "lat" : 22.5955748,
               "lng" : 88.35306059999999
            },
            "location_type" : "GEOMETRIC_CENTER",
            "viewport" : {
               "northeast" : {
                  "lat" : 22.6064278,
                  "lng" : 88.36662899999999
               },
               "southwest" : {
                  "lat" : 22.580091,
                  "lng" : 88.348361
               }
            }
         },
         "partial_match" : true,
         "types" : [ "route" ]
      },
      {
         "address_components" : [
            {
               "long_name" : "Strand Bank",
               "short_name" : "Strand Bank",
               "types" : [ "premise" ]
            },
            {
               "long_name" : "Sebergham",
               "short_name" : "Sebergham",
               "types" : [ "locality", "political" ]
            },
            {
               "long_name" : "Carlisle",
               "short_name" : "Carlisle",
               "types" : [ "postal_town" ]
            },
            {
               "long_name" : "Cumbria",
               "short_name" : "Cumb",
               "types" : [ "administrative_area_level_2", "political" ]
            },
            {
               "long_name" : "United Kingdom",
               "short_name" : "GB",
               "types" : [ "country", "political" ]
            },
            {
               "long_name" : "CA5 7HR",
               "short_name" : "CA5 7HR",
               "types" : [ "postal_code" ]
            }
         ],
         "formatted_address" : "Strand Bank, Sebergham, Carlisle, Cumbria CA5 7HR, UK",
         "geometry" : {
            "location" : {
               "lat" : 54.7655347,
               "lng" : -2.9965982
            },
            "location_type" : "ROOFTOP",
            "viewport" : {
               "northeast" : {
                  "lat" : 54.76688368029151,
                  "lng" : -2.995249219708498
               },
               "southwest" : {
                  "lat" : 54.76418571970851,
                  "lng" : -2.997947180291502
               }
            }
         },
         "types" : [ "premise" ]
      },
      {
         "address_components" : [
            {
               "long_name" : "Chitpur Strand Bank Road",
               "short_name" : "Chitpur Strand Bank Rd",
               "types" : [ "route" ]
            },
            {
               "long_name" : "Kolkata",
               "short_name" : "Kolkata",
               "types" : [ "locality", "political" ]
            },
            {
               "long_name" : "Kolkata",
               "short_name" : "Kolkata",
               "types" : [ "administrative_area_level_2", "political" ]
            },
            {
               "long_name" : "West Bengal",
               "short_name" : "WB",
               "types" : [ "administrative_area_level_1", "political" ]
            },
            {
               "long_name" : "India",
               "short_name" : "IN",
               "types" : [ "country", "political" ]
            },
            {
               "long_name" : "700002",
               "short_name" : "700002",
               "types" : [ "postal_code" ]
            }
         ],
         "formatted_address" : "Chitpur Strand Bank Road, Kolkata, West Bengal 700002, India",
         "geometry" : {
            "bounds" : {
               "northeast" : {
                  "lat" : 22.6191989,
                  "lng" : 88.369174
               },
               "southwest" : {
                  "lat" : 22.6105687,
                  "lng" : 88.3682651
               }
            },
            "location" : {
               "lat" : 22.6149472,
               "lng" : 88.3689991
            },
            "location_type" : "GEOMETRIC_CENTER",
            "viewport" : {
               "northeast" : {
                  "lat" : 22.6191989,
                  "lng" : 88.37006853029152
               },
               "southwest" : {
                  "lat" : 22.6105687,
                  "lng" : 88.36737056970851
               }
            }
         },
         "partial_match" : true,
         "types" : [ "route" ]
      }
   ],
   "status" : "OK"
}
