{
   "results" : [
      {
         "address_components" : [
            {
               "long_name" : "Road",
               "short_name" : "Road",
               "types" : [ "route" ]
            },
            {
               "long_name" : "6th of October City",
               "short_name" : "6th of October City",
               "types" : [ "locality", "political" ]
            },
            {
               "long_name" : "Giza Governorate",
               "short_name" : "Giza Governorate",
               "types" : [ "administrative_area_level_1", "political" ]
            },
            {
               "long_name" : "Egypt",
               "short_name" : "EG",
               "types" : [ "country", "political" ]
            }
         ],
         "formatted_address" : "Road, Giza Governorate, Egypt",
         "geometry" : {
            "bounds" : {
               "northeast" : {
                  "lat" : 29.9724008,
                  "lng" : 30.9225438
               },
               "southwest" : {
                  "lat" : 29.9697066,
                  "lng" : 30.9198883
               }
            },
            "location" : {
               "lat" : 29.9710383,
               "lng" : 30.9212546
            },
            "location_type" : "GEOMETRIC_CENTER",
            "viewport" : {
               "northeast" : {
                  "lat" : 29.9724026802915,
                  "lng" : 30.92256503029149
               },
               "southwest" : {
                  "lat" : 29.9697047197085,
                  "lng" : 30.91986706970849
               }
            }
         },
         "partial_match" : true,
         "types" : [ "route" ]
      },
      {
         "address_components" : [
            {
               "long_name" : "C Road",
               "short_name" : "C Rd",
               "types" : [ "route" ]
            },
            {
               "long_name" : "Whitwell",
               "short_name" : "Whitwell",
               "types" : [ "locality", "political" ]
            },
            {
               "long_name" : "Sequatchie County",
               "short_name" : "Sequatchie County",
               "types" : [ "administrative_area_level_2", "political" ]
            },
            {
               "long_name" : "Tennessee",
               "short_name" : "TN",
               "types" : [ "administrative_area_level_1", "political" ]
            },
            {
               "long_name" : "United States",
               "short_name" : "US",
               "types" : [ "country", "political" ]
            },
            {
               "long_name" : "37397",
               "short_name" : "37397",
               "types" : [ "postal_code" ]
            }
         ],
         "formatted_address" : "C Road, Whitwell, TN 37397, USA",
         "geometry" : {
            "bounds" : {
               "northeast" : {
                  "lat" : 35.319932,
                  "lng" : -85.5306442
               },
               "southwest" : {
                  "lat" : 35.3046268,
                  "lng" : -85.556776
               }
            },
            "location" : {
               "lat" : 35.3074154,
               "lng" : -85.54830659999999
            },
            "location_type" : "GEOMETRIC_CENTER",
            "viewport" : {
               "northeast" : {
                  "lat" : 35.319932,
                  "lng" : -85.5306442
               },
               "southwest" : {
                  "lat" : 35.3046268,
                  "lng" : -85.556776
               }
            }
         },
         "partial_match" : true,
         "types" : [ "route" ]
      },
      {
         "address_components" : [
            {
               "long_name" : "Road",
               "short_name" : "Road",
               "types" : [ "route" ]
            },
            {
               "long_name" : "Rangbhang",
               "short_name" : "Rangbhang",
               "types" : [ "neighborhood", "political" ]
            },
            {
               "long_name" : "Putalibazar",
               "short_name" : "Putalibazar",
               "types" : [ "locality", "political" ]
            },
            {
               "long_name" : "Gandaki",
               "short_name" : "Gandaki",
               "types" : [ "administrative_area_level_2", "political" ]
            },
            {
               "long_name" : "Western Region",
               "short_name" : "Western Region",
               "types" : [ "administrative_area_level_1", "political" ]
            },
            {
               "long_name" : "Nepal",
               "short_name" : "NP",
               "types" : [ "country", "political" ]
            },
            {
               "long_name" : "33800",
               "short_name" : "33800",
               "types" : [ "postal_code" ]
            }
         ],
         "formatted_address" : "Road, Putalibazar 33800, Nepal",
         "geometry" : {
            "bounds" : {
               "northeast" : {
                  "lat" : 28.092786,
                  "lng" : 83.8804114
               },
               "southwest" : {
                  "lat" : 28.0723022,
                  "lng" : 83.86887709999999
               }
            },
            "location" : {
               "lat" : 28.0822038,
               "lng" : 83.8737488
            },
            "location_type" : "GEOMETRIC_CENTER",
            "viewport" : {
               "northeast" : {
                  "lat" : 28.092786,
                  "lng" : 83.8804114
               },
               "southwest" : {
                  "lat" : 28.0723022,
                  "lng" : 83.86887709999999
               }
            }
         },
         "partial_match" : true,
         "types" : [ "route" ]
      },
      {
         "address_components" : [
            {
               "long_name" : "Road",
               "short_name" : "Road",
               "types" : [ "route" ]
            },
            {
               "long_name" : "Gadhinglaj",
               "short_name" : "Gadhinglaj",
               "types" : [ "locality", "political" ]
            },
            {
               "long_name" : "Kolhapur",
               "short_name" : "Kolhapur",
               "types" : [ "administrative_area_level_2", "political" ]
            },
            {
               "long_name" : "Maharashtra",
               "short_name" : "MH",
               "types" : [ "administrative_area_level_1", "political" ]
            },
            {
               "long_name" : "India",
               "short_name" : "IN",
               "types" : [ "country", "political" ]
            },
            {
               "long_name" : "416502",
               "short_name" : "416502",
               "types" : [ "postal_code" ]
            }
         ],
         "formatted_address" : "Road, Gadhinglaj, Maharashtra 416502, India",
         "geometry" : {
            "bounds" : {
               "northeast" : {
                  "lat" : 16.2360159,
                  "lng" : 74.3722272
               },
               "southwest" : {
                  "lat" : 16.2221345,
                  "lng" : 74.35688499999999
               }
            },
            "location" : {
               "lat" : 16.2294264,
               "lng" : 74.36372999999999
            },
            "location_type" : "GEOMETRIC_CENTER",
            "viewport" : {
               "northeast" : {
                  "lat" : 16.2360159,
                  "lng" : 74.3722272
               },
               "southwest" : {
                  "lat" : 16.2221345,
                  "lng" : 74.35688499999999
               }
            }
         },
         "partial_match" : true,
         "types" : [ "route" ]
      },
      {
         "address_components" : [
            {
               "long_name" : "Road",
               "short_name" : "Road",
               "types" : [ "route" ]
            },
            {
               "long_name" : "Pabna",
               "short_name" : "Pabna",
               "types" : [ "administrative_area_level_2", "political" ]
            },
            {
               "long_name" : "Rajshahi Division",
               "short_name" : "Rajshahi Division",
               "types" : [ "administrative_area_level_1", "political" ]
            },
            {
               "long_name" : "Bangladesh",
               "short_name" : "BD",
               "types" : [ "country", "political" ]
            }
         ],
         "formatted_address" : "Road, Bangladesh",
         "geometry" : {
            "bounds" : {
               "northeast" : {
                  "lat" : 23.9671464,
                  "lng" : 89.58166659999999
               },
               "southwest" : {
                  "lat" : 23.963019,
                  "lng" : 89.5621374
               }
            },
            "location" : {
               "lat" : 23.964644,
               "lng" : 89.5716405
            },
            "location_type" : "GEOMETRIC_CENTER",
            "viewport" : {
               "northeast" : {
                  "lat" : 23.9671464,
                  "lng" : 89.58166659999999
               },
               "southwest" : {
                  "lat" : 23.963019,
                  "lng" : 89.5621374
               }
            }
         },
         "partial_match" : true,
         "types" : [ "route" ]
      },
      {
         "address_components" : [
            {
               "long_name" : "Road",
               "short_name" : "Road",
               "types" : [ "route" ]
            },
            {
               "long_name" : "Abhar",
               "short_name" : "Abhar",
               "types" : [ "locality", "political" ]
            },
            {
               "long_name" : "Zanjan",
               "short_name" : "Zanjan",
               "types" : [ "administrative_area_level_1", "political" ]
            },
            {
               "long_name" : "Iran",
               "short_name" : "IR",
               "types" : [ "country", "political" ]
            }
         ],
         "formatted_address" : "Zanjan, Abhar, Road, Iran",
         "geometry" : {
            "bounds" : {
               "northeast" : {
                  "lat" : 36.1870105,
                  "lng" : 49.2453485
               },
               "southwest" : {
                  "lat" : 36.1701326,
                  "lng" : 49.220767
               }
            },
            "location" : {
               "lat" : 36.1795594,
               "lng" : 49.23455569999999
            },
            "location_type" : "GEOMETRIC_CENTER",
            "viewport" : {
               "northeast" : {
                  "lat" : 36.1870105,
                  "lng" : 49.2453485
               },
               "southwest" : {
                  "lat" : 36.1701326,
                  "lng" : 49.220767
               }
            }
         },
         "partial_match" : true,
         "types" : [ "route" ]
      },
      {
         "address_components" : [
            {
               "long_name" : "Road",
               "short_name" : "Road",
               "types" : [ "route" ]
            },
            {
               "long_name" : "Taungoo",
               "short_name" : "Taungoo",
               "types" : [ "administrative_area_level_2", "political" ]
            },
            {
               "long_name" : "Bago Region",
               "short_name" : "Bago Region",
               "types" : [ "administrative_area_level_1", "political" ]
            },
            {
               "long_name" : "Republic of the Union of Myanmar",
               "short_name" : "MM",
               "types" : [ "country", "political" ]
            }
         ],
         "formatted_address" : "Road, Republic of the Union of Myanmar",
         "geometry" : {
            "bounds" : {
               "northeast" : {
                  "lat" : 18.8760773,
                  "lng" : 96.51511789999999
               },
               "southwest" : {
                  "lat" : 18.8738845,
                  "lng" : 96.50080559999999
               }
            },
            "location" : {
               "lat" : 18.8750881,
               "lng" : 96.50821099999999
            },
            "location_type" : "GEOMETRIC_CENTER",
            "viewport" : {
               "northeast" : {
                  "lat" : 18.8763298802915,
                  "lng" : 96.51511789999999
               },
               "southwest" : {
                  "lat" : 18.8736319197085,
                  "lng" : 96.50080559999999
               }
            }
         },
         "partial_match" : true,
         "types" : [ "route" ]
      },
      {
         "address_components" : [
            {
               "long_name" : "Road",
               "short_name" : "Road",
               "types" : [ "route" ]
            },
            {
               "long_name" : "Catbalogan City Proper",
               "short_name" : "Catbalogan City Proper",
               "types" : [ "sublocality_level_1", "sublocality", "political" ]
            },
            {
               "long_name" : "Catbalogan City",
               "short_name" : "Catbalogan City",
               "types" : [ "locality", "political" ]
            },
            {
               "long_name" : "Samar",
               "short_name" : "Samar",
               "types" : [ "administrative_area_level_2", "political" ]
            },
            {
               "long_name" : "Eastern Visayas",
               "short_name" : "Eastern Visayas",
               "types" : [ "administrative_area_level_1", "political" ]
            },
            {
               "long_name" : "Philippines",
               "short_name" : "PH",
               "types" : [ "country", "political" ]
            }
         ],
         "formatted_address" : "Road, Catbalogan City Proper, Catbalogan City, Samar, Philippines",
         "geometry" : {
            "bounds" : {
               "northeast" : {
                  "lat" : 11.7778087,
                  "lng" : 124.885786
               },
               "southwest" : {
                  "lat" : 11.7759717,
                  "lng" : 124.8844094
               }
            },
            "location" : {
               "lat" : 11.7767329,
               "lng" : 124.8855695
            },
            "location_type" : "GEOMETRIC_CENTER",
            "viewport" : {
               "northeast" : {
                  "lat" : 11.7782391802915,
                  "lng" : 124.8864466802915
               },
               "southwest" : {
                  "lat" : 11.7755412197085,
                  "lng" : 124.8837487197085
               }
            }
         },
         "partial_match" : true,
         "types" : [ "route" ]
      },
      {
         "address_components" : [
            {
               "long_name" : "Road",
               "short_name" : "Road",
               "types" : [ "route" ]
            },
            {
               "long_name" : "Nanaksar",
               "short_name" : "Nanaksar",
               "types" : [ "locality", "political" ]
            },
            {
               "long_name" : "Ludhiana",
               "short_name" : "Ludhiana",
               "types" : [ "administrative_area_level_2", "political" ]
            },
            {
               "long_name" : "Punjab",
               "short_name" : "PB",
               "types" : [ "administrative_area_level_1", "political" ]
            },
            {
               "long_name" : "India",
               "short_name" : "IN",
               "types" : [ "country", "political" ]
            },
            {
               "long_name" : "142036",
               "short_name" : "142036",
               "types" : [ "postal_code" ]
            }
         ],
         "formatted_address" : "Road, Nanaksar, Punjab 142036, India",
         "geometry" : {
            "bounds" : {
               "northeast" : {
                  "lat" : 30.80173649999999,
                  "lng" : 75.4227305
               },
               "southwest" : {
                  "lat" : 30.8011652,
                  "lng" : 75.4225105
               }
            },
            "location" : {
               "lat" : 30.8014462,
               "lng" : 75.4226178
            },
            "location_type" : "GEOMETRIC_CENTER",
            "viewport" : {
               "northeast" : {
                  "lat" : 30.80279983029149,
                  "lng" : 75.42396948029152
               },
               "southwest" : {
                  "lat" : 30.8001018697085,
                  "lng" : 75.4212715197085
               }
            }
         },
         "partial_match" : true,
         "types" : [ "route" ]
      },
      {
         "address_components" : [
            {
               "long_name" : "Road",
               "short_name" : "Road",
               "types" : [ "route" ]
            },
            {
               "long_name" : "Subhash Nagar",
               "short_name" : "Subhash Nagar",
               "types" : [ "neighborhood", "political" ]
            },
            {
               "long_name" : "Sircilla",
               "short_name" : "Sircilla",
               "types" : [ "locality", "political" ]
            },
            {
               "long_name" : "Karimnagar",
               "short_name" : "Karimnagar",
               "types" : [ "administrative_area_level_2", "political" ]
            },
            {
               "long_name" : "Telangana",
               "short_name" : "Telangana",
               "types" : [ "administrative_area_level_1", "political" ]
            },
            {
               "long_name" : "India",
               "short_name" : "IN",
               "types" : [ "country", "political" ]
            },
            {
               "long_name" : "505301",
               "short_name" : "505301",
               "types" : [ "postal_code" ]
            }
         ],
         "formatted_address" : "Road, Subhash Nagar, Sircilla, Telangana 505301, India",
         "geometry" : {
            "bounds" : {
               "northeast" : {
                  "lat" : 18.3849709,
                  "lng" : 78.8102057
               },
               "southwest" : {
                  "lat" : 18.3826454,
                  "lng" : 78.8098009
               }
            },
            "location" : {
               "lat" : 18.3849709,
               "lng" : 78.8102057
            },
            "location_type" : "GEOMETRIC_CENTER",
            "viewport" : {
               "northeast" : {
                  "lat" : 18.3851571302915,
                  "lng" : 78.8113522802915
               },
               "southwest" : {
                  "lat" : 18.3824591697085,
                  "lng" : 78.80865431970849
               }
            }
         },
         "partial_match" : true,
         "types" : [ "route" ]
      },
      {
         "address_components" : [
            {
               "long_name" : "Road",
               "short_name" : "Road",
               "types" : [ "route" ]
            },
            {
               "long_name" : "Al Dhafrah",
               "short_name" : "Al Dhafrah",
               "types" : [ "sublocality_level_1", "sublocality", "political" ]
            },
            {
               "long_name" : "Abu Dhabi",
               "short_name" : "Abu Dhabi",
               "types" : [ "locality", "political" ]
            },
            {
               "long_name" : "Abu Dhabi",
               "short_name" : "Abu Dhabi",
               "types" : [ "administrative_area_level_1", "political" ]
            },
            {
               "long_name" : "United Arab Emirates",
               "short_name" : "AE",
               "types" : [ "country", "political" ]
            }
         ],
         "formatted_address" : "Road - Abu Dhabi - United Arab Emirates",
         "geometry" : {
            "bounds" : {
               "northeast" : {
                  "lat" : 24.471906,
                  "lng" : 54.3700353
               },
               "southwest" : {
                  "lat" : 24.4711569,
                  "lng" : 54.36923669999999
               }
            },
            "location" : {
               "lat" : 24.4715603,
               "lng" : 54.3698026
            },
            "location_type" : "GEOMETRIC_CENTER",
            "viewport" : {
               "northeast" : {
                  "lat" : 24.4728804302915,
                  "lng" : 54.3709849802915
               },
               "southwest" : {
                  "lat" : 24.4701824697085,
                  "lng" : 54.3682870197085
               }
            }
         },
         "partial_match" : true,
         "types" : [ "route" ]
      },
      {
         "address_components" : [
            {
               "long_name" : "Road",
               "short_name" : "Road",
               "types" : [ "route" ]
            },
            {
               "long_name" : "Najaf Abad",
               "short_name" : "Najaf Abad",
               "types" : [ "administrative_area_level_2", "political" ]
            },
            {
               "long_name" : "Isfahan",
               "short_name" : "Isfahan",
               "types" : [ "administrative_area_level_1", "political" ]
            },
            {
               "long_name" : "Iran",
               "short_name" : "IR",
               "types" : [ "country", "political" ]
            }
         ],
         "formatted_address" : "Isfahan, Road, Iran",
         "geometry" : {
            "bounds" : {
               "northeast" : {
                  "lat" : 32.6705025,
                  "lng" : 51.25119919999999
               },
               "southwest" : {
                  "lat" : 32.6643429,
                  "lng" : 51.2486887
               }
            },
            "location" : {
               "lat" : 32.6679918,
               "lng" : 51.2502766
            },
            "location_type" : "GEOMETRIC_CENTER",
            "viewport" : {
               "northeast" : {
                  "lat" : 32.6705025,
                  "lng" : 51.25129293029149
               },
               "southwest" : {
                  "lat" : 32.6643429,
                  "lng" : 51.2485949697085
               }
            }
         },
         "partial_match" : true,
         "types" : [ "route" ]
      },
      {
         "address_components" : [
            {
               "long_name" : "Road",
               "short_name" : "Road",
               "types" : [ "route" ]
            },
            {
               "long_name" : "Pabna",
               "short_name" : "Pabna",
               "types" : [ "administrative_area_level_2", "political" ]
            },
            {
               "long_name" : "Rajshahi Division",
               "short_name" : "Rajshahi Division",
               "types" : [ "administrative_area_level_1", "political" ]
            },
            {
               "long_name" : "Bangladesh",
               "short_name" : "BD",
               "types" : [ "country", "political" ]
            }
         ],
         "formatted_address" : "Road, Bangladesh",
         "geometry" : {
            "bounds" : {
               "northeast" : {
                  "lat" : 24.12428,
                  "lng" : 89.12056889999999
               },
               "southwest" : {
                  "lat" : 24.1176227,
                  "lng" : 89.1119264
               }
            },
            "location" : {
               "lat" : 24.1209514,
               "lng" : 89.11624759999999
            },
            "location_type" : "GEOMETRIC_CENTER",
            "viewport" : {
               "northeast" : {
                  "lat" : 24.12428,
                  "lng" : 89.12056889999999
               },
               "southwest" : {
                  "lat" : 24.1176227,
                  "lng" : 89.1119264
               }
            }
         },
         "partial_match" : true,
         "types" : [ "route" ]
      },
      {
         "address_components" : [
            {
               "long_name" : "Road",
               "short_name" : "Road",
               "types" : [ "route" ]
            },
            {
               "long_name" : "Narasimhanaickenpalayam",
               "short_name" : "Narasimhanaickenpalayam",
               "types" : [ "sublocality_level_1", "sublocality", "political" ]
            },
            {
               "long_name" : "Gudalur",
               "short_name" : "Gudalur",
               "types" : [ "locality", "political" ]
            },
            {
               "long_name" : "Coimbatore",
               "short_name" : "Coimbatore",
               "types" : [ "administrative_area_level_2", "political" ]
            },
            {
               "long_name" : "Tamil Nadu",
               "short_name" : "TN",
               "types" : [ "administrative_area_level_1", "political" ]
            },
            {
               "long_name" : "India",
               "short_name" : "IN",
               "types" : [ "country", "political" ]
            },
            {
               "long_name" : "641031",
               "short_name" : "641031",
               "types" : [ "postal_code" ]
            }
         ],
         "formatted_address" : "Road, Narasimhanaickenpalayam, Gudalur, Tamil Nadu 641031, India",
         "geometry" : {
            "bounds" : {
               "northeast" : {
                  "lat" : 11.1161117,
                  "lng" : 76.93611779999999
               },
               "southwest" : {
                  "lat" : 11.1154448,
                  "lng" : 76.93568329999999
               }
            },
            "location" : {
               "lat" : 11.1154536,
               "lng" : 76.93611779999999
            },
            "location_type" : "GEOMETRIC_CENTER",
            "viewport" : {
               "northeast" : {
                  "lat" : 11.1171272302915,
                  "lng" : 76.9372495302915
               },
               "southwest" : {
                  "lat" : 11.1144292697085,
                  "lng" : 76.93455156970849
               }
            }
         },
         "partial_match" : true,
         "types" : [ "route" ]
      },
      {
         "address_components" : [
            {
               "long_name" : "C Road",
               "short_name" : "C Rd",
               "types" : [ "route" ]
            },
            {
               "long_name" : "Anandapuri",
               "short_name" : "Anandapuri",
               "types" : [ "sublocality_level_1", "sublocality", "political" ]
            },
            {
               "long_name" : "Barrackpore",
               "short_name" : "Barrackpore",
               "types" : [ "locality", "political" ]
            },
            {
               "long_name" : "North 24 Parganas",
               "short_name" : "North 24 Parganas",
               "types" : [ "administrative_area_level_2", "political" ]
            },
            {
               "long_name" : "West Bengal",
               "short_name" : "WB",
               "types" : [ "administrative_area_level_1", "political" ]
            },
            {
               "long_name" : "India",
               "short_name" : "IN",
               "types" : [ "country", "political" ]
            },
            {
               "long_name" : "700120",
               "short_name" : "700120",
               "types" : [ "postal_code" ]
            }
         ],
         "formatted_address" : "C Road, Anandapuri, Barrackpore, West Bengal 700120, India",
         "geometry" : {
            "bounds" : {
               "northeast" : {
                  "lat" : 22.7593676,
                  "lng" : 88.37769569999999
               },
               "southwest" : {
                  "lat" : 22.7588402,
                  "lng" : 88.3742074
               }
            },
            "location" : {
               "lat" : 22.7592409,
               "lng" : 88.3759522
            },
            "location_type" : "GEOMETRIC_CENTER",
            "viewport" : {
               "northeast" : {
                  "lat" : 22.7604528802915,
                  "lng" : 88.37769569999999
               },
               "southwest" : {
                  "lat" : 22.7577549197085,
                  "lng" : 88.3742074
               }
            }
         },
         "partial_match" : true,
         "types" : [ "route" ]
      },
      {
         "address_components" : [
            {
               "long_name" : "Road",
               "short_name" : "Road",
               "types" : [ "route" ]
            },
            {
               "long_name" : "Sirajganj",
               "short_name" : "Sirajganj",
               "types" : [ "administrative_area_level_2", "political" ]
            },
            {
               "long_name" : "Rajshahi Division",
               "short_name" : "Rajshahi Division",
               "types" : [ "administrative_area_level_1", "political" ]
            },
            {
               "long_name" : "Bangladesh",
               "short_name" : "BD",
               "types" : [ "country", "political" ]
            }
         ],
         "formatted_address" : "Road, Bangladesh",
         "geometry" : {
            "bounds" : {
               "northeast" : {
                  "lat" : 24.40301,
                  "lng" : 89.55016809999999
               },
               "southwest" : {
                  "lat" : 24.4022211,
                  "lng" : 89.5482811
               }
            },
            "location" : {
               "lat" : 24.4024946,
               "lng" : 89.5491019
            },
            "location_type" : "GEOMETRIC_CENTER",
            "viewport" : {
               "northeast" : {
                  "lat" : 24.4039645302915,
                  "lng" : 89.5505735802915
               },
               "southwest" : {
                  "lat" : 24.4012665697085,
                  "lng" : 89.54787561970849
               }
            }
         },
         "partial_match" : true,
         "types" : [ "route" ]
      },
      {
         "address_components" : [
            {
               "long_name" : "Road",
               "short_name" : "Road",
               "types" : [ "route" ]
            },
            {
               "long_name" : "Wayanad",
               "short_name" : "Wayanad",
               "types" : [ "administrative_area_level_2", "political" ]
            },
            {
               "long_name" : "Kerala",
               "short_name" : "KL",
               "types" : [ "administrative_area_level_1", "political" ]
            },
            {
               "long_name" : "India",
               "short_name" : "IN",
               "types" : [ "country", "political" ]
            },
            {
               "long_name" : "673576",
               "short_name" : "673576",
               "types" : [ "postal_code" ]
            }
         ],
         "formatted_address" : "Road, Kerala 673576, India",
         "geometry" : {
            "bounds" : {
               "northeast" : {
                  "lat" : 11.5646368,
                  "lng" : 76.0341708
               },
               "southwest" : {
                  "lat" : 11.5631132,
                  "lng" : 76.0332248
               }
            },
            "location" : {
               "lat" : 11.5639272,
               "lng" : 76.0335348
            },
            "location_type" : "GEOMETRIC_CENTER",
            "viewport" : {
               "northeast" : {
                  "lat" : 11.5652239802915,
                  "lng" : 76.03504678029151
               },
               "southwest" : {
                  "lat" : 11.5625260197085,
                  "lng" : 76.03234881970849
               }
            }
         },
         "partial_match" : true,
         "types" : [ "route" ]
      },
      {
         "address_components" : [
            {
               "long_name" : "C Road",
               "short_name" : "C Rd",
               "types" : [ "route" ]
            },
            {
               "long_name" : "Anandapuri",
               "short_name" : "Anandapuri",
               "types" : [ "sublocality_level_1", "sublocality", "political" ]
            },
            {
               "long_name" : "Kolkata",
               "short_name" : "Kolkata",
               "types" : [ "locality", "political" ]
            },
            {
               "long_name" : "North 24 Parganas",
               "short_name" : "North 24 Parganas",
               "types" : [ "administrative_area_level_2", "political" ]
            },
            {
               "long_name" : "West Bengal",
               "short_name" : "WB",
               "types" : [ "administrative_area_level_1", "political" ]
            },
            {
               "long_name" : "India",
               "short_name" : "IN",
               "types" : [ "country", "political" ]
            },
            {
               "long_name" : "700120",
               "short_name" : "700120",
               "types" : [ "postal_code" ]
            }
         ],
         "formatted_address" : "C Road, Anandapuri, Kolkata, West Bengal 700120, India",
         "geometry" : {
            "bounds" : {
               "northeast" : {
                  "lat" : 22.7598496,
                  "lng" : 88.37540159999999
               },
               "southwest" : {
                  "lat" : 22.7592754,
                  "lng" : 88.3743317
               }
            },
            "location" : {
               "lat" : 22.7597551,
               "lng" : 88.3750625
            },
            "location_type" : "GEOMETRIC_CENTER",
            "viewport" : {
               "northeast" : {
                  "lat" : 22.7609114802915,
                  "lng" : 88.3762156302915
               },
               "southwest" : {
                  "lat" : 22.7582135197085,
                  "lng" : 88.37351766970849
               }
            }
         },
         "partial_match" : true,
         "types" : [ "route" ]
      },
      {
         "address_components" : [
            {
               "long_name" : "A Road",
               "short_name" : "A Rd",
               "types" : [ "route" ]
            },
            {
               "long_name" : "Nebraska",
               "short_name" : "NE",
               "types" : [ "administrative_area_level_1", "political" ]
            },
            {
               "long_name" : "United States",
               "short_name" : "US",
               "types" : [ "country", "political" ]
            }
         ],
         "formatted_address" : "A Road, Nebraska, USA",
         "geometry" : {
            "bounds" : {
               "northeast" : {
                  "lat" : 41.3961839,
                  "lng" : -97.3679102
               },
               "southwest" : {
                  "lat" : 41.0469425,
                  "lng" : -97.3684832
               }
            },
            "location" : {
               "lat" : 41.22107889999999,
               "lng" : -97.3680203
            },
            "location_type" : "GEOMETRIC_CENTER",
            "viewport" : {
               "northeast" : {
                  "lat" : 41.3961839,
                  "lng" : -97.3668477197085
               },
               "southwest" : {
                  "lat" : 41.0469425,
                  "lng" : -97.36954568029151
               }
            }
         },
         "partial_match" : true,
         "types" : [ "route" ]
      },
      {
         "address_components" : [
            {
               "long_name" : "Road A",
               "short_name" : "Rd A",
               "types" : [ "route" ]
            },
            {
               "long_name" : "Kansas",
               "short_name" : "KS",
               "types" : [ "administrative_area_level_1", "political" ]
            },
            {
               "long_name" : "United States",
               "short_name" : "US",
               "types" : [ "country", "political" ]
            }
         ],
         "formatted_address" : "Road A, Kansas, USA",
         "geometry" : {
            "bounds" : {
               "northeast" : {
                  "lat" : 39.5690622,
                  "lng" : -101.4077816
               },
               "southwest" : {
                  "lat" : 39.56818519999999,
                  "lng" : -102.0394607
               }
            },
            "location" : {
               "lat" : 39.568469,
               "lng" : -101.72391
            },
            "location_type" : "GEOMETRIC_CENTER",
            "viewport" : {
               "northeast" : {
                  "lat" : 39.56997268029149,
                  "lng" : -101.4077816
               },
               "southwest" : {
                  "lat" : 39.56727471970849,
                  "lng" : -102.0394607
               }
            }
         },
         "partial_match" : true,
         "types" : [ "route" ]
      },
      {
         "address_components" : [
            {
               "long_name" : "P Road",
               "short_name" : "P Rd",
               "types" : [ "route" ]
            },
            {
               "long_name" : "Nebraska",
               "short_name" : "NE",
               "types" : [ "administrative_area_level_1", "political" ]
            },
            {
               "long_name" : "United States",
               "short_name" : "US",
               "types" : [ "country", "political" ]
            }
         ],
         "formatted_address" : "P Road, Nebraska, USA",
         "geometry" : {
            "bounds" : {
               "northeast" : {
                  "lat" : 40.554099,
                  "lng" : -98.7240619
               },
               "southwest" : {
                  "lat" : 40.5531636,
                  "lng" : -99.178776
               }
            },
            "location" : {
               "lat" : 40.5538476,
               "lng" : -98.95180879999999
            },
            "location_type" : "GEOMETRIC_CENTER",
            "viewport" : {
               "northeast" : {
                  "lat" : 40.5549802802915,
                  "lng" : -98.7240619
               },
               "southwest" : {
                  "lat" : 40.5522823197085,
                  "lng" : -99.178776
               }
            }
         },
         "partial_match" : true,
         "types" : [ "route" ]
      },
      {
         "address_components" : [
            {
               "long_name" : "Road P",
               "short_name" : "Rd P",
               "types" : [ "route" ]
            },
            {
               "long_name" : "Hugoton",
               "short_name" : "Hugoton",
               "types" : [ "locality", "political" ]
            },
            {
               "long_name" : "Stevens County",
               "short_name" : "Stevens County",
               "types" : [ "administrative_area_level_2", "political" ]
            },
            {
               "long_name" : "Kansas",
               "short_name" : "KS",
               "types" : [ "administrative_area_level_1", "political" ]
            },
            {
               "long_name" : "United States",
               "short_name" : "US",
               "types" : [ "country", "political" ]
            },
            {
               "long_name" : "67951",
               "short_name" : "67951",
               "types" : [ "postal_code" ]
            }
         ],
         "formatted_address" : "Road P, Hugoton, KS 67951, USA",
         "geometry" : {
            "bounds" : {
               "northeast" : {
                  "lat" : 37.18488019999999,
                  "lng" : -101.1399785
               },
               "southwest" : {
                  "lat" : 37.1839434,
                  "lng" : -101.5557482
               }
            },
            "location" : {
               "lat" : 37.1844221,
               "lng" : -101.354242
            },
            "location_type" : "GEOMETRIC_CENTER",
            "viewport" : {
               "northeast" : {
                  "lat" : 37.1857607802915,
                  "lng" : -101.1399785
               },
               "southwest" : {
                  "lat" : 37.1830628197085,
                  "lng" : -101.5557482
               }
            }
         },
         "partial_match" : true,
         "types" : [ "route" ]
      },
      {
         "address_components" : [
            {
               "long_name" : "Avenida C",
               "short_name" : "Av C",
               "types" : [ "route" ]
            },
            {
               "long_name" : "Ventanilla",
               "short_name" : "Ventanilla",
               "types" : [ "locality", "political" ]
            },
            {
               "long_name" : "Callao",
               "short_name" : "Callao",
               "types" : [ "administrative_area_level_2", "political" ]
            },
            {
               "long_name" : "Callao",
               "short_name" : "Callao",
               "types" : [ "administrative_area_level_1", "political" ]
            },
            {
               "long_name" : "Peru",
               "short_name" : "PE",
               "types" : [ "country", "political" ]
            }
         ],
         "formatted_address" : "Avenida C, Ventanilla, Peru",
         "geometry" : {
            "bounds" : {
               "northeast" : {
                  "lat" : -11.8780795,
                  "lng" : -77.09728939999999
               },
               "southwest" : {
                  "lat" : -11.8818337,
                  "lng" : -77.1046716
               }
            },
            "location" : {
               "lat" : -11.8800168,
               "lng" : -77.10090959999999
            },
            "location_type" : "GEOMETRIC_CENTER",
            "viewport" : {
               "northeast" : {
                  "lat" : -11.8780795,
                  "lng" : -77.09728939999999
               },
               "southwest" : {
                  "lat" : -11.8818337,
                  "lng" : -77.1046716
               }
            }
         },
         "partial_match" : true,
         "types" : [ "route" ]
      },
      {
         "address_components" : [
            {
               "long_name" : "A",
               "short_name" : "A",
               "types" : [ "premise" ]
            },
            {
               "long_name" : "Nikol Gam Road",
               "short_name" : "Nikol Gam Rd",
               "types" : [ "route" ]
            },
            {
               "long_name" : "Suradhara Society",
               "short_name" : "Suradhara Society",
               "types" : [ "neighborhood", "political" ]
            },
            {
               "long_name" : "Khodiar Nagar",
               "short_name" : "Khodiar Nagar",
               "types" : [ "sublocality_level_1", "sublocality", "political" ]
            },
            {
               "long_name" : "Ahmedabad",
               "short_name" : "Ahmedabad",
               "types" : [ "locality", "political" ]
            },
            {
               "long_name" : "Amdavad",
               "short_name" : "Amdavad",
               "types" : [ "administrative_area_level_2", "political" ]
            },
            {
               "long_name" : "Gujarat",
               "short_name" : "GJ",
               "types" : [ "administrative_area_level_1", "political" ]
            },
            {
               "long_name" : "India",
               "short_name" : "IN",
               "types" : [ "country", "political" ]
            },
            {
               "long_name" : "382350",
               "short_name" : "382350",
               "types" : [ "postal_code" ]
            }
         ],
         "formatted_address" : "A, Nikol Gam Road, Suradhara Society, Khodiar Nagar, Ahmedabad, Gujarat 382350, India",
         "geometry" : {
            "bounds" : {
               "northeast" : {
                  "lat" : 23.0383007,
                  "lng" : 72.64379679999999
               },
               "southwest" : {
                  "lat" : 23.0377884,
                  "lng" : 72.6429711
               }
            },
            "location" : {
               "lat" : 23.0379196,
               "lng" : 72.6431123
            },
            "location_type" : "ROOFTOP",
            "viewport" : {
               "northeast" : {
                  "lat" : 23.0393935302915,
                  "lng" : 72.6447329302915
               },
               "southwest" : {
                  "lat" : 23.0366955697085,
                  "lng" : 72.64203496970849
               }
            }
         },
         "partial_match" : true,
         "types" : [ "premise" ]
      },
      {
         "address_components" : [
            {
               "long_name" : "Calle A",
               "short_name" : "Calle A",
               "types" : [ "route" ]
            },
            {
               "long_name" : "El Cuadro",
               "short_name" : "El Cuadro",
               "types" : [ "neighborhood", "political" ]
            },
            {
               "long_name" : "Chaclacayo",
               "short_name" : "Chaclacayo",
               "types" : [ "locality", "political" ]
            },
            {
               "long_name" : "Lima",
               "short_name" : "Lima",
               "types" : [ "administrative_area_level_2", "political" ]
            },
            {
               "long_name" : "Lima",
               "short_name" : "Lima",
               "types" : [ "administrative_area_level_1", "political" ]
            },
            {
               "long_name" : "Peru",
               "short_name" : "PE",
               "types" : [ "country", "political" ]
            }
         ],
         "formatted_address" : "Calle A, Chaclacayo, Peru",
         "geometry" : {
            "bounds" : {
               "northeast" : {
                  "lat" : -11.9867898,
                  "lng" : -76.79647489999999
               },
               "southwest" : {
                  "lat" : -11.9869315,
                  "lng" : -76.79873810000001
               }
            },
            "location" : {
               "lat" : -11.9868652,
               "lng" : -76.7976712
            },
            "location_type" : "GEOMETRIC_CENTER",
            "viewport" : {
               "northeast" : {
                  "lat" : -11.9855116697085,
                  "lng" : -76.79625751970849
               },
               "southwest" : {
                  "lat" : -11.9882096302915,
                  "lng" : -76.7989554802915
               }
            }
         },
         "partial_match" : true,
         "types" : [ "route" ]
      },
      {
         "address_components" : [
            {
               "long_name" : "C Avenue",
               "short_name" : "C Ave",
               "types" : [ "route" ]
            },
            {
               "long_name" : "Valley Mills",
               "short_name" : "Valley Mills",
               "types" : [ "locality", "political" ]
            },
            {
               "long_name" : "Bosque County",
               "short_name" : "Bosque County",
               "types" : [ "administrative_area_level_2", "political" ]
            },
            {
               "long_name" : "Texas",
               "short_name" : "TX",
               "types" : [ "administrative_area_level_1", "political" ]
            },
            {
               "long_name" : "United States",
               "short_name" : "US",
               "types" : [ "country", "political" ]
            },
            {
               "long_name" : "76689",
               "short_name" : "76689",
               "types" : [ "postal_code" ]
            }
         ],
         "formatted_address" : "C Avenue, Valley Mills, TX 76689, USA",
         "geometry" : {
            "bounds" : {
               "northeast" : {
                  "lat" : 31.6608944,
                  "lng" : -97.46294279999999
               },
               "southwest" : {
                  "lat" : 31.6564223,
                  "lng" : -97.4787927
               }
            },
            "location" : {
               "lat" : 31.6587406,
               "lng" : -97.4707842
            },
            "location_type" : "GEOMETRIC_CENTER",
            "viewport" : {
               "northeast" : {
                  "lat" : 31.6608944,
                  "lng" : -97.46294279999999
               },
               "southwest" : {
                  "lat" : 31.6564223,
                  "lng" : -97.4787927
               }
            }
         },
         "partial_match" : true,
         "types" : [ "route" ]
      },
      {
         "address_components" : [
            {
               "long_name" : "C Avenue",
               "short_name" : "C Ave",
               "types" : [ "route" ]
            },
            {
               "long_name" : "Arlington",
               "short_name" : "Arlington",
               "types" : [ "locality", "political" ]
            },
            {
               "long_name" : "Fayette County",
               "short_name" : "Fayette County",
               "types" : [ "administrative_area_level_2", "political" ]
            },
            {
               "long_name" : "Iowa",
               "short_name" : "IA",
               "types" : [ "administrative_area_level_1", "political" ]
            },
            {
               "long_name" : "United States",
               "short_name" : "US",
               "types" : [ "country", "political" ]
            },
            {
               "long_name" : "50606",
               "short_name" : "50606",
               "types" : [ "postal_code" ]
            }
         ],
         "formatted_address" : "C Avenue, Arlington, IA 50606, USA",
         "geometry" : {
            "bounds" : {
               "northeast" : {
                  "lat" : 42.801719,
                  "lng" : -91.64555729999999
               },
               "southwest" : {
                  "lat" : 42.6436826,
                  "lng" : -91.6476668
               }
            },
            "location" : {
               "lat" : 42.7240001,
               "lng" : -91.6458287
            },
            "location_type" : "GEOMETRIC_CENTER",
            "viewport" : {
               "northeast" : {
                  "lat" : 42.801719,
                  "lng" : -91.64526306970849
               },
               "southwest" : {
                  "lat" : 42.6436826,
                  "lng" : -91.6479610302915
               }
            }
         },
         "partial_match" : true,
         "types" : [ "route" ]
      }
   ],
   "status" : "OK"
}
