{
   "results" : [
      {
         "address_components" : [
            {
               "long_name" : "A P C Road",
               "short_name" : "A P C Road",
               "types" : [ "route" ]
            },
            {
               "long_name" : "Ashoknagar",
               "short_name" : "Ashoknagar",
               "types" : [ "locality", "political" ]
            },
            {
               "long_name" : "North 24 Parganas",
               "short_name" : "North 24 Parganas",
               "types" : [ "administrative_area_level_2", "political" ]
            },
            {
               "long_name" : "West Bengal",
               "short_name" : "WB",
               "types" : [ "administrative_area_level_1", "political" ]
            },
            {
               "long_name" : "India",
               "short_name" : "IN",
               "types" : [ "country", "political" ]
            }
         ],
         "formatted_address" : "A P C Road, Ashoknagar, West Bengal, India",
         "geometry" : {
            "bounds" : {
               "northeast" : {
                  "lat" : 22.8534814,
                  "lng" : 88.6285398
               },
               "southwest" : {
                  "lat" : 22.848616,
                  "lng" : 88.6265641
               }
            },
            "location" : {
               "lat" : 22.8493856,
               "lng" : 88.6275644
            },
            "location_type" : "GEOMETRIC_CENTER",
            "viewport" : {
               "northeast" : {
                  "lat" : 22.8534814,
                  "lng" : 88.62890093029151
               },
               "southwest" : {
                  "lat" : 22.848616,
                  "lng" : 88.62620296970849
               }
            }
         },
         "types" : [ "route" ]
      },
      {
         "address_components" : [
            {
               "long_name" : "Apc Road",
               "short_name" : "Apc Rd",
               "types" : [ "route" ]
            },
            {
               "long_name" : "Kwazakele 2",
               "short_name" : "Kwazakele 2",
               "types" : [ "sublocality_level_1", "sublocality", "political" ]
            },
            {
               "long_name" : "Ibhayi",
               "short_name" : "Ibhayi",
               "types" : [ "locality", "political" ]
            },
            {
               "long_name" : "Port Elizabeth",
               "short_name" : "Port Elizabeth",
               "types" : [ "administrative_area_level_2", "political" ]
            },
            {
               "long_name" : "Eastern Cape",
               "short_name" : "EC",
               "types" : [ "administrative_area_level_1", "political" ]
            },
            {
               "long_name" : "South Africa",
               "short_name" : "ZA",
               "types" : [ "country", "political" ]
            },
            {
               "long_name" : "6205",
               "short_name" : "6205",
               "types" : [ "postal_code" ]
            }
         ],
         "formatted_address" : "Apc Road, Ibhayi, 6205, South Africa",
         "geometry" : {
            "bounds" : {
               "northeast" : {
                  "lat" : -33.868744,
                  "lng" : 25.5861749
               },
               "southwest" : {
                  "lat" : -33.8709456,
                  "lng" : 25.582406
               }
            },
            "location" : {
               "lat" : -33.869552,
               "lng" : 25.5847279
            },
            "location_type" : "GEOMETRIC_CENTER",
            "viewport" : {
               "northeast" : {
                  "lat" : -33.8684958197085,
                  "lng" : 25.5861749
               },
               "southwest" : {
                  "lat" : -33.8711937802915,
                  "lng" : 25.582406
               }
            }
         },
         "types" : [ "route" ]
      },
      {
         "address_components" : [
            {
               "long_name" : "APC Road",
               "short_name" : "APC Rd",
               "types" : [ "route" ]
            },
            {
               "long_name" : "Thambiluvil",
               "short_name" : "Thambiluvil",
               "types" : [ "locality", "political" ]
            },
            {
               "long_name" : "Ampara",
               "short_name" : "Ampara",
               "types" : [ "administrative_area_level_2", "political" ]
            },
            {
               "long_name" : "Eastern Province",
               "short_name" : "Eastern Province",
               "types" : [ "administrative_area_level_1", "political" ]
            },
            {
               "long_name" : "Sri Lanka",
               "short_name" : "LK",
               "types" : [ "country", "political" ]
            }
         ],
         "formatted_address" : "APC Road, Thambiluvil, Sri Lanka",
         "geometry" : {
            "bounds" : {
               "northeast" : {
                  "lat" : 7.134265699999999,
                  "lng" : 81.85326619999999
               },
               "southwest" : {
                  "lat" : 7.132702099999999,
                  "lng" : 81.8515804
               }
            },
            "location" : {
               "lat" : 7.1335631,
               "lng" : 81.85234489999999
            },
            "location_type" : "GEOMETRIC_CENTER",
            "viewport" : {
               "northeast" : {
                  "lat" : 7.134832880291502,
                  "lng" : 81.85377228029151
               },
               "southwest" : {
                  "lat" : 7.132134919708498,
                  "lng" : 81.8510743197085
               }
            }
         },
         "types" : [ "route" ]
      },
      {
         "address_components" : [
            {
               "long_name" : "North A P C Road",
               "short_name" : "N A P C Rd",
               "types" : [ "route" ]
            },
            {
               "long_name" : "Jackson",
               "short_name" : "Jackson",
               "types" : [ "locality", "political" ]
            },
            {
               "long_name" : "Ocean County",
               "short_name" : "Ocean County",
               "types" : [ "administrative_area_level_2", "political" ]
            },
            {
               "long_name" : "New Jersey",
               "short_name" : "NJ",
               "types" : [ "administrative_area_level_1", "political" ]
            },
            {
               "long_name" : "United States",
               "short_name" : "US",
               "types" : [ "country", "political" ]
            },
            {
               "long_name" : "08527",
               "short_name" : "08527",
               "types" : [ "postal_code" ]
            }
         ],
         "formatted_address" : "North A P C Road, Jackson, NJ 08527, USA",
         "geometry" : {
            "bounds" : {
               "northeast" : {
                  "lat" : 40.0240722,
                  "lng" : -74.40610339999999
               },
               "southwest" : {
                  "lat" : 40.0202524,
                  "lng" : -74.4115686
               }
            },
            "location" : {
               "lat" : 40.0240722,
               "lng" : -74.4115686
            },
            "location_type" : "GEOMETRIC_CENTER",
            "viewport" : {
               "northeast" : {
                  "lat" : 40.0240722,
                  "lng" : -74.40610339999999
               },
               "southwest" : {
                  "lat" : 40.0202524,
                  "lng" : -74.4115686
               }
            }
         },
         "partial_match" : true,
         "types" : [ "route" ]
      },
      {
         "address_components" : [
            {
               "long_name" : "A.P.C. Road",
               "short_name" : "A.P.C. Rd",
               "types" : [ "route" ]
            },
            {
               "long_name" : "Kolkata",
               "short_name" : "Kolkata",
               "types" : [ "locality", "political" ]
            },
            {
               "long_name" : "Kolkata",
               "short_name" : "Kolkata",
               "types" : [ "administrative_area_level_2", "political" ]
            },
            {
               "long_name" : "West Bengal",
               "short_name" : "WB",
               "types" : [ "administrative_area_level_1", "political" ]
            },
            {
               "long_name" : "India",
               "short_name" : "IN",
               "types" : [ "country", "political" ]
            }
         ],
         "formatted_address" : "A.P.C. Road, Kolkata, West Bengal, India",
         "geometry" : {
            "bounds" : {
               "northeast" : {
                  "lat" : 22.5946691,
                  "lng" : 88.3751745
               },
               "southwest" : {
                  "lat" : 22.5715566,
                  "lng" : 88.3640173
               }
            },
            "location" : {
               "lat" : 22.584751,
               "lng" : 88.37446199999999
            },
            "location_type" : "GEOMETRIC_CENTER",
            "viewport" : {
               "northeast" : {
                  "lat" : 22.5946691,
                  "lng" : 88.3751745
               },
               "southwest" : {
                  "lat" : 22.5715566,
                  "lng" : 88.3640173
               }
            }
         },
         "types" : [ "route" ]
      },
      {
         "address_components" : [
            {
               "long_name" : "APC Road",
               "short_name" : "APC Road",
               "types" : [ "route" ]
            },
            {
               "long_name" : "Sri Lanka",
               "short_name" : "LK",
               "types" : [ "country", "political" ]
            }
         ],
         "formatted_address" : "APC Road, Sri Lanka",
         "geometry" : {
            "bounds" : {
               "northeast" : {
                  "lat" : 7.3463316,
                  "lng" : 81.8602896
               },
               "southwest" : {
                  "lat" : 7.3451425,
                  "lng" : 81.84641049999999
               }
            },
            "location" : {
               "lat" : 7.345737000000001,
               "lng" : 81.85334999999999
            },
            "location_type" : "GEOMETRIC_CENTER",
            "viewport" : {
               "northeast" : {
                  "lat" : 7.347086030291503,
                  "lng" : 81.8602896
               },
               "southwest" : {
                  "lat" : 7.344388069708499,
                  "lng" : 81.84641049999999
               }
            }
         },
         "types" : [ "route" ]
      }
   ],
   "status" : "OK"
}
