{
   "results" : [
      {
         "address_components" : [
            {
               "long_name" : "Basanta Lal Saha Road",
               "short_name" : "BL Saha Road",
               "types" : [ "route" ]
            },
            {
               "long_name" : "Kolkata",
               "short_name" : "Kolkata",
               "types" : [ "locality", "political" ]
            },
            {
               "long_name" : "Kolkata",
               "short_name" : "Kolkata",
               "types" : [ "administrative_area_level_2", "political" ]
            },
            {
               "long_name" : "West Bengal",
               "short_name" : "WB",
               "types" : [ "administrative_area_level_1", "political" ]
            },
            {
               "long_name" : "India",
               "short_name" : "IN",
               "types" : [ "country", "political" ]
            }
         ],
         "formatted_address" : "Basanta Lal Saha Road, Kolkata, West Bengal, India",
         "geometry" : {
            "bounds" : {
               "northeast" : {
                  "lat" : 22.5034898,
                  "lng" : 88.34082699999999
               },
               "southwest" : {
                  "lat" : 22.487701,
                  "lng" : 88.3350904
               }
            },
            "location" : {
               "lat" : 22.4956097,
               "lng" : 88.3395816
            },
            "location_type" : "GEOMETRIC_CENTER",
            "viewport" : {
               "northeast" : {
                  "lat" : 22.5034898,
                  "lng" : 88.34082699999999
               },
               "southwest" : {
                  "lat" : 22.487701,
                  "lng" : 88.3350904
               }
            }
         },
         "partial_match" : true,
         "types" : [ "route" ]
      },
      {
         "address_components" : [
            {
               "long_name" : "Saha",
               "short_name" : "Saha",
               "types" : [ "route" ]
            },
            {
               "long_name" : "Qazvin",
               "short_name" : "Qazvin",
               "types" : [ "locality", "political" ]
            },
            {
               "long_name" : "Qazvin",
               "short_name" : "Qazvin",
               "types" : [ "administrative_area_level_1", "political" ]
            },
            {
               "long_name" : "Iran",
               "short_name" : "IR",
               "types" : [ "country", "political" ]
            }
         ],
         "formatted_address" : "Qazvin, Qazvin, Saha, Iran",
         "geometry" : {
            "bounds" : {
               "northeast" : {
                  "lat" : 36.2787645,
                  "lng" : 50.0123003
               },
               "southwest" : {
                  "lat" : 36.2787018,
                  "lng" : 50.0118631
               }
            },
            "location" : {
               "lat" : 36.2787645,
               "lng" : 50.0118631
            },
            "location_type" : "GEOMETRIC_CENTER",
            "viewport" : {
               "northeast" : {
                  "lat" : 36.2800821302915,
                  "lng" : 50.0134306802915
               },
               "southwest" : {
                  "lat" : 36.2773841697085,
                  "lng" : 50.0107327197085
               }
            }
         },
         "partial_match" : true,
         "types" : [ "route" ]
      },
      {
         "address_components" : [
            {
               "long_name" : "Impasse Saha",
               "short_name" : "Impasse Saha",
               "types" : [ "route" ]
            },
            {
               "long_name" : "Pointe-à-Pitre",
               "short_name" : "Pointe-à-Pitre",
               "types" : [ "locality", "political" ]
            },
            {
               "long_name" : "Les Abymes",
               "short_name" : "Les Abymes",
               "types" : [ "administrative_area_level_2", "political" ]
            },
            {
               "long_name" : "Pointe-à-Pitre",
               "short_name" : "Pointe-à-Pitre",
               "types" : [ "administrative_area_level_1", "political" ]
            },
            {
               "long_name" : "Guadeloupe",
               "short_name" : "GP",
               "types" : [ "country", "political" ]
            }
         ],
         "formatted_address" : "Impasse Saha, Pointe-à-Pitre, Guadeloupe",
         "geometry" : {
            "bounds" : {
               "northeast" : {
                  "lat" : 16.2349759,
                  "lng" : -61.513149
               },
               "southwest" : {
                  "lat" : 16.2343597,
                  "lng" : -61.5138671
               }
            },
            "location" : {
               "lat" : 16.2345088,
               "lng" : -61.5136554
            },
            "location_type" : "GEOMETRIC_CENTER",
            "viewport" : {
               "northeast" : {
                  "lat" : 16.2360167802915,
                  "lng" : -61.51215906970849
               },
               "southwest" : {
                  "lat" : 16.23331881970849,
                  "lng" : -61.5148570302915
               }
            }
         },
         "partial_match" : true,
         "types" : [ "route" ]
      },
      {
         "address_components" : [
            {
               "long_name" : "Saha Street",
               "short_name" : "Saha St",
               "types" : [ "route" ]
            },
            {
               "long_name" : "Baghdad",
               "short_name" : "Baghdad",
               "types" : [ "locality", "political" ]
            },
            {
               "long_name" : "Adhamiyah",
               "short_name" : "Adhamiyah",
               "types" : [ "administrative_area_level_2", "political" ]
            },
            {
               "long_name" : "Baghdād",
               "short_name" : "Baghdād",
               "types" : [ "administrative_area_level_1", "political" ]
            },
            {
               "long_name" : "Iraq",
               "short_name" : "IQ",
               "types" : [ "country", "political" ]
            }
         ],
         "formatted_address" : "Saha Street, Baghdad, Iraq",
         "geometry" : {
            "bounds" : {
               "northeast" : {
                  "lat" : 33.2390301,
                  "lng" : 44.3926574
               },
               "southwest" : {
                  "lat" : 33.2234509,
                  "lng" : 44.3852222
               }
            },
            "location" : {
               "lat" : 33.2307118,
               "lng" : 44.3881994
            },
            "location_type" : "GEOMETRIC_CENTER",
            "viewport" : {
               "northeast" : {
                  "lat" : 33.2390301,
                  "lng" : 44.3926574
               },
               "southwest" : {
                  "lat" : 33.2234509,
                  "lng" : 44.3852222
               }
            }
         },
         "partial_match" : true,
         "types" : [ "route" ]
      },
      {
         "address_components" : [
            {
               "long_name" : "Saha tee",
               "short_name" : "Saha tee",
               "types" : [ "route" ]
            },
            {
               "long_name" : "Loo",
               "short_name" : "Loo",
               "types" : [ "locality", "political" ]
            },
            {
               "long_name" : "Jõelähtme Parish",
               "short_name" : "Jõelähtme Parish",
               "types" : [ "administrative_area_level_2", "political" ]
            },
            {
               "long_name" : "Harjumaa",
               "short_name" : "Harjumaa",
               "types" : [ "administrative_area_level_1", "political" ]
            },
            {
               "long_name" : "Estonia",
               "short_name" : "EE",
               "types" : [ "country", "political" ]
            }
         ],
         "formatted_address" : "Saha tee, Loo, Harjumaa, Estonia",
         "geometry" : {
            "bounds" : {
               "northeast" : {
                  "lat" : 59.4368823,
                  "lng" : 24.9927601
               },
               "southwest" : {
                  "lat" : 59.42549500000001,
                  "lng" : 24.9414578
               }
            },
            "location" : {
               "lat" : 59.43062390000001,
               "lng" : 24.9669374
            },
            "location_type" : "GEOMETRIC_CENTER",
            "viewport" : {
               "northeast" : {
                  "lat" : 59.4368823,
                  "lng" : 24.9927601
               },
               "southwest" : {
                  "lat" : 59.42549500000001,
                  "lng" : 24.9414578
               }
            }
         },
         "partial_match" : true,
         "types" : [ "route" ]
      },
      {
         "address_components" : [
            {
               "long_name" : "Saha Road",
               "short_name" : "Saha Rd",
               "types" : [ "route" ]
            },
            {
               "long_name" : "Sealy",
               "short_name" : "Sealy",
               "types" : [ "locality", "political" ]
            },
            {
               "long_name" : "Austin County",
               "short_name" : "Austin County",
               "types" : [ "administrative_area_level_2", "political" ]
            },
            {
               "long_name" : "Texas",
               "short_name" : "TX",
               "types" : [ "administrative_area_level_1", "political" ]
            },
            {
               "long_name" : "United States",
               "short_name" : "US",
               "types" : [ "country", "political" ]
            },
            {
               "long_name" : "77474",
               "short_name" : "77474",
               "types" : [ "postal_code" ]
            }
         ],
         "formatted_address" : "Saha Road, Sealy, TX 77474, USA",
         "geometry" : {
            "bounds" : {
               "northeast" : {
                  "lat" : 29.758872,
                  "lng" : -96.06874499999999
               },
               "southwest" : {
                  "lat" : 29.74962,
                  "lng" : -96.0808
               }
            },
            "location" : {
               "lat" : 29.755158,
               "lng" : -96.0745907
            },
            "location_type" : "GEOMETRIC_CENTER",
            "viewport" : {
               "northeast" : {
                  "lat" : 29.758872,
                  "lng" : -96.06874499999999
               },
               "southwest" : {
                  "lat" : 29.74962,
                  "lng" : -96.0808
               }
            }
         },
         "partial_match" : true,
         "types" : [ "route" ]
      },
      {
         "address_components" : [
            {
               "long_name" : "Sahatie",
               "short_name" : "Sahatie",
               "types" : [ "route" ]
            },
            {
               "long_name" : "Hyrylä",
               "short_name" : "Hyrylä",
               "types" : [ "neighborhood", "political" ]
            },
            {
               "long_name" : "Tuusula",
               "short_name" : "Tuusula",
               "types" : [ "locality", "political" ]
            },
            {
               "long_name" : "Tuusula",
               "short_name" : "Tuusula",
               "types" : [ "administrative_area_level_3", "political" ]
            },
            {
               "long_name" : "Helsinki",
               "short_name" : "Helsinki",
               "types" : [ "administrative_area_level_2", "political" ]
            },
            {
               "long_name" : "Uusimaa",
               "short_name" : "Uusimaa",
               "types" : [ "administrative_area_level_1", "political" ]
            },
            {
               "long_name" : "Finland",
               "short_name" : "FI",
               "types" : [ "country", "political" ]
            },
            {
               "long_name" : "04300",
               "short_name" : "04300",
               "types" : [ "postal_code" ]
            }
         ],
         "formatted_address" : "Sahatie, 04300 Tuusula, Finland",
         "geometry" : {
            "bounds" : {
               "northeast" : {
                  "lat" : 60.39091299999999,
                  "lng" : 25.0247331
               },
               "southwest" : {
                  "lat" : 60.3886903,
                  "lng" : 25.01854
               }
            },
            "location" : {
               "lat" : 60.3889053,
               "lng" : 25.0210559
            },
            "location_type" : "GEOMETRIC_CENTER",
            "viewport" : {
               "northeast" : {
                  "lat" : 60.39115063029151,
                  "lng" : 25.0247331
               },
               "southwest" : {
                  "lat" : 60.38845266970849,
                  "lng" : 25.01854
               }
            }
         },
         "partial_match" : true,
         "types" : [ "route" ]
      },
      {
         "address_components" : [
            {
               "long_name" : "Saha Sokak",
               "short_name" : "Saha Sk",
               "types" : [ "route" ]
            },
            {
               "long_name" : "Cüneytbey Mh.",
               "short_name" : "Cüneytbey Mh.",
               "types" : [ "neighborhood", "political" ]
            },
            {
               "long_name" : "Menderes",
               "short_name" : "Menderes",
               "types" : [ "locality", "political" ]
            },
            {
               "long_name" : "Menderes",
               "short_name" : "Menderes",
               "types" : [ "administrative_area_level_2", "political" ]
            },
            {
               "long_name" : "İzmir",
               "short_name" : "İzmir",
               "types" : [ "administrative_area_level_1", "political" ]
            },
            {
               "long_name" : "Turkey",
               "short_name" : "TR",
               "types" : [ "country", "political" ]
            },
            {
               "long_name" : "35470",
               "short_name" : "35470",
               "types" : [ "postal_code" ]
            }
         ],
         "formatted_address" : "Cüneytbey Mh., Saha Sokak, 35470 Menderes/İzmir, Turkey",
         "geometry" : {
            "bounds" : {
               "northeast" : {
                  "lat" : 38.250486,
                  "lng" : 27.133207
               },
               "southwest" : {
                  "lat" : 38.248035,
                  "lng" : 27.131195
               }
            },
            "location" : {
               "lat" : 38.249336,
               "lng" : 27.131941
            },
            "location_type" : "GEOMETRIC_CENTER",
            "viewport" : {
               "northeast" : {
                  "lat" : 38.2506094802915,
                  "lng" : 27.1335499802915
               },
               "southwest" : {
                  "lat" : 38.2479115197085,
                  "lng" : 27.1308520197085
               }
            }
         },
         "partial_match" : true,
         "types" : [ "route" ]
      },
      {
         "address_components" : [
            {
               "long_name" : "Sahatie",
               "short_name" : "Sahatie",
               "types" : [ "route" ]
            },
            {
               "long_name" : "Jämsä",
               "short_name" : "Jämsä",
               "types" : [ "administrative_area_level_3", "political" ]
            },
            {
               "long_name" : "Finland",
               "short_name" : "FI",
               "types" : [ "country", "political" ]
            }
         ],
         "formatted_address" : "Sahatie, Jämsä, Finland",
         "geometry" : {
            "bounds" : {
               "northeast" : {
                  "lat" : 61.8168391,
                  "lng" : 25.204977
               },
               "southwest" : {
                  "lat" : 61.8139481,
                  "lng" : 25.1820373
               }
            },
            "location" : {
               "lat" : 61.816261,
               "lng" : 25.1930016
            },
            "location_type" : "GEOMETRIC_CENTER",
            "viewport" : {
               "northeast" : {
                  "lat" : 61.8168391,
                  "lng" : 25.204977
               },
               "southwest" : {
                  "lat" : 61.8139481,
                  "lng" : 25.1820373
               }
            }
         },
         "partial_match" : true,
         "types" : [ "route" ]
      },
      {
         "address_components" : [
            {
               "long_name" : "Sahatie",
               "short_name" : "Sahatie",
               "types" : [ "route" ]
            },
            {
               "long_name" : "Iitti",
               "short_name" : "Iitti",
               "types" : [ "administrative_area_level_3", "political" ]
            },
            {
               "long_name" : "Finland",
               "short_name" : "FI",
               "types" : [ "country", "political" ]
            },
            {
               "long_name" : "47400",
               "short_name" : "47400",
               "types" : [ "postal_code" ]
            }
         ],
         "formatted_address" : "Sahatie, 47400 Iitti, Finland",
         "geometry" : {
            "bounds" : {
               "northeast" : {
                  "lat" : 60.88657929999999,
                  "lng" : 26.3348572
               },
               "southwest" : {
                  "lat" : 60.88434520000001,
                  "lng" : 26.3172101
               }
            },
            "location" : {
               "lat" : 60.885484,
               "lng" : 26.3258095
            },
            "location_type" : "GEOMETRIC_CENTER",
            "viewport" : {
               "northeast" : {
                  "lat" : 60.8868112302915,
                  "lng" : 26.3348572
               },
               "southwest" : {
                  "lat" : 60.88411326970849,
                  "lng" : 26.3172101
               }
            }
         },
         "partial_match" : true,
         "types" : [ "route" ]
      },
      {
         "address_components" : [
            {
               "long_name" : "Sahatie",
               "short_name" : "Sahatie",
               "types" : [ "route" ]
            },
            {
               "long_name" : "Toholampi",
               "short_name" : "Toholampi",
               "types" : [ "administrative_area_level_3", "political" ]
            },
            {
               "long_name" : "Finland",
               "short_name" : "FI",
               "types" : [ "country", "political" ]
            },
            {
               "long_name" : "69410",
               "short_name" : "69410",
               "types" : [ "postal_code" ]
            }
         ],
         "formatted_address" : "Sahatie, 69410 Toholampi, Finland",
         "geometry" : {
            "bounds" : {
               "northeast" : {
                  "lat" : 63.6169956,
                  "lng" : 24.3578268
               },
               "southwest" : {
                  "lat" : 63.61356000000001,
                  "lng" : 24.3335962
               }
            },
            "location" : {
               "lat" : 63.6146174,
               "lng" : 24.3449813
            },
            "location_type" : "GEOMETRIC_CENTER",
            "viewport" : {
               "northeast" : {
                  "lat" : 63.6169956,
                  "lng" : 24.3578268
               },
               "southwest" : {
                  "lat" : 63.61356000000001,
                  "lng" : 24.3335962
               }
            }
         },
         "partial_match" : true,
         "types" : [ "route" ]
      },
      {
         "address_components" : [
            {
               "long_name" : "Sahatie",
               "short_name" : "Sahatie",
               "types" : [ "route" ]
            },
            {
               "long_name" : "Kontiolahti",
               "short_name" : "Kontiolahti",
               "types" : [ "administrative_area_level_3", "political" ]
            },
            {
               "long_name" : "Finland",
               "short_name" : "FI",
               "types" : [ "country", "political" ]
            },
            {
               "long_name" : "80770",
               "short_name" : "80770",
               "types" : [ "postal_code" ]
            }
         ],
         "formatted_address" : "Sahatie, 80770 Kontiolahti, Finland",
         "geometry" : {
            "bounds" : {
               "northeast" : {
                  "lat" : 62.7342726,
                  "lng" : 29.8698509
               },
               "southwest" : {
                  "lat" : 62.73257280000001,
                  "lng" : 29.8591973
               }
            },
            "location" : {
               "lat" : 62.73339029999999,
               "lng" : 29.864563
            },
            "location_type" : "GEOMETRIC_CENTER",
            "viewport" : {
               "northeast" : {
                  "lat" : 62.7347716802915,
                  "lng" : 29.8698509
               },
               "southwest" : {
                  "lat" : 62.73207371970849,
                  "lng" : 29.8591973
               }
            }
         },
         "partial_match" : true,
         "types" : [ "route" ]
      },
      {
         "address_components" : [
            {
               "long_name" : "Sahatie",
               "short_name" : "Sahatie",
               "types" : [ "route" ]
            },
            {
               "long_name" : "Lieksa",
               "short_name" : "Lieksa",
               "types" : [ "administrative_area_level_3", "political" ]
            },
            {
               "long_name" : "Finland",
               "short_name" : "FI",
               "types" : [ "country", "political" ]
            },
            {
               "long_name" : "81700",
               "short_name" : "81700",
               "types" : [ "postal_code" ]
            }
         ],
         "formatted_address" : "Sahatie, 81700 Lieksa, Finland",
         "geometry" : {
            "bounds" : {
               "northeast" : {
                  "lat" : 63.3336592,
                  "lng" : 29.9845239
               },
               "southwest" : {
                  "lat" : 63.3279005,
                  "lng" : 29.979996
               }
            },
            "location" : {
               "lat" : 63.33133559999999,
               "lng" : 29.9830992
            },
            "location_type" : "GEOMETRIC_CENTER",
            "viewport" : {
               "northeast" : {
                  "lat" : 63.3336592,
                  "lng" : 29.9845239
               },
               "southwest" : {
                  "lat" : 63.3279005,
                  "lng" : 29.979996
               }
            }
         },
         "partial_match" : true,
         "types" : [ "route" ]
      },
      {
         "address_components" : [
            {
               "long_name" : "Sahatie",
               "short_name" : "Sahatie",
               "types" : [ "route" ]
            },
            {
               "long_name" : "Ii",
               "short_name" : "Ii",
               "types" : [ "administrative_area_level_3", "political" ]
            },
            {
               "long_name" : "Finland",
               "short_name" : "FI",
               "types" : [ "country", "political" ]
            },
            {
               "long_name" : "91100",
               "short_name" : "91100",
               "types" : [ "postal_code" ]
            }
         ],
         "formatted_address" : "Sahatie, 91100 Ii, Finland",
         "geometry" : {
            "bounds" : {
               "northeast" : {
                  "lat" : 65.31164249999999,
                  "lng" : 25.3747345
               },
               "southwest" : {
                  "lat" : 65.30625359999999,
                  "lng" : 25.3709637
               }
            },
            "location" : {
               "lat" : 65.3090268,
               "lng" : 25.3712887
            },
            "location_type" : "GEOMETRIC_CENTER",
            "viewport" : {
               "northeast" : {
                  "lat" : 65.31164249999999,
                  "lng" : 25.3747345
               },
               "southwest" : {
                  "lat" : 65.30625359999999,
                  "lng" : 25.3709637
               }
            }
         },
         "partial_match" : true,
         "types" : [ "route" ]
      },
      {
         "address_components" : [
            {
               "long_name" : "Sahatie",
               "short_name" : "Sahatie",
               "types" : [ "route" ]
            },
            {
               "long_name" : "Yli-Ii",
               "short_name" : "Yli-Ii",
               "types" : [ "administrative_area_level_3", "political" ]
            },
            {
               "long_name" : "Finland",
               "short_name" : "FI",
               "types" : [ "country", "political" ]
            },
            {
               "long_name" : "91200",
               "short_name" : "91200",
               "types" : [ "postal_code" ]
            }
         ],
         "formatted_address" : "Sahatie, 91200 Yli-Ii, Finland",
         "geometry" : {
            "bounds" : {
               "northeast" : {
                  "lat" : 65.3530409,
                  "lng" : 25.8068248
               },
               "southwest" : {
                  "lat" : 65.34952939999999,
                  "lng" : 25.7976014
               }
            },
            "location" : {
               "lat" : 65.35063459999999,
               "lng" : 25.801476
            },
            "location_type" : "GEOMETRIC_CENTER",
            "viewport" : {
               "northeast" : {
                  "lat" : 65.3530409,
                  "lng" : 25.8068248
               },
               "southwest" : {
                  "lat" : 65.34952939999999,
                  "lng" : 25.7976014
               }
            }
         },
         "partial_match" : true,
         "types" : [ "route" ]
      },
      {
         "address_components" : [
            {
               "long_name" : "Sahapolku",
               "short_name" : "Sahapolku",
               "types" : [ "route" ]
            },
            {
               "long_name" : "Alajärvi",
               "short_name" : "Alajärvi",
               "types" : [ "administrative_area_level_3", "political" ]
            },
            {
               "long_name" : "Finland",
               "short_name" : "FI",
               "types" : [ "country", "political" ]
            },
            {
               "long_name" : "62940",
               "short_name" : "62940",
               "types" : [ "postal_code" ]
            }
         ],
         "formatted_address" : "Sahapolku, 62940 Alajärvi, Finland",
         "geometry" : {
            "bounds" : {
               "northeast" : {
                  "lat" : 63.0311787,
                  "lng" : 23.8657585
               },
               "southwest" : {
                  "lat" : 63.0280192,
                  "lng" : 23.8560013
               }
            },
            "location" : {
               "lat" : 63.0301626,
               "lng" : 23.8602049
            },
            "location_type" : "GEOMETRIC_CENTER",
            "viewport" : {
               "northeast" : {
                  "lat" : 63.0311787,
                  "lng" : 23.8657585
               },
               "southwest" : {
                  "lat" : 63.0280192,
                  "lng" : 23.8560013
               }
            }
         },
         "partial_match" : true,
         "types" : [ "route" ]
      },
      {
         "address_components" : [
            {
               "long_name" : "Sahakatu",
               "short_name" : "Sahakatu",
               "types" : [ "route" ]
            },
            {
               "long_name" : "Kuopio",
               "short_name" : "Kuopio",
               "types" : [ "administrative_area_level_3", "political" ]
            },
            {
               "long_name" : "Finland",
               "short_name" : "FI",
               "types" : [ "country", "political" ]
            },
            {
               "long_name" : "70800",
               "short_name" : "70800",
               "types" : [ "postal_code" ]
            }
         ],
         "formatted_address" : "Sahakatu, 70800 Kuopio, Finland",
         "geometry" : {
            "bounds" : {
               "northeast" : {
                  "lat" : 62.83951190000001,
                  "lng" : 27.6008961
               },
               "southwest" : {
                  "lat" : 62.83512340000001,
                  "lng" : 27.5993513
               }
            },
            "location" : {
               "lat" : 62.83719889999999,
               "lng" : 27.5995109
            },
            "location_type" : "GEOMETRIC_CENTER",
            "viewport" : {
               "northeast" : {
                  "lat" : 62.83951190000001,
                  "lng" : 27.6014726802915
               },
               "southwest" : {
                  "lat" : 62.83512340000001,
                  "lng" : 27.5987747197085
               }
            }
         },
         "partial_match" : true,
         "types" : [ "route" ]
      },
      {
         "address_components" : [
            {
               "long_name" : "Sahatie",
               "short_name" : "Sahatie",
               "types" : [ "route" ]
            },
            {
               "long_name" : "Raasepori",
               "short_name" : "Raasepori",
               "types" : [ "administrative_area_level_3", "political" ]
            },
            {
               "long_name" : "Finland",
               "short_name" : "FI",
               "types" : [ "country", "political" ]
            },
            {
               "long_name" : "10660",
               "short_name" : "10660",
               "types" : [ "postal_code" ]
            }
         ],
         "formatted_address" : "Sahatie, 10660 Raasepori, Finland",
         "geometry" : {
            "bounds" : {
               "northeast" : {
                  "lat" : 59.9793676,
                  "lng" : 23.3998745
               },
               "southwest" : {
                  "lat" : 59.9788803,
                  "lng" : 23.394033
               }
            },
            "location" : {
               "lat" : 59.97912099999999,
               "lng" : 23.3969371
            },
            "location_type" : "GEOMETRIC_CENTER",
            "viewport" : {
               "northeast" : {
                  "lat" : 59.98047293029151,
                  "lng" : 23.3998745
               },
               "southwest" : {
                  "lat" : 59.9777749697085,
                  "lng" : 23.394033
               }
            }
         },
         "partial_match" : true,
         "types" : [ "route" ]
      },
      {
         "address_components" : [
            {
               "long_name" : "Sahakatu",
               "short_name" : "Sahakatu",
               "types" : [ "route" ]
            },
            {
               "long_name" : "Vaasa",
               "short_name" : "Vaasa",
               "types" : [ "administrative_area_level_3", "political" ]
            },
            {
               "long_name" : "Finland",
               "short_name" : "FI",
               "types" : [ "country", "political" ]
            },
            {
               "long_name" : "65170",
               "short_name" : "65170",
               "types" : [ "postal_code" ]
            }
         ],
         "formatted_address" : "Sahakatu, 65170 Vaasa, Finland",
         "geometry" : {
            "bounds" : {
               "northeast" : {
                  "lat" : 63.08953109999999,
                  "lng" : 21.5827221
               },
               "southwest" : {
                  "lat" : 63.0873683,
                  "lng" : 21.5794874
               }
            },
            "location" : {
               "lat" : 63.08837579999999,
               "lng" : 21.5811368
            },
            "location_type" : "GEOMETRIC_CENTER",
            "viewport" : {
               "northeast" : {
                  "lat" : 63.08979868029151,
                  "lng" : 21.5827221
               },
               "southwest" : {
                  "lat" : 63.0871007197085,
                  "lng" : 21.5794874
               }
            }
         },
         "partial_match" : true,
         "types" : [ "route" ]
      },
      {
         "address_components" : [
            {
               "long_name" : "Sahatie",
               "short_name" : "Sahatie",
               "types" : [ "route" ]
            },
            {
               "long_name" : "Sotkamo",
               "short_name" : "Sotkamo",
               "types" : [ "administrative_area_level_3", "political" ]
            },
            {
               "long_name" : "Finland",
               "short_name" : "FI",
               "types" : [ "country", "political" ]
            },
            {
               "long_name" : "88600",
               "short_name" : "88600",
               "types" : [ "postal_code" ]
            }
         ],
         "formatted_address" : "Sahatie, 88600 Sotkamo, Finland",
         "geometry" : {
            "bounds" : {
               "northeast" : {
                  "lat" : 64.1452158,
                  "lng" : 28.3982888
               },
               "southwest" : {
                  "lat" : 64.14478819999999,
                  "lng" : 28.3930998
               }
            },
            "location" : {
               "lat" : 64.1451151,
               "lng" : 28.3955104
            },
            "location_type" : "GEOMETRIC_CENTER",
            "viewport" : {
               "northeast" : {
                  "lat" : 64.14635098029149,
                  "lng" : 28.3982888
               },
               "southwest" : {
                  "lat" : 64.14365301970848,
                  "lng" : 28.3930998
               }
            }
         },
         "partial_match" : true,
         "types" : [ "route" ]
      },
      {
         "address_components" : [
            {
               "long_name" : "Sahakatu",
               "short_name" : "Sahakatu",
               "types" : [ "route" ]
            },
            {
               "long_name" : "Imatra",
               "short_name" : "Imatra",
               "types" : [ "administrative_area_level_3", "political" ]
            },
            {
               "long_name" : "Finland",
               "short_name" : "FI",
               "types" : [ "country", "political" ]
            },
            {
               "long_name" : "55800",
               "short_name" : "55800",
               "types" : [ "postal_code" ]
            }
         ],
         "formatted_address" : "Sahakatu, 55800 Imatra, Finland",
         "geometry" : {
            "bounds" : {
               "northeast" : {
                  "lat" : 61.2750889,
                  "lng" : 28.8671993
               },
               "southwest" : {
                  "lat" : 61.27325579999999,
                  "lng" : 28.8608125
               }
            },
            "location" : {
               "lat" : 61.27457800000001,
               "lng" : 28.8643942
            },
            "location_type" : "GEOMETRIC_CENTER",
            "viewport" : {
               "northeast" : {
                  "lat" : 61.27552133029151,
                  "lng" : 28.8671993
               },
               "southwest" : {
                  "lat" : 61.2728233697085,
                  "lng" : 28.8608125
               }
            }
         },
         "partial_match" : true,
         "types" : [ "route" ]
      },
      {
         "address_components" : [
            {
               "long_name" : "Saha Sokak",
               "short_name" : "Saha Sk",
               "types" : [ "route" ]
            },
            {
               "long_name" : "Yerköy",
               "short_name" : "Yerköy",
               "types" : [ "locality", "political" ]
            },
            {
               "long_name" : "Yerköy",
               "short_name" : "Yerköy",
               "types" : [ "administrative_area_level_2", "political" ]
            },
            {
               "long_name" : "Yozgat",
               "short_name" : "Yozgat",
               "types" : [ "administrative_area_level_1", "political" ]
            },
            {
               "long_name" : "Turkey",
               "short_name" : "TR",
               "types" : [ "country", "political" ]
            }
         ],
         "formatted_address" : "Saha Sokak, Yerköy/Yozgat, Turkey",
         "geometry" : {
            "bounds" : {
               "northeast" : {
                  "lat" : 39.645091,
                  "lng" : 34.460756
               },
               "southwest" : {
                  "lat" : 39.644169,
                  "lng" : 34.459081
               }
            },
            "location" : {
               "lat" : 39.64464,
               "lng" : 34.459923
            },
            "location_type" : "GEOMETRIC_CENTER",
            "viewport" : {
               "northeast" : {
                  "lat" : 39.6459789802915,
                  "lng" : 34.4612674802915
               },
               "southwest" : {
                  "lat" : 39.6432810197085,
                  "lng" : 34.4585695197085
               }
            }
         },
         "partial_match" : true,
         "types" : [ "route" ]
      },
      {
         "address_components" : [
            {
               "long_name" : "Sahatie",
               "short_name" : "Sahatie",
               "types" : [ "route" ]
            },
            {
               "long_name" : "Jalasjärvi",
               "short_name" : "Jalasjärvi",
               "types" : [ "administrative_area_level_3", "political" ]
            },
            {
               "long_name" : "Finland",
               "short_name" : "FI",
               "types" : [ "country", "political" ]
            },
            {
               "long_name" : "61270",
               "short_name" : "61270",
               "types" : [ "postal_code" ]
            }
         ],
         "formatted_address" : "Sahatie, 61270 Jalasjärvi, Finland",
         "geometry" : {
            "bounds" : {
               "northeast" : {
                  "lat" : 62.6023023,
                  "lng" : 22.7500634
               },
               "southwest" : {
                  "lat" : 62.5797692,
                  "lng" : 22.7464196
               }
            },
            "location" : {
               "lat" : 62.5913377,
               "lng" : 22.7493535
            },
            "location_type" : "GEOMETRIC_CENTER",
            "viewport" : {
               "northeast" : {
                  "lat" : 62.6023023,
                  "lng" : 22.7500634
               },
               "southwest" : {
                  "lat" : 62.5797692,
                  "lng" : 22.7464196
               }
            }
         },
         "partial_match" : true,
         "types" : [ "route" ]
      }
   ],
   "status" : "OK"
}
