{
   "results" : [
      {
         "address_components" : [
            {
               "long_name" : "College Street",
               "short_name" : "College St",
               "types" : [ "route" ]
            },
            {
               "long_name" : "Beaumont",
               "short_name" : "Beaumont",
               "types" : [ "locality", "political" ]
            },
            {
               "long_name" : "Jefferson County",
               "short_name" : "Jefferson County",
               "types" : [ "administrative_area_level_2", "political" ]
            },
            {
               "long_name" : "Texas",
               "short_name" : "TX",
               "types" : [ "administrative_area_level_1", "political" ]
            },
            {
               "long_name" : "United States",
               "short_name" : "US",
               "types" : [ "country", "political" ]
            }
         ],
         "formatted_address" : "College Street, Beaumont, TX, USA",
         "geometry" : {
            "bounds" : {
               "northeast" : {
                  "lat" : 30.0810029,
                  "lng" : -94.09441529999999
               },
               "southwest" : {
                  "lat" : 30.063972,
                  "lng" : -94.2093122
               }
            },
            "location" : {
               "lat" : 30.06793499999999,
               "lng" : -94.1512836
            },
            "location_type" : "GEOMETRIC_CENTER",
            "viewport" : {
               "northeast" : {
                  "lat" : 30.0810029,
                  "lng" : -94.09441529999999
               },
               "southwest" : {
                  "lat" : 30.063972,
                  "lng" : -94.2093122
               }
            }
         },
         "types" : [ "route" ]
      },
      {
         "address_components" : [
            {
               "long_name" : "College Street",
               "short_name" : "College St",
               "types" : [ "route" ]
            },
            {
               "long_name" : "Asheville",
               "short_name" : "Asheville",
               "types" : [ "locality", "political" ]
            },
            {
               "long_name" : "Buncombe County",
               "short_name" : "Buncombe County",
               "types" : [ "administrative_area_level_2", "political" ]
            },
            {
               "long_name" : "North Carolina",
               "short_name" : "NC",
               "types" : [ "administrative_area_level_1", "political" ]
            },
            {
               "long_name" : "United States",
               "short_name" : "US",
               "types" : [ "country", "political" ]
            },
            {
               "long_name" : "28801",
               "short_name" : "28801",
               "types" : [ "postal_code" ]
            }
         ],
         "formatted_address" : "College Street, Asheville, NC 28801, USA",
         "geometry" : {
            "bounds" : {
               "northeast" : {
                  "lat" : 35.5991029,
                  "lng" : -82.53763719999999
               },
               "southwest" : {
                  "lat" : 35.5944132,
                  "lng" : -82.55508759999999
               }
            },
            "location" : {
               "lat" : 35.5973346,
               "lng" : -82.5465961
            },
            "location_type" : "GEOMETRIC_CENTER",
            "viewport" : {
               "northeast" : {
                  "lat" : 35.5991029,
                  "lng" : -82.53763719999999
               },
               "southwest" : {
                  "lat" : 35.5944132,
                  "lng" : -82.55508759999999
               }
            }
         },
         "types" : [ "route" ]
      },
      {
         "address_components" : [
            {
               "long_name" : "College Street",
               "short_name" : "College St",
               "types" : [ "route" ]
            },
            {
               "long_name" : "Clarksville",
               "short_name" : "Clarksville",
               "types" : [ "locality", "political" ]
            },
            {
               "long_name" : "Tennessee",
               "short_name" : "TN",
               "types" : [ "administrative_area_level_1", "political" ]
            },
            {
               "long_name" : "United States",
               "short_name" : "US",
               "types" : [ "country", "political" ]
            }
         ],
         "formatted_address" : "College Street, Clarksville, TN, USA",
         "geometry" : {
            "bounds" : {
               "northeast" : {
                  "lat" : 36.5453334,
                  "lng" : -83.98544679999999
               },
               "southwest" : {
                  "lat" : 30.8297574,
                  "lng" : -87.3651804
               }
            },
            "location" : {
               "lat" : 36.5334836,
               "lng" : -87.344565
            },
            "location_type" : "GEOMETRIC_CENTER",
            "viewport" : {
               "northeast" : {
                  "lat" : 36.5453334,
                  "lng" : -83.98544679999999
               },
               "southwest" : {
                  "lat" : 30.8297574,
                  "lng" : -87.3651804
               }
            }
         },
         "types" : [ "route" ]
      },
      {
         "address_components" : [
            {
               "long_name" : "College Street",
               "short_name" : "College St",
               "types" : [ "route" ]
            },
            {
               "long_name" : "Norman Park",
               "short_name" : "Norman Park",
               "types" : [ "locality", "political" ]
            },
            {
               "long_name" : "Colquitt County",
               "short_name" : "Colquitt County",
               "types" : [ "administrative_area_level_2", "political" ]
            },
            {
               "long_name" : "Georgia",
               "short_name" : "GA",
               "types" : [ "administrative_area_level_1", "political" ]
            },
            {
               "long_name" : "United States",
               "short_name" : "US",
               "types" : [ "country", "political" ]
            },
            {
               "long_name" : "31771",
               "short_name" : "31771",
               "types" : [ "postal_code" ]
            }
         ],
         "formatted_address" : "College Street, Norman Park, GA 31771, USA",
         "geometry" : {
            "bounds" : {
               "northeast" : {
                  "lat" : 31.2837039,
                  "lng" : -83.6807591
               },
               "southwest" : {
                  "lat" : 31.2610748,
                  "lng" : -83.6976145
               }
            },
            "location" : {
               "lat" : 31.2712188,
               "lng" : -83.68623599999999
            },
            "location_type" : "GEOMETRIC_CENTER",
            "viewport" : {
               "northeast" : {
                  "lat" : 31.2837039,
                  "lng" : -83.6807591
               },
               "southwest" : {
                  "lat" : 31.2610748,
                  "lng" : -83.6976145
               }
            }
         },
         "types" : [ "route" ]
      },
      {
         "address_components" : [
            {
               "long_name" : "College Street",
               "short_name" : "College St",
               "types" : [ "route" ]
            },
            {
               "long_name" : "Dickson",
               "short_name" : "Dickson",
               "types" : [ "locality", "political" ]
            },
            {
               "long_name" : "Dickson County",
               "short_name" : "Dickson County",
               "types" : [ "administrative_area_level_2", "political" ]
            },
            {
               "long_name" : "Tennessee",
               "short_name" : "TN",
               "types" : [ "administrative_area_level_1", "political" ]
            },
            {
               "long_name" : "United States",
               "short_name" : "US",
               "types" : [ "country", "political" ]
            },
            {
               "long_name" : "37055",
               "short_name" : "37055",
               "types" : [ "postal_code" ]
            }
         ],
         "formatted_address" : "College Street, Dickson, TN 37055, USA",
         "geometry" : {
            "bounds" : {
               "northeast" : {
                  "lat" : 36.0834852,
                  "lng" : -87.3352304
               },
               "southwest" : {
                  "lat" : 36.0714752,
                  "lng" : -87.3768094
               }
            },
            "location" : {
               "lat" : 36.0784426,
               "lng" : -87.35660260000002
            },
            "location_type" : "GEOMETRIC_CENTER",
            "viewport" : {
               "northeast" : {
                  "lat" : 36.0834852,
                  "lng" : -87.3352304
               },
               "southwest" : {
                  "lat" : 36.0714752,
                  "lng" : -87.3768094
               }
            }
         },
         "types" : [ "route" ]
      },
      {
         "address_components" : [
            {
               "long_name" : "College Street",
               "short_name" : "College St",
               "types" : [ "route" ]
            },
            {
               "long_name" : "Eastman",
               "short_name" : "Eastman",
               "types" : [ "locality", "political" ]
            },
            {
               "long_name" : "Dodge County",
               "short_name" : "Dodge County",
               "types" : [ "administrative_area_level_2", "political" ]
            },
            {
               "long_name" : "Georgia",
               "short_name" : "GA",
               "types" : [ "administrative_area_level_1", "political" ]
            },
            {
               "long_name" : "United States",
               "short_name" : "US",
               "types" : [ "country", "political" ]
            },
            {
               "long_name" : "31023",
               "short_name" : "31023",
               "types" : [ "postal_code" ]
            }
         ],
         "formatted_address" : "College Street, Eastman, GA 31023, USA",
         "geometry" : {
            "bounds" : {
               "northeast" : {
                  "lat" : 32.1984313,
                  "lng" : -83.16193389999999
               },
               "southwest" : {
                  "lat" : 32.1762138,
                  "lng" : -83.17789999999999
               }
            },
            "location" : {
               "lat" : 32.186602,
               "lng" : -83.171497
            },
            "location_type" : "GEOMETRIC_CENTER",
            "viewport" : {
               "northeast" : {
                  "lat" : 32.1984313,
                  "lng" : -83.16193389999999
               },
               "southwest" : {
                  "lat" : 32.1762138,
                  "lng" : -83.17789999999999
               }
            }
         },
         "types" : [ "route" ]
      },
      {
         "address_components" : [
            {
               "long_name" : "College Street",
               "short_name" : "College St",
               "types" : [ "route" ]
            },
            {
               "long_name" : "Oxford",
               "short_name" : "Oxford",
               "types" : [ "locality", "political" ]
            },
            {
               "long_name" : "Granville County",
               "short_name" : "Granville County",
               "types" : [ "administrative_area_level_2", "political" ]
            },
            {
               "long_name" : "North Carolina",
               "short_name" : "NC",
               "types" : [ "administrative_area_level_1", "political" ]
            },
            {
               "long_name" : "United States",
               "short_name" : "US",
               "types" : [ "country", "political" ]
            },
            {
               "long_name" : "27565",
               "short_name" : "27565",
               "types" : [ "postal_code" ]
            }
         ],
         "formatted_address" : "College Street, Oxford, NC 27565, USA",
         "geometry" : {
            "bounds" : {
               "northeast" : {
                  "lat" : 36.341447,
                  "lng" : -78.589007
               },
               "southwest" : {
                  "lat" : 36.3116384,
                  "lng" : -78.595794
               }
            },
            "location" : {
               "lat" : 36.3271536,
               "lng" : -78.5939559
            },
            "location_type" : "GEOMETRIC_CENTER",
            "viewport" : {
               "northeast" : {
                  "lat" : 36.341447,
                  "lng" : -78.589007
               },
               "southwest" : {
                  "lat" : 36.3116384,
                  "lng" : -78.595794
               }
            }
         },
         "types" : [ "route" ]
      },
      {
         "address_components" : [
            {
               "long_name" : "College Street",
               "short_name" : "College St",
               "types" : [ "route" ]
            },
            {
               "long_name" : "Sycamore",
               "short_name" : "Sycamore",
               "types" : [ "locality", "political" ]
            },
            {
               "long_name" : "Turner County",
               "short_name" : "Turner County",
               "types" : [ "administrative_area_level_2", "political" ]
            },
            {
               "long_name" : "Georgia",
               "short_name" : "GA",
               "types" : [ "administrative_area_level_1", "political" ]
            },
            {
               "long_name" : "United States",
               "short_name" : "US",
               "types" : [ "country", "political" ]
            },
            {
               "long_name" : "31790",
               "short_name" : "31790",
               "types" : [ "postal_code" ]
            }
         ],
         "formatted_address" : "College Street, Sycamore, GA 31790, USA",
         "geometry" : {
            "bounds" : {
               "northeast" : {
                  "lat" : 31.6333703,
                  "lng" : -83.58691469999999
               },
               "southwest" : {
                  "lat" : 31.5983802,
                  "lng" : -83.61387789999999
               }
            },
            "location" : {
               "lat" : 31.6189284,
               "lng" : -83.60622479999999
            },
            "location_type" : "GEOMETRIC_CENTER",
            "viewport" : {
               "northeast" : {
                  "lat" : 31.6333703,
                  "lng" : -83.58691469999999
               },
               "southwest" : {
                  "lat" : 31.5983802,
                  "lng" : -83.61387789999999
               }
            }
         },
         "types" : [ "route" ]
      },
      {
         "address_components" : [
            {
               "long_name" : "College Street",
               "short_name" : "College St",
               "types" : [ "route" ]
            },
            {
               "long_name" : "Ailey",
               "short_name" : "Ailey",
               "types" : [ "locality", "political" ]
            },
            {
               "long_name" : "Montgomery County",
               "short_name" : "Montgomery County",
               "types" : [ "administrative_area_level_2", "political" ]
            },
            {
               "long_name" : "Georgia",
               "short_name" : "GA",
               "types" : [ "administrative_area_level_1", "political" ]
            },
            {
               "long_name" : "United States",
               "short_name" : "US",
               "types" : [ "country", "political" ]
            },
            {
               "long_name" : "30410",
               "short_name" : "30410",
               "types" : [ "postal_code" ]
            }
         ],
         "formatted_address" : "College Street, Ailey, GA 30410, USA",
         "geometry" : {
            "bounds" : {
               "northeast" : {
                  "lat" : 32.1868096,
                  "lng" : -82.55893569999999
               },
               "southwest" : {
                  "lat" : 32.1813475,
                  "lng" : -82.5813088
               }
            },
            "location" : {
               "lat" : 32.1852276,
               "lng" : -82.56897549999999
            },
            "location_type" : "GEOMETRIC_CENTER",
            "viewport" : {
               "northeast" : {
                  "lat" : 32.1868096,
                  "lng" : -82.55893569999999
               },
               "southwest" : {
                  "lat" : 32.1813475,
                  "lng" : -82.5813088
               }
            }
         },
         "types" : [ "route" ]
      },
      {
         "address_components" : [
            {
               "long_name" : "College Street",
               "short_name" : "College St",
               "types" : [ "route" ]
            },
            {
               "long_name" : "Clarksville",
               "short_name" : "Clarksville",
               "types" : [ "locality", "political" ]
            },
            {
               "long_name" : "9",
               "short_name" : "9",
               "types" : [ "administrative_area_level_3", "political" ]
            },
            {
               "long_name" : "Mecklenburg County",
               "short_name" : "Mecklenburg County",
               "types" : [ "administrative_area_level_2", "political" ]
            },
            {
               "long_name" : "Virginia",
               "short_name" : "VA",
               "types" : [ "administrative_area_level_1", "political" ]
            },
            {
               "long_name" : "United States",
               "short_name" : "US",
               "types" : [ "country", "political" ]
            },
            {
               "long_name" : "23927",
               "short_name" : "23927",
               "types" : [ "postal_code" ]
            }
         ],
         "formatted_address" : "College Street, Clarksville, VA 23927, USA",
         "geometry" : {
            "bounds" : {
               "northeast" : {
                  "lat" : 36.6206203,
                  "lng" : -78.56518489999999
               },
               "southwest" : {
                  "lat" : 36.612977,
                  "lng" : -78.567847
               }
            },
            "location" : {
               "lat" : 36.6169,
               "lng" : -78.566958
            },
            "location_type" : "GEOMETRIC_CENTER",
            "viewport" : {
               "northeast" : {
                  "lat" : 36.6206203,
                  "lng" : -78.56516696970849
               },
               "southwest" : {
                  "lat" : 36.612977,
                  "lng" : -78.56786493029149
               }
            }
         },
         "types" : [ "route" ]
      },
      {
         "address_components" : [
            {
               "long_name" : "College Street",
               "short_name" : "College St",
               "types" : [ "route" ]
            },
            {
               "long_name" : "Sebree",
               "short_name" : "Sebree",
               "types" : [ "locality", "political" ]
            },
            {
               "long_name" : "Webster County",
               "short_name" : "Webster County",
               "types" : [ "administrative_area_level_2", "political" ]
            },
            {
               "long_name" : "Kentucky",
               "short_name" : "KY",
               "types" : [ "administrative_area_level_1", "political" ]
            },
            {
               "long_name" : "United States",
               "short_name" : "US",
               "types" : [ "country", "political" ]
            },
            {
               "long_name" : "42455",
               "short_name" : "42455",
               "types" : [ "postal_code" ]
            }
         ],
         "formatted_address" : "College Street, Sebree, KY 42455, USA",
         "geometry" : {
            "bounds" : {
               "northeast" : {
                  "lat" : 37.6140597,
                  "lng" : -87.5276597
               },
               "southwest" : {
                  "lat" : 37.6065578,
                  "lng" : -87.52892319999999
               }
            },
            "location" : {
               "lat" : 37.6101733,
               "lng" : -87.52835140000001
            },
            "location_type" : "GEOMETRIC_CENTER",
            "viewport" : {
               "northeast" : {
                  "lat" : 37.6140597,
                  "lng" : -87.5269424697085
               },
               "southwest" : {
                  "lat" : 37.6065578,
                  "lng" : -87.52964043029151
               }
            }
         },
         "types" : [ "route" ]
      },
      {
         "address_components" : [
            {
               "long_name" : "College Street",
               "short_name" : "College St",
               "types" : [ "route" ]
            },
            {
               "long_name" : "Georgia",
               "short_name" : "GA",
               "types" : [ "administrative_area_level_1", "political" ]
            },
            {
               "long_name" : "United States",
               "short_name" : "US",
               "types" : [ "country", "political" ]
            }
         ],
         "formatted_address" : "College Street, Georgia, USA",
         "geometry" : {
            "bounds" : {
               "northeast" : {
                  "lat" : 32.727532,
                  "lng" : -82.49506509999999
               },
               "southwest" : {
                  "lat" : 32.689904,
                  "lng" : -82.7075519
               }
            },
            "location" : {
               "lat" : 32.6956947,
               "lng" : -82.6061699
            },
            "location_type" : "GEOMETRIC_CENTER",
            "viewport" : {
               "northeast" : {
                  "lat" : 32.727532,
                  "lng" : -82.49506509999999
               },
               "southwest" : {
                  "lat" : 32.689904,
                  "lng" : -82.7075519
               }
            }
         },
         "types" : [ "route" ]
      },
      {
         "address_components" : [
            {
               "long_name" : "College Street",
               "short_name" : "College St",
               "types" : [ "route" ]
            },
            {
               "long_name" : "Rebecca",
               "short_name" : "Rebecca",
               "types" : [ "locality", "political" ]
            },
            {
               "long_name" : "Turner County",
               "short_name" : "Turner County",
               "types" : [ "administrative_area_level_2", "political" ]
            },
            {
               "long_name" : "Georgia",
               "short_name" : "GA",
               "types" : [ "administrative_area_level_1", "political" ]
            },
            {
               "long_name" : "United States",
               "short_name" : "US",
               "types" : [ "country", "political" ]
            },
            {
               "long_name" : "31783",
               "short_name" : "31783",
               "types" : [ "postal_code" ]
            }
         ],
         "formatted_address" : "College Street, Rebecca, GA 31783, USA",
         "geometry" : {
            "bounds" : {
               "northeast" : {
                  "lat" : 31.8012584,
                  "lng" : -83.49224989999999
               },
               "southwest" : {
                  "lat" : 31.7237786,
                  "lng" : -83.58325479999999
               }
            },
            "location" : {
               "lat" : 31.7641172,
               "lng" : -83.5395166
            },
            "location_type" : "GEOMETRIC_CENTER",
            "viewport" : {
               "northeast" : {
                  "lat" : 31.8012584,
                  "lng" : -83.49224989999999
               },
               "southwest" : {
                  "lat" : 31.7237786,
                  "lng" : -83.58325479999999
               }
            }
         },
         "types" : [ "route" ]
      },
      {
         "address_components" : [
            {
               "long_name" : "College Street",
               "short_name" : "College St",
               "types" : [ "route" ]
            },
            {
               "long_name" : "Wrightsville",
               "short_name" : "Wrightsville",
               "types" : [ "locality", "political" ]
            },
            {
               "long_name" : "Georgia",
               "short_name" : "GA",
               "types" : [ "administrative_area_level_1", "political" ]
            },
            {
               "long_name" : "United States",
               "short_name" : "US",
               "types" : [ "country", "political" ]
            },
            {
               "long_name" : "31096",
               "short_name" : "31096",
               "types" : [ "postal_code" ]
            }
         ],
         "formatted_address" : "College Street, Wrightsville, GA 31096, USA",
         "geometry" : {
            "bounds" : {
               "northeast" : {
                  "lat" : 32.7791122,
                  "lng" : -82.7264804
               },
               "southwest" : {
                  "lat" : 32.7358229,
                  "lng" : -82.74399939999999
               }
            },
            "location" : {
               "lat" : 32.7568129,
               "lng" : -82.73735619999999
            },
            "location_type" : "GEOMETRIC_CENTER",
            "viewport" : {
               "northeast" : {
                  "lat" : 32.7791122,
                  "lng" : -82.7264804
               },
               "southwest" : {
                  "lat" : 32.7358229,
                  "lng" : -82.74399939999999
               }
            }
         },
         "types" : [ "route" ]
      },
      {
         "address_components" : [
            {
               "long_name" : "College Street",
               "short_name" : "College St",
               "types" : [ "route" ]
            },
            {
               "long_name" : "Newberry",
               "short_name" : "Newberry",
               "types" : [ "locality", "political" ]
            },
            {
               "long_name" : "Newberry County",
               "short_name" : "Newberry County",
               "types" : [ "administrative_area_level_2", "political" ]
            },
            {
               "long_name" : "South Carolina",
               "short_name" : "SC",
               "types" : [ "administrative_area_level_1", "political" ]
            },
            {
               "long_name" : "United States",
               "short_name" : "US",
               "types" : [ "country", "political" ]
            },
            {
               "long_name" : "29108",
               "short_name" : "29108",
               "types" : [ "postal_code" ]
            }
         ],
         "formatted_address" : "College Street, Newberry, SC 29108, USA",
         "geometry" : {
            "bounds" : {
               "northeast" : {
                  "lat" : 34.3074175,
                  "lng" : -81.6175851
               },
               "southwest" : {
                  "lat" : 34.2723717,
                  "lng" : -81.6236694
               }
            },
            "location" : {
               "lat" : 34.29014799999999,
               "lng" : -81.62272860000002
            },
            "location_type" : "GEOMETRIC_CENTER",
            "viewport" : {
               "northeast" : {
                  "lat" : 34.3074175,
                  "lng" : -81.6175851
               },
               "southwest" : {
                  "lat" : 34.2723717,
                  "lng" : -81.6236694
               }
            }
         },
         "types" : [ "route" ]
      },
      {
         "address_components" : [
            {
               "long_name" : "College Street",
               "short_name" : "College St",
               "types" : [ "route" ]
            },
            {
               "long_name" : "Newton",
               "short_name" : "Newton",
               "types" : [ "locality", "political" ]
            },
            {
               "long_name" : "Dale County",
               "short_name" : "Dale County",
               "types" : [ "administrative_area_level_2", "political" ]
            },
            {
               "long_name" : "Alabama",
               "short_name" : "AL",
               "types" : [ "administrative_area_level_1", "political" ]
            },
            {
               "long_name" : "United States",
               "short_name" : "US",
               "types" : [ "country", "political" ]
            },
            {
               "long_name" : "36352",
               "short_name" : "36352",
               "types" : [ "postal_code" ]
            }
         ],
         "formatted_address" : "College Street, Newton, AL 36352, USA",
         "geometry" : {
            "bounds" : {
               "northeast" : {
                  "lat" : 31.3358365,
                  "lng" : -85.5736289
               },
               "southwest" : {
                  "lat" : 31.3156311,
                  "lng" : -85.60507149999999
               }
            },
            "location" : {
               "lat" : 31.322873,
               "lng" : -85.591667
            },
            "location_type" : "GEOMETRIC_CENTER",
            "viewport" : {
               "northeast" : {
                  "lat" : 31.3358365,
                  "lng" : -85.5736289
               },
               "southwest" : {
                  "lat" : 31.3156311,
                  "lng" : -85.60507149999999
               }
            }
         },
         "types" : [ "route" ]
      },
      {
         "address_components" : [
            {
               "long_name" : "College Street",
               "short_name" : "College St",
               "types" : [ "route" ]
            },
            {
               "long_name" : "Upson County",
               "short_name" : "Upson County",
               "types" : [ "administrative_area_level_2", "political" ]
            },
            {
               "long_name" : "Georgia",
               "short_name" : "GA",
               "types" : [ "administrative_area_level_1", "political" ]
            },
            {
               "long_name" : "United States",
               "short_name" : "US",
               "types" : [ "country", "political" ]
            }
         ],
         "formatted_address" : "College Street, Georgia, USA",
         "geometry" : {
            "bounds" : {
               "northeast" : {
                  "lat" : 32.9139257,
                  "lng" : -84.14290629999999
               },
               "southwest" : {
                  "lat" : 32.7883526,
                  "lng" : -84.24910509999999
               }
            },
            "location" : {
               "lat" : 32.8540795,
               "lng" : -84.1886767
            },
            "location_type" : "GEOMETRIC_CENTER",
            "viewport" : {
               "northeast" : {
                  "lat" : 32.9139257,
                  "lng" : -84.14290629999999
               },
               "southwest" : {
                  "lat" : 32.7883526,
                  "lng" : -84.24910509999999
               }
            }
         },
         "types" : [ "route" ]
      },
      {
         "address_components" : [
            {
               "long_name" : "College Street",
               "short_name" : "College St",
               "types" : [ "route" ]
            },
            {
               "long_name" : "Tennille",
               "short_name" : "Tennille",
               "types" : [ "locality", "political" ]
            },
            {
               "long_name" : "Georgia",
               "short_name" : "GA",
               "types" : [ "administrative_area_level_1", "political" ]
            },
            {
               "long_name" : "United States",
               "short_name" : "US",
               "types" : [ "country", "political" ]
            },
            {
               "long_name" : "31089",
               "short_name" : "31089",
               "types" : [ "postal_code" ]
            }
         ],
         "formatted_address" : "College Street, Tennille, GA 31089, USA",
         "geometry" : {
            "bounds" : {
               "northeast" : {
                  "lat" : 32.77760689999999,
                  "lng" : -82.88168739999999
               },
               "southwest" : {
                  "lat" : 32.7655459,
                  "lng" : -82.9240839
               }
            },
            "location" : {
               "lat" : 32.7698012,
               "lng" : -82.90284659999999
            },
            "location_type" : "GEOMETRIC_CENTER",
            "viewport" : {
               "northeast" : {
                  "lat" : 32.77760689999999,
                  "lng" : -82.88168739999999
               },
               "southwest" : {
                  "lat" : 32.7655459,
                  "lng" : -82.9240839
               }
            }
         },
         "types" : [ "route" ]
      },
      {
         "address_components" : [
            {
               "long_name" : "College Street",
               "short_name" : "College St",
               "types" : [ "route" ]
            },
            {
               "long_name" : "Adrian",
               "short_name" : "Adrian",
               "types" : [ "locality", "political" ]
            },
            {
               "long_name" : "Johnson County",
               "short_name" : "Johnson County",
               "types" : [ "administrative_area_level_2", "political" ]
            },
            {
               "long_name" : "Georgia",
               "short_name" : "GA",
               "types" : [ "administrative_area_level_1", "political" ]
            },
            {
               "long_name" : "United States",
               "short_name" : "US",
               "types" : [ "country", "political" ]
            },
            {
               "long_name" : "31002",
               "short_name" : "31002",
               "types" : [ "postal_code" ]
            }
         ],
         "formatted_address" : "College Street, Adrian, GA 31002, USA",
         "geometry" : {
            "bounds" : {
               "northeast" : {
                  "lat" : 32.5819653,
                  "lng" : -82.5915571
               },
               "southwest" : {
                  "lat" : 32.5400727,
                  "lng" : -82.6136891
               }
            },
            "location" : {
               "lat" : 32.5637268,
               "lng" : -82.61172719999999
            },
            "location_type" : "GEOMETRIC_CENTER",
            "viewport" : {
               "northeast" : {
                  "lat" : 32.5819653,
                  "lng" : -82.5915571
               },
               "southwest" : {
                  "lat" : 32.5400727,
                  "lng" : -82.6136891
               }
            }
         },
         "types" : [ "route" ]
      },
      {
         "address_components" : [
            {
               "long_name" : "College Street",
               "short_name" : "College St",
               "types" : [ "route" ]
            },
            {
               "long_name" : "South Hadley",
               "short_name" : "South Hadley",
               "types" : [ "locality", "political" ]
            },
            {
               "long_name" : "Hampshire County",
               "short_name" : "Hampshire County",
               "types" : [ "administrative_area_level_2", "political" ]
            },
            {
               "long_name" : "Massachusetts",
               "short_name" : "MA",
               "types" : [ "administrative_area_level_1", "political" ]
            },
            {
               "long_name" : "United States",
               "short_name" : "US",
               "types" : [ "country", "political" ]
            },
            {
               "long_name" : "01075",
               "short_name" : "01075",
               "types" : [ "postal_code" ]
            }
         ],
         "formatted_address" : "College Street, South Hadley, MA 01075, USA",
         "geometry" : {
            "bounds" : {
               "northeast" : {
                  "lat" : 42.2594297,
                  "lng" : -72.57489409999999
               },
               "southwest" : {
                  "lat" : 42.24489940000001,
                  "lng" : -72.58072589999999
               }
            },
            "location" : {
               "lat" : 42.2522434,
               "lng" : -72.5781471
            },
            "location_type" : "GEOMETRIC_CENTER",
            "viewport" : {
               "northeast" : {
                  "lat" : 42.2594297,
                  "lng" : -72.57489409999999
               },
               "southwest" : {
                  "lat" : 42.24489940000001,
                  "lng" : -72.58072589999999
               }
            }
         },
         "types" : [ "route" ]
      },
      {
         "address_components" : [
            {
               "long_name" : "College Street",
               "short_name" : "College St",
               "types" : [ "route" ]
            },
            {
               "long_name" : "Amherst",
               "short_name" : "Amherst",
               "types" : [ "locality", "political" ]
            },
            {
               "long_name" : "Massachusetts",
               "short_name" : "MA",
               "types" : [ "administrative_area_level_1", "political" ]
            },
            {
               "long_name" : "United States",
               "short_name" : "US",
               "types" : [ "country", "political" ]
            },
            {
               "long_name" : "01002",
               "short_name" : "01002",
               "types" : [ "postal_code" ]
            }
         ],
         "formatted_address" : "College Street, Amherst, MA 01002, USA",
         "geometry" : {
            "bounds" : {
               "northeast" : {
                  "lat" : 42.37389870000001,
                  "lng" : -72.4999029
               },
               "southwest" : {
                  "lat" : 42.3715772,
                  "lng" : -72.519885
               }
            },
            "location" : {
               "lat" : 42.3729992,
               "lng" : -72.5088779
            },
            "location_type" : "GEOMETRIC_CENTER",
            "viewport" : {
               "northeast" : {
                  "lat" : 42.3740869302915,
                  "lng" : -72.4999029
               },
               "southwest" : {
                  "lat" : 42.3713889697085,
                  "lng" : -72.519885
               }
            }
         },
         "types" : [ "route" ]
      },
      {
         "address_components" : [
            {
               "long_name" : "College Street",
               "short_name" : "College St",
               "types" : [ "route" ]
            },
            {
               "long_name" : "Brandon",
               "short_name" : "Brandon",
               "types" : [ "locality", "political" ]
            },
            {
               "long_name" : "Rankin County",
               "short_name" : "Rankin County",
               "types" : [ "administrative_area_level_2", "political" ]
            },
            {
               "long_name" : "Mississippi",
               "short_name" : "MS",
               "types" : [ "administrative_area_level_1", "political" ]
            },
            {
               "long_name" : "United States",
               "short_name" : "US",
               "types" : [ "country", "political" ]
            },
            {
               "long_name" : "39042",
               "short_name" : "39042",
               "types" : [ "postal_code" ]
            }
         ],
         "formatted_address" : "College Street, Brandon, MS 39042, USA",
         "geometry" : {
            "bounds" : {
               "northeast" : {
                  "lat" : 32.2815433,
                  "lng" : -89.98918859999999
               },
               "southwest" : {
                  "lat" : 32.2691066,
                  "lng" : -89.9938085
               }
            },
            "location" : {
               "lat" : 32.2766526,
               "lng" : -89.99149659999999
            },
            "location_type" : "GEOMETRIC_CENTER",
            "viewport" : {
               "northeast" : {
                  "lat" : 32.2815433,
                  "lng" : -89.98918859999999
               },
               "southwest" : {
                  "lat" : 32.2691066,
                  "lng" : -89.9938085
               }
            }
         },
         "types" : [ "route" ]
      },
      {
         "address_components" : [
            {
               "long_name" : "College Street",
               "short_name" : "College St",
               "types" : [ "route" ]
            },
            {
               "long_name" : "Jackson",
               "short_name" : "Jackson",
               "types" : [ "locality", "political" ]
            },
            {
               "long_name" : "East Feliciana Parish",
               "short_name" : "East Feliciana Parish",
               "types" : [ "administrative_area_level_2", "political" ]
            },
            {
               "long_name" : "Louisiana",
               "short_name" : "LA",
               "types" : [ "administrative_area_level_1", "political" ]
            },
            {
               "long_name" : "United States",
               "short_name" : "US",
               "types" : [ "country", "political" ]
            },
            {
               "long_name" : "70748",
               "short_name" : "70748",
               "types" : [ "postal_code" ]
            }
         ],
         "formatted_address" : "College Street, Jackson, LA 70748, USA",
         "geometry" : {
            "bounds" : {
               "northeast" : {
                  "lat" : 30.8477616,
                  "lng" : -91.21223649999999
               },
               "southwest" : {
                  "lat" : 30.8350394,
                  "lng" : -91.21446879999999
               }
            },
            "location" : {
               "lat" : 30.841841,
               "lng" : -91.21317409999999
            },
            "location_type" : "GEOMETRIC_CENTER",
            "viewport" : {
               "northeast" : {
                  "lat" : 30.8477616,
                  "lng" : -91.21200366970848
               },
               "southwest" : {
                  "lat" : 30.8350394,
                  "lng" : -91.21470163029149
               }
            }
         },
         "types" : [ "route" ]
      },
      {
         "address_components" : [
            {
               "long_name" : "College Street",
               "short_name" : "College St",
               "types" : [ "route" ]
            },
            {
               "long_name" : "Clinton",
               "short_name" : "Clinton",
               "types" : [ "locality", "political" ]
            },
            {
               "long_name" : "Kirkland",
               "short_name" : "Kirkland",
               "types" : [ "administrative_area_level_3", "political" ]
            },
            {
               "long_name" : "Oneida County",
               "short_name" : "Oneida County",
               "types" : [ "administrative_area_level_2", "political" ]
            },
            {
               "long_name" : "New York",
               "short_name" : "NY",
               "types" : [ "administrative_area_level_1", "political" ]
            },
            {
               "long_name" : "United States",
               "short_name" : "US",
               "types" : [ "country", "political" ]
            },
            {
               "long_name" : "13323",
               "short_name" : "13323",
               "types" : [ "postal_code" ]
            }
         ],
         "formatted_address" : "College Street, Clinton, NY 13323, USA",
         "geometry" : {
            "bounds" : {
               "northeast" : {
                  "lat" : 43.0497129,
                  "lng" : -75.37882519999999
               },
               "southwest" : {
                  "lat" : 43.04555999999999,
                  "lng" : -75.3959782
               }
            },
            "location" : {
               "lat" : 43.0482875,
               "lng" : -75.3873729
            },
            "location_type" : "GEOMETRIC_CENTER",
            "viewport" : {
               "northeast" : {
                  "lat" : 43.0497129,
                  "lng" : -75.37882519999999
               },
               "southwest" : {
                  "lat" : 43.04555999999999,
                  "lng" : -75.3959782
               }
            }
         },
         "types" : [ "route" ]
      },
      {
         "address_components" : [
            {
               "long_name" : "College Street",
               "short_name" : "College St",
               "types" : [ "route" ]
            },
            {
               "long_name" : "Sneedville",
               "short_name" : "Sneedville",
               "types" : [ "locality", "political" ]
            },
            {
               "long_name" : "Hancock County",
               "short_name" : "Hancock County",
               "types" : [ "administrative_area_level_2", "political" ]
            },
            {
               "long_name" : "Tennessee",
               "short_name" : "TN",
               "types" : [ "administrative_area_level_1", "political" ]
            },
            {
               "long_name" : "United States",
               "short_name" : "US",
               "types" : [ "country", "political" ]
            },
            {
               "long_name" : "37869",
               "short_name" : "37869",
               "types" : [ "postal_code" ]
            }
         ],
         "formatted_address" : "College Street, Sneedville, TN 37869, USA",
         "geometry" : {
            "bounds" : {
               "northeast" : {
                  "lat" : 36.5397285,
                  "lng" : -83.2150841
               },
               "southwest" : {
                  "lat" : 36.52937250000001,
                  "lng" : -83.2219078
               }
            },
            "location" : {
               "lat" : 36.5345443,
               "lng" : -83.2185851
            },
            "location_type" : "GEOMETRIC_CENTER",
            "viewport" : {
               "northeast" : {
                  "lat" : 36.5397285,
                  "lng" : -83.2150841
               },
               "southwest" : {
                  "lat" : 36.52937250000001,
                  "lng" : -83.2219078
               }
            }
         },
         "types" : [ "route" ]
      },
      {
         "address_components" : [
            {
               "long_name" : "College Street",
               "short_name" : "College St",
               "types" : [ "route" ]
            },
            {
               "long_name" : "Bells",
               "short_name" : "Bells",
               "types" : [ "locality", "political" ]
            },
            {
               "long_name" : "Crockett County",
               "short_name" : "Crockett County",
               "types" : [ "administrative_area_level_2", "political" ]
            },
            {
               "long_name" : "Tennessee",
               "short_name" : "TN",
               "types" : [ "administrative_area_level_1", "political" ]
            },
            {
               "long_name" : "United States",
               "short_name" : "US",
               "types" : [ "country", "political" ]
            },
            {
               "long_name" : "38006",
               "short_name" : "38006",
               "types" : [ "postal_code" ]
            }
         ],
         "formatted_address" : "College Street, Bells, TN 38006, USA",
         "geometry" : {
            "bounds" : {
               "northeast" : {
                  "lat" : 35.7240612,
                  "lng" : -89.090006
               },
               "southwest" : {
                  "lat" : 35.71236630000001,
                  "lng" : -89.0938687
               }
            },
            "location" : {
               "lat" : 35.7184929,
               "lng" : -89.09099409999999
            },
            "location_type" : "GEOMETRIC_CENTER",
            "viewport" : {
               "northeast" : {
                  "lat" : 35.7240612,
                  "lng" : -89.090006
               },
               "southwest" : {
                  "lat" : 35.71236630000001,
                  "lng" : -89.0938687
               }
            }
         },
         "types" : [ "route" ]
      },
      {
         "address_components" : [
            {
               "long_name" : "College Street",
               "short_name" : "College St",
               "types" : [ "route" ]
            },
            {
               "long_name" : "Monticello",
               "short_name" : "Monticello",
               "types" : [ "locality", "political" ]
            },
            {
               "long_name" : "Jasper County",
               "short_name" : "Jasper County",
               "types" : [ "administrative_area_level_2", "political" ]
            },
            {
               "long_name" : "Georgia",
               "short_name" : "GA",
               "types" : [ "administrative_area_level_1", "political" ]
            },
            {
               "long_name" : "United States",
               "short_name" : "US",
               "types" : [ "country", "political" ]
            },
            {
               "long_name" : "31064",
               "short_name" : "31064",
               "types" : [ "postal_code" ]
            }
         ],
         "formatted_address" : "College Street, Monticello, GA 31064, USA",
         "geometry" : {
            "bounds" : {
               "northeast" : {
                  "lat" : 33.3190658,
                  "lng" : -83.684968
               },
               "southwest" : {
                  "lat" : 33.3052025,
                  "lng" : -83.6889638
               }
            },
            "location" : {
               "lat" : 33.3123842,
               "lng" : -83.6866756
            },
            "location_type" : "GEOMETRIC_CENTER",
            "viewport" : {
               "northeast" : {
                  "lat" : 33.3190658,
                  "lng" : -83.684968
               },
               "southwest" : {
                  "lat" : 33.3052025,
                  "lng" : -83.6889638
               }
            }
         },
         "types" : [ "route" ]
      },
      {
         "address_components" : [
            {
               "long_name" : "College Street",
               "short_name" : "College St",
               "types" : [ "route" ]
            },
            {
               "long_name" : "Old Saybrook Center",
               "short_name" : "Old Saybrook Center",
               "types" : [ "neighborhood", "political" ]
            },
            {
               "long_name" : "Old Saybrook",
               "short_name" : "Old Saybrook",
               "types" : [ "locality", "political" ]
            },
            {
               "long_name" : "Middlesex County",
               "short_name" : "Middlesex County",
               "types" : [ "administrative_area_level_2", "political" ]
            },
            {
               "long_name" : "Connecticut",
               "short_name" : "CT",
               "types" : [ "administrative_area_level_1", "political" ]
            },
            {
               "long_name" : "United States",
               "short_name" : "US",
               "types" : [ "country", "political" ]
            },
            {
               "long_name" : "06475",
               "short_name" : "06475",
               "types" : [ "postal_code" ]
            }
         ],
         "formatted_address" : "College Street, Old Saybrook, CT 06475, USA",
         "geometry" : {
            "bounds" : {
               "northeast" : {
                  "lat" : 41.285642,
                  "lng" : -72.3502948
               },
               "southwest" : {
                  "lat" : 41.28232300000001,
                  "lng" : -72.3628763
               }
            },
            "location" : {
               "lat" : 41.28386769999999,
               "lng" : -72.35595959999999
            },
            "location_type" : "GEOMETRIC_CENTER",
            "viewport" : {
               "northeast" : {
                  "lat" : 41.285642,
                  "lng" : -72.3502948
               },
               "southwest" : {
                  "lat" : 41.28232300000001,
                  "lng" : -72.3628763
               }
            }
         },
         "types" : [ "route" ]
      },
      {
         "address_components" : [
            {
               "long_name" : "College Street",
               "short_name" : "College St",
               "types" : [ "route" ]
            },
            {
               "long_name" : "Lake Mills",
               "short_name" : "Lake Mills",
               "types" : [ "locality", "political" ]
            },
            {
               "long_name" : "Jefferson County",
               "short_name" : "Jefferson County",
               "types" : [ "administrative_area_level_2", "political" ]
            },
            {
               "long_name" : "Wisconsin",
               "short_name" : "WI",
               "types" : [ "administrative_area_level_1", "political" ]
            },
            {
               "long_name" : "United States",
               "short_name" : "US",
               "types" : [ "country", "political" ]
            },
            {
               "long_name" : "53551",
               "short_name" : "53551",
               "types" : [ "postal_code" ]
            }
         ],
         "formatted_address" : "College Street, Lake Mills, WI 53551, USA",
         "geometry" : {
            "bounds" : {
               "northeast" : {
                  "lat" : 43.083259,
                  "lng" : -88.913186
               },
               "southwest" : {
                  "lat" : 43.082348,
                  "lng" : -88.92210190000002
               }
            },
            "location" : {
               "lat" : 43.082842,
               "lng" : -88.9178781
            },
            "location_type" : "GEOMETRIC_CENTER",
            "viewport" : {
               "northeast" : {
                  "lat" : 43.08415248029149,
                  "lng" : -88.913186
               },
               "southwest" : {
                  "lat" : 43.08145451970849,
                  "lng" : -88.92210190000002
               }
            }
         },
         "types" : [ "route" ]
      },
      {
         "address_components" : [
            {
               "long_name" : "College Street",
               "short_name" : "College St",
               "types" : [ "route" ]
            },
            {
               "long_name" : "Westminster",
               "short_name" : "Westminster",
               "types" : [ "locality", "political" ]
            },
            {
               "long_name" : "Orange County",
               "short_name" : "Orange County",
               "types" : [ "administrative_area_level_2", "political" ]
            },
            {
               "long_name" : "California",
               "short_name" : "CA",
               "types" : [ "administrative_area_level_1", "political" ]
            },
            {
               "long_name" : "United States",
               "short_name" : "US",
               "types" : [ "country", "political" ]
            },
            {
               "long_name" : "92683",
               "short_name" : "92683",
               "types" : [ "postal_code" ]
            }
         ],
         "formatted_address" : "College Street, Westminster, CA 92683, USA",
         "geometry" : {
            "bounds" : {
               "northeast" : {
                  "lat" : 33.7612311,
                  "lng" : -118.039015
               },
               "southwest" : {
                  "lat" : 33.758629,
                  "lng" : -118.039545
               }
            },
            "location" : {
               "lat" : 33.7599071,
               "lng" : -118.0393038
            },
            "location_type" : "GEOMETRIC_CENTER",
            "viewport" : {
               "northeast" : {
                  "lat" : 33.7612790302915,
                  "lng" : -118.0379310197085
               },
               "southwest" : {
                  "lat" : 33.75858106970851,
                  "lng" : -118.0406289802915
               }
            }
         },
         "types" : [ "route" ]
      }
   ],
   "status" : "OK"
}
