{
   "results" : [
      {
         "address_components" : [
            {
               "long_name" : "Cotton Street",
               "short_name" : "Cotton St",
               "types" : [ "route" ]
            },
            {
               "long_name" : "Graceville",
               "short_name" : "Graceville",
               "types" : [ "locality", "political" ]
            },
            {
               "long_name" : "Jackson County",
               "short_name" : "Jackson County",
               "types" : [ "administrative_area_level_2", "political" ]
            },
            {
               "long_name" : "Florida",
               "short_name" : "FL",
               "types" : [ "administrative_area_level_1", "political" ]
            },
            {
               "long_name" : "United States",
               "short_name" : "US",
               "types" : [ "country", "political" ]
            },
            {
               "long_name" : "32440",
               "short_name" : "32440",
               "types" : [ "postal_code" ]
            }
         ],
         "formatted_address" : "Cotton Street, Graceville, FL 32440, USA",
         "geometry" : {
            "bounds" : {
               "northeast" : {
                  "lat" : 30.963934,
                  "lng" : -85.51464399999999
               },
               "southwest" : {
                  "lat" : 30.95022,
                  "lng" : -85.517341
               }
            },
            "location" : {
               "lat" : 30.9572575,
               "lng" : -85.5166449
            },
            "location_type" : "GEOMETRIC_CENTER",
            "viewport" : {
               "northeast" : {
                  "lat" : 30.963934,
                  "lng" : -85.51464351970849
               },
               "southwest" : {
                  "lat" : 30.95022,
                  "lng" : -85.51734148029149
               }
            }
         },
         "types" : [ "route" ]
      },
      {
         "address_components" : [
            {
               "long_name" : "Cotton Street",
               "short_name" : "Cotton St",
               "types" : [ "route" ]
            },
            {
               "long_name" : "Pelican",
               "short_name" : "Pelican",
               "types" : [ "locality", "political" ]
            },
            {
               "long_name" : "6",
               "short_name" : "6",
               "types" : [ "administrative_area_level_3", "political" ]
            },
            {
               "long_name" : "De Soto Parish",
               "short_name" : "De Soto Parish",
               "types" : [ "administrative_area_level_2", "political" ]
            },
            {
               "long_name" : "Louisiana",
               "short_name" : "LA",
               "types" : [ "administrative_area_level_1", "political" ]
            },
            {
               "long_name" : "United States",
               "short_name" : "US",
               "types" : [ "country", "political" ]
            },
            {
               "long_name" : "71063",
               "short_name" : "71063",
               "types" : [ "postal_code" ]
            }
         ],
         "formatted_address" : "Cotton Street, Pelican, LA 71063, USA",
         "geometry" : {
            "bounds" : {
               "northeast" : {
                  "lat" : 31.8891427,
                  "lng" : -93.58559149999999
               },
               "southwest" : {
                  "lat" : 31.8815062,
                  "lng" : -93.59352489999999
               }
            },
            "location" : {
               "lat" : 31.8854089,
               "lng" : -93.5896609
            },
            "location_type" : "GEOMETRIC_CENTER",
            "viewport" : {
               "northeast" : {
                  "lat" : 31.8891427,
                  "lng" : -93.58559149999999
               },
               "southwest" : {
                  "lat" : 31.8815062,
                  "lng" : -93.59352489999999
               }
            }
         },
         "types" : [ "route" ]
      },
      {
         "address_components" : [
            {
               "long_name" : "Cotton Street",
               "short_name" : "Cotton St",
               "types" : [ "route" ]
            },
            {
               "long_name" : "Vienna",
               "short_name" : "Vienna",
               "types" : [ "locality", "political" ]
            },
            {
               "long_name" : "Dooly County",
               "short_name" : "Dooly County",
               "types" : [ "administrative_area_level_2", "political" ]
            },
            {
               "long_name" : "Georgia",
               "short_name" : "GA",
               "types" : [ "administrative_area_level_1", "political" ]
            },
            {
               "long_name" : "United States",
               "short_name" : "US",
               "types" : [ "country", "political" ]
            },
            {
               "long_name" : "31092",
               "short_name" : "31092",
               "types" : [ "postal_code" ]
            }
         ],
         "formatted_address" : "Cotton Street, Vienna, GA 31092, USA",
         "geometry" : {
            "bounds" : {
               "northeast" : {
                  "lat" : 32.0912288,
                  "lng" : -83.79238730000002
               },
               "southwest" : {
                  "lat" : 32.0902401,
                  "lng" : -83.8003312
               }
            },
            "location" : {
               "lat" : 32.0906976,
               "lng" : -83.7964458
            },
            "location_type" : "GEOMETRIC_CENTER",
            "viewport" : {
               "northeast" : {
                  "lat" : 32.0920834302915,
                  "lng" : -83.79238730000002
               },
               "southwest" : {
                  "lat" : 32.0893854697085,
                  "lng" : -83.8003312
               }
            }
         },
         "types" : [ "route" ]
      },
      {
         "address_components" : [
            {
               "long_name" : "Cotton Street",
               "short_name" : "Cotton St",
               "types" : [ "route" ]
            },
            {
               "long_name" : "Reading",
               "short_name" : "Reading",
               "types" : [ "locality", "political" ]
            },
            {
               "long_name" : "Berks County",
               "short_name" : "Berks County",
               "types" : [ "administrative_area_level_2", "political" ]
            },
            {
               "long_name" : "Pennsylvania",
               "short_name" : "PA",
               "types" : [ "administrative_area_level_1", "political" ]
            },
            {
               "long_name" : "United States",
               "short_name" : "US",
               "types" : [ "country", "political" ]
            }
         ],
         "formatted_address" : "Cotton Street, Reading, PA, USA",
         "geometry" : {
            "bounds" : {
               "northeast" : {
                  "lat" : 40.328874,
                  "lng" : -75.900554
               },
               "southwest" : {
                  "lat" : 40.327745,
                  "lng" : -75.920281
               }
            },
            "location" : {
               "lat" : 40.3285415,
               "lng" : -75.9106185
            },
            "location_type" : "GEOMETRIC_CENTER",
            "viewport" : {
               "northeast" : {
                  "lat" : 40.3296584802915,
                  "lng" : -75.900554
               },
               "southwest" : {
                  "lat" : 40.3269605197085,
                  "lng" : -75.920281
               }
            }
         },
         "types" : [ "route" ]
      },
      {
         "address_components" : [
            {
               "long_name" : "Cotton Street",
               "short_name" : "Cotton St",
               "types" : [ "route" ]
            },
            {
               "long_name" : "Fairfield",
               "short_name" : "Fairfield",
               "types" : [ "locality", "political" ]
            },
            {
               "long_name" : "Freestone County",
               "short_name" : "Freestone County",
               "types" : [ "administrative_area_level_2", "political" ]
            },
            {
               "long_name" : "Texas",
               "short_name" : "TX",
               "types" : [ "administrative_area_level_1", "political" ]
            },
            {
               "long_name" : "United States",
               "short_name" : "US",
               "types" : [ "country", "political" ]
            },
            {
               "long_name" : "75840",
               "short_name" : "75840",
               "types" : [ "postal_code" ]
            }
         ],
         "formatted_address" : "Cotton Street, Fairfield, TX 75840, USA",
         "geometry" : {
            "bounds" : {
               "northeast" : {
                  "lat" : 31.7395337,
                  "lng" : -96.15478089999999
               },
               "southwest" : {
                  "lat" : 31.7251539,
                  "lng" : -96.1572532
               }
            },
            "location" : {
               "lat" : 31.7326111,
               "lng" : -96.1568391
            },
            "location_type" : "GEOMETRIC_CENTER",
            "viewport" : {
               "northeast" : {
                  "lat" : 31.7395337,
                  "lng" : -96.15466806970849
               },
               "southwest" : {
                  "lat" : 31.7251539,
                  "lng" : -96.1573660302915
               }
            }
         },
         "types" : [ "route" ]
      },
      {
         "address_components" : [
            {
               "long_name" : "Cotton Street",
               "short_name" : "Cotton St",
               "types" : [ "route" ]
            },
            {
               "long_name" : "Mount Olive",
               "short_name" : "Mt Olive",
               "types" : [ "locality", "political" ]
            },
            {
               "long_name" : "Covington County",
               "short_name" : "Covington County",
               "types" : [ "administrative_area_level_2", "political" ]
            },
            {
               "long_name" : "Mississippi",
               "short_name" : "MS",
               "types" : [ "administrative_area_level_1", "political" ]
            },
            {
               "long_name" : "United States",
               "short_name" : "US",
               "types" : [ "country", "political" ]
            },
            {
               "long_name" : "39119",
               "short_name" : "39119",
               "types" : [ "postal_code" ]
            }
         ],
         "formatted_address" : "Cotton Street, Mount Olive, MS 39119, USA",
         "geometry" : {
            "bounds" : {
               "northeast" : {
                  "lat" : 31.761214,
                  "lng" : -89.6491625
               },
               "southwest" : {
                  "lat" : 31.7506319,
                  "lng" : -89.6575648
               }
            },
            "location" : {
               "lat" : 31.75690599999999,
               "lng" : -89.65206219999999
            },
            "location_type" : "GEOMETRIC_CENTER",
            "viewport" : {
               "northeast" : {
                  "lat" : 31.761214,
                  "lng" : -89.6491625
               },
               "southwest" : {
                  "lat" : 31.7506319,
                  "lng" : -89.6575648
               }
            }
         },
         "types" : [ "route" ]
      },
      {
         "address_components" : [
            {
               "long_name" : "Cotton Street",
               "short_name" : "Cotton St",
               "types" : [ "route" ]
            },
            {
               "long_name" : "Greenwood",
               "short_name" : "Greenwood",
               "types" : [ "locality", "political" ]
            },
            {
               "long_name" : "Leflore County",
               "short_name" : "Leflore County",
               "types" : [ "administrative_area_level_2", "political" ]
            },
            {
               "long_name" : "Mississippi",
               "short_name" : "MS",
               "types" : [ "administrative_area_level_1", "political" ]
            },
            {
               "long_name" : "United States",
               "short_name" : "US",
               "types" : [ "country", "political" ]
            },
            {
               "long_name" : "38930",
               "short_name" : "38930",
               "types" : [ "postal_code" ]
            }
         ],
         "formatted_address" : "Cotton Street, Greenwood, MS 38930, USA",
         "geometry" : {
            "bounds" : {
               "northeast" : {
                  "lat" : 33.5209169,
                  "lng" : -90.1809628
               },
               "southwest" : {
                  "lat" : 33.5094502,
                  "lng" : -90.18538699999999
               }
            },
            "location" : {
               "lat" : 33.5149928,
               "lng" : -90.18345459999999
            },
            "location_type" : "GEOMETRIC_CENTER",
            "viewport" : {
               "northeast" : {
                  "lat" : 33.5209169,
                  "lng" : -90.1809628
               },
               "southwest" : {
                  "lat" : 33.5094502,
                  "lng" : -90.18538699999999
               }
            }
         },
         "types" : [ "route" ]
      },
      {
         "address_components" : [
            {
               "long_name" : "Cotton Street",
               "short_name" : "Cotton St",
               "types" : [ "route" ]
            },
            {
               "long_name" : "Lumpkin",
               "short_name" : "Lumpkin",
               "types" : [ "locality", "political" ]
            },
            {
               "long_name" : "Stewart County",
               "short_name" : "Stewart County",
               "types" : [ "administrative_area_level_2", "political" ]
            },
            {
               "long_name" : "Georgia",
               "short_name" : "GA",
               "types" : [ "administrative_area_level_1", "political" ]
            },
            {
               "long_name" : "United States",
               "short_name" : "US",
               "types" : [ "country", "political" ]
            },
            {
               "long_name" : "31815",
               "short_name" : "31815",
               "types" : [ "postal_code" ]
            }
         ],
         "formatted_address" : "Cotton Street, Lumpkin, GA 31815, USA",
         "geometry" : {
            "bounds" : {
               "northeast" : {
                  "lat" : 32.0582514,
                  "lng" : -84.7949311
               },
               "southwest" : {
                  "lat" : 32.0457812,
                  "lng" : -84.7951666
               }
            },
            "location" : {
               "lat" : 32.0518834,
               "lng" : -84.79508629999999
            },
            "location_type" : "GEOMETRIC_CENTER",
            "viewport" : {
               "northeast" : {
                  "lat" : 32.0582514,
                  "lng" : -84.79369986970849
               },
               "southwest" : {
                  "lat" : 32.0457812,
                  "lng" : -84.79639783029151
               }
            }
         },
         "types" : [ "route" ]
      },
      {
         "address_components" : [
            {
               "long_name" : "Cotton Street",
               "short_name" : "Cotton St",
               "types" : [ "route" ]
            },
            {
               "long_name" : "Menlo Park",
               "short_name" : "Menlo Park",
               "types" : [ "locality", "political" ]
            },
            {
               "long_name" : "San Mateo County",
               "short_name" : "San Mateo County",
               "types" : [ "administrative_area_level_2", "political" ]
            },
            {
               "long_name" : "California",
               "short_name" : "CA",
               "types" : [ "administrative_area_level_1", "political" ]
            },
            {
               "long_name" : "United States",
               "short_name" : "US",
               "types" : [ "country", "political" ]
            },
            {
               "long_name" : "94025",
               "short_name" : "94025",
               "types" : [ "postal_code" ]
            }
         ],
         "formatted_address" : "Cotton Street, Menlo Park, CA 94025, USA",
         "geometry" : {
            "bounds" : {
               "northeast" : {
                  "lat" : 37.4443791,
                  "lng" : -122.1842982
               },
               "southwest" : {
                  "lat" : 37.4363839,
                  "lng" : -122.1972009
               }
            },
            "location" : {
               "lat" : 37.4420261,
               "lng" : -122.1925165
            },
            "location_type" : "GEOMETRIC_CENTER",
            "viewport" : {
               "northeast" : {
                  "lat" : 37.4443791,
                  "lng" : -122.1842982
               },
               "southwest" : {
                  "lat" : 37.4363839,
                  "lng" : -122.1972009
               }
            }
         },
         "types" : [ "route" ]
      },
      {
         "address_components" : [
            {
               "long_name" : "Cotton Street",
               "short_name" : "Cotton St",
               "types" : [ "route" ]
            },
            {
               "long_name" : "Rayville",
               "short_name" : "Rayville",
               "types" : [ "locality", "political" ]
            },
            {
               "long_name" : "Richland Parish",
               "short_name" : "Richland Parish",
               "types" : [ "administrative_area_level_2", "political" ]
            },
            {
               "long_name" : "Louisiana",
               "short_name" : "LA",
               "types" : [ "administrative_area_level_1", "political" ]
            },
            {
               "long_name" : "United States",
               "short_name" : "US",
               "types" : [ "country", "political" ]
            },
            {
               "long_name" : "71269",
               "short_name" : "71269",
               "types" : [ "postal_code" ]
            }
         ],
         "formatted_address" : "Cotton Street, Rayville, LA 71269, USA",
         "geometry" : {
            "bounds" : {
               "northeast" : {
                  "lat" : 32.4709187,
                  "lng" : -91.74796189999999
               },
               "southwest" : {
                  "lat" : 32.47043780000001,
                  "lng" : -91.76191679999999
               }
            },
            "location" : {
               "lat" : 32.4705895,
               "lng" : -91.7549724
            },
            "location_type" : "GEOMETRIC_CENTER",
            "viewport" : {
               "northeast" : {
                  "lat" : 32.47202723029151,
                  "lng" : -91.74796189999999
               },
               "southwest" : {
                  "lat" : 32.46932926970851,
                  "lng" : -91.76191679999999
               }
            }
         },
         "types" : [ "route" ]
      },
      {
         "address_components" : [
            {
               "long_name" : "Cotton Street",
               "short_name" : "Cotton St",
               "types" : [ "route" ]
            },
            {
               "long_name" : "Mobile",
               "short_name" : "Mobile",
               "types" : [ "locality", "political" ]
            },
            {
               "long_name" : "Mobile County",
               "short_name" : "Mobile County",
               "types" : [ "administrative_area_level_2", "political" ]
            },
            {
               "long_name" : "Alabama",
               "short_name" : "AL",
               "types" : [ "administrative_area_level_1", "political" ]
            },
            {
               "long_name" : "United States",
               "short_name" : "US",
               "types" : [ "country", "political" ]
            },
            {
               "long_name" : "36607",
               "short_name" : "36607",
               "types" : [ "postal_code" ]
            }
         ],
         "formatted_address" : "Cotton Street, Mobile, AL 36607, USA",
         "geometry" : {
            "bounds" : {
               "northeast" : {
                  "lat" : 30.709505,
                  "lng" : -88.10230199999999
               },
               "southwest" : {
                  "lat" : 30.70842,
                  "lng" : -88.11462299999999
               }
            },
            "location" : {
               "lat" : 30.709505,
               "lng" : -88.10817999999999
            },
            "location_type" : "GEOMETRIC_CENTER",
            "viewport" : {
               "northeast" : {
                  "lat" : 30.71031148029151,
                  "lng" : -88.10230199999999
               },
               "southwest" : {
                  "lat" : 30.70761351970851,
                  "lng" : -88.11462299999999
               }
            }
         },
         "types" : [ "route" ]
      },
      {
         "address_components" : [
            {
               "long_name" : "Cotton Street",
               "short_name" : "Cotton St",
               "types" : [ "route" ]
            },
            {
               "long_name" : "Shreveport",
               "short_name" : "Shreveport",
               "types" : [ "locality", "political" ]
            },
            {
               "long_name" : "3",
               "short_name" : "3",
               "types" : [ "administrative_area_level_3", "political" ]
            },
            {
               "long_name" : "Caddo Parish",
               "short_name" : "Caddo Parish",
               "types" : [ "administrative_area_level_2", "political" ]
            },
            {
               "long_name" : "Louisiana",
               "short_name" : "LA",
               "types" : [ "administrative_area_level_1", "political" ]
            },
            {
               "long_name" : "United States",
               "short_name" : "US",
               "types" : [ "country", "political" ]
            },
            {
               "long_name" : "71101",
               "short_name" : "71101",
               "types" : [ "postal_code" ]
            }
         ],
         "formatted_address" : "Cotton Street, Shreveport, LA 71101, USA",
         "geometry" : {
            "bounds" : {
               "northeast" : {
                  "lat" : 32.5142314,
                  "lng" : -93.7421296
               },
               "southwest" : {
                  "lat" : 32.5070405,
                  "lng" : -93.7519009
               }
            },
            "location" : {
               "lat" : 32.510387,
               "lng" : -93.747225
            },
            "location_type" : "GEOMETRIC_CENTER",
            "viewport" : {
               "northeast" : {
                  "lat" : 32.5142314,
                  "lng" : -93.7421296
               },
               "southwest" : {
                  "lat" : 32.5070405,
                  "lng" : -93.7519009
               }
            }
         },
         "types" : [ "route" ]
      },
      {
         "address_components" : [
            {
               "long_name" : "Cotton Street",
               "short_name" : "Cotton St",
               "types" : [ "route" ]
            },
            {
               "long_name" : "Homeland",
               "short_name" : "Homeland",
               "types" : [ "locality", "political" ]
            },
            {
               "long_name" : "Charlton County",
               "short_name" : "Charlton County",
               "types" : [ "administrative_area_level_2", "political" ]
            },
            {
               "long_name" : "Georgia",
               "short_name" : "GA",
               "types" : [ "administrative_area_level_1", "political" ]
            },
            {
               "long_name" : "United States",
               "short_name" : "US",
               "types" : [ "country", "political" ]
            },
            {
               "long_name" : "31537",
               "short_name" : "31537",
               "types" : [ "postal_code" ]
            }
         ],
         "formatted_address" : "Cotton Street, Homeland, GA 31537, USA",
         "geometry" : {
            "bounds" : {
               "northeast" : {
                  "lat" : 30.858366,
                  "lng" : -82.0166253
               },
               "southwest" : {
                  "lat" : 30.8521894,
                  "lng" : -82.02529899999999
               }
            },
            "location" : {
               "lat" : 30.8550758,
               "lng" : -82.02137949999999
            },
            "location_type" : "GEOMETRIC_CENTER",
            "viewport" : {
               "northeast" : {
                  "lat" : 30.858366,
                  "lng" : -82.0166253
               },
               "southwest" : {
                  "lat" : 30.8521894,
                  "lng" : -82.02529899999999
               }
            }
         },
         "types" : [ "route" ]
      },
      {
         "address_components" : [
            {
               "long_name" : "Cotton Street",
               "short_name" : "Cotton St",
               "types" : [ "route" ]
            },
            {
               "long_name" : "Newton",
               "short_name" : "Newton",
               "types" : [ "locality", "political" ]
            },
            {
               "long_name" : "Middlesex County",
               "short_name" : "Middlesex County",
               "types" : [ "administrative_area_level_2", "political" ]
            },
            {
               "long_name" : "Massachusetts",
               "short_name" : "MA",
               "types" : [ "administrative_area_level_1", "political" ]
            },
            {
               "long_name" : "United States",
               "short_name" : "US",
               "types" : [ "country", "political" ]
            },
            {
               "long_name" : "02458",
               "short_name" : "02458",
               "types" : [ "postal_code" ]
            }
         ],
         "formatted_address" : "Cotton Street, Newton, MA 02458, USA",
         "geometry" : {
            "bounds" : {
               "northeast" : {
                  "lat" : 42.3427403,
                  "lng" : -71.1829022
               },
               "southwest" : {
                  "lat" : 42.3407906,
                  "lng" : -71.19221899999999
               }
            },
            "location" : {
               "lat" : 42.3416808,
               "lng" : -71.18738089999999
            },
            "location_type" : "GEOMETRIC_CENTER",
            "viewport" : {
               "northeast" : {
                  "lat" : 42.34311443029149,
                  "lng" : -71.1829022
               },
               "southwest" : {
                  "lat" : 42.3404164697085,
                  "lng" : -71.19221899999999
               }
            }
         },
         "types" : [ "route" ]
      },
      {
         "address_components" : [
            {
               "long_name" : "Cotton Street",
               "short_name" : "Cotton St",
               "types" : [ "route" ]
            },
            {
               "long_name" : "New Iberia",
               "short_name" : "New Iberia",
               "types" : [ "locality", "political" ]
            },
            {
               "long_name" : "11",
               "short_name" : "11",
               "types" : [ "administrative_area_level_3", "political" ]
            },
            {
               "long_name" : "Iberia Parish",
               "short_name" : "Iberia Parish",
               "types" : [ "administrative_area_level_2", "political" ]
            },
            {
               "long_name" : "Louisiana",
               "short_name" : "LA",
               "types" : [ "administrative_area_level_1", "political" ]
            },
            {
               "long_name" : "United States",
               "short_name" : "US",
               "types" : [ "country", "political" ]
            },
            {
               "long_name" : "70563",
               "short_name" : "70563",
               "types" : [ "postal_code" ]
            }
         ],
         "formatted_address" : "Cotton Street, New Iberia, LA 70563, USA",
         "geometry" : {
            "bounds" : {
               "northeast" : {
                  "lat" : 29.99213899999999,
                  "lng" : -91.75813289999999
               },
               "southwest" : {
                  "lat" : 29.983298,
                  "lng" : -91.762305
               }
            },
            "location" : {
               "lat" : 29.9884867,
               "lng" : -91.75974459999999
            },
            "location_type" : "GEOMETRIC_CENTER",
            "viewport" : {
               "northeast" : {
                  "lat" : 29.99213899999999,
                  "lng" : -91.75813289999999
               },
               "southwest" : {
                  "lat" : 29.983298,
                  "lng" : -91.762305
               }
            }
         },
         "types" : [ "route" ]
      },
      {
         "address_components" : [
            {
               "long_name" : "Cotton Street",
               "short_name" : "Cotton St",
               "types" : [ "route" ]
            },
            {
               "long_name" : "Saint George",
               "short_name" : "St George",
               "types" : [ "locality", "political" ]
            },
            {
               "long_name" : "Charlton County",
               "short_name" : "Charlton County",
               "types" : [ "administrative_area_level_2", "political" ]
            },
            {
               "long_name" : "Georgia",
               "short_name" : "GA",
               "types" : [ "administrative_area_level_1", "political" ]
            },
            {
               "long_name" : "United States",
               "short_name" : "US",
               "types" : [ "country", "political" ]
            },
            {
               "long_name" : "31562",
               "short_name" : "31562",
               "types" : [ "postal_code" ]
            }
         ],
         "formatted_address" : "Cotton Street, Saint George, GA 31562, USA",
         "geometry" : {
            "bounds" : {
               "northeast" : {
                  "lat" : 30.5253411,
                  "lng" : -82.03000630000001
               },
               "southwest" : {
                  "lat" : 30.5244347,
                  "lng" : -82.0392064
               }
            },
            "location" : {
               "lat" : 30.525053,
               "lng" : -82.03255519999999
            },
            "location_type" : "GEOMETRIC_CENTER",
            "viewport" : {
               "northeast" : {
                  "lat" : 30.5262368802915,
                  "lng" : -82.03000630000001
               },
               "southwest" : {
                  "lat" : 30.5235389197085,
                  "lng" : -82.0392064
               }
            }
         },
         "types" : [ "route" ]
      },
      {
         "address_components" : [
            {
               "long_name" : "Cotton Street",
               "short_name" : "Cotton St",
               "types" : [ "route" ]
            },
            {
               "long_name" : "Brush",
               "short_name" : "Brush",
               "types" : [ "locality", "political" ]
            },
            {
               "long_name" : "Morgan County",
               "short_name" : "Morgan County",
               "types" : [ "administrative_area_level_2", "political" ]
            },
            {
               "long_name" : "Colorado",
               "short_name" : "CO",
               "types" : [ "administrative_area_level_1", "political" ]
            },
            {
               "long_name" : "United States",
               "short_name" : "US",
               "types" : [ "country", "political" ]
            },
            {
               "long_name" : "80723",
               "short_name" : "80723",
               "types" : [ "postal_code" ]
            }
         ],
         "formatted_address" : "Cotton Street, Brush, CO 80723, USA",
         "geometry" : {
            "bounds" : {
               "northeast" : {
                  "lat" : 40.2653588,
                  "lng" : -103.6216588
               },
               "southwest" : {
                  "lat" : 40.2649974,
                  "lng" : -103.6312084
               }
            },
            "location" : {
               "lat" : 40.2651653,
               "lng" : -103.6262075
            },
            "location_type" : "GEOMETRIC_CENTER",
            "viewport" : {
               "northeast" : {
                  "lat" : 40.2665270802915,
                  "lng" : -103.6216588
               },
               "southwest" : {
                  "lat" : 40.2638291197085,
                  "lng" : -103.6312084
               }
            }
         },
         "types" : [ "route" ]
      },
      {
         "address_components" : [
            {
               "long_name" : "Cotton Street",
               "short_name" : "Cotton St",
               "types" : [ "route" ]
            },
            {
               "long_name" : "Freeport",
               "short_name" : "Freeport",
               "types" : [ "locality", "political" ]
            },
            {
               "long_name" : "Brazoria County",
               "short_name" : "Brazoria County",
               "types" : [ "administrative_area_level_2", "political" ]
            },
            {
               "long_name" : "Texas",
               "short_name" : "TX",
               "types" : [ "administrative_area_level_1", "political" ]
            },
            {
               "long_name" : "United States",
               "short_name" : "US",
               "types" : [ "country", "political" ]
            },
            {
               "long_name" : "77541",
               "short_name" : "77541",
               "types" : [ "postal_code" ]
            }
         ],
         "formatted_address" : "Cotton Street, Freeport, TX 77541, USA",
         "geometry" : {
            "bounds" : {
               "northeast" : {
                  "lat" : 28.97233,
                  "lng" : -95.48912840000001
               },
               "southwest" : {
                  "lat" : 28.968808,
                  "lng" : -95.494962
               }
            },
            "location" : {
               "lat" : 28.97200519999999,
               "lng" : -95.49224720000001
            },
            "location_type" : "GEOMETRIC_CENTER",
            "viewport" : {
               "northeast" : {
                  "lat" : 28.97233,
                  "lng" : -95.48912840000001
               },
               "southwest" : {
                  "lat" : 28.968808,
                  "lng" : -95.494962
               }
            }
         },
         "types" : [ "route" ]
      },
      {
         "address_components" : [
            {
               "long_name" : "Cotton Street",
               "short_name" : "Cotton St",
               "types" : [ "route" ]
            },
            {
               "long_name" : "Carthage",
               "short_name" : "Carthage",
               "types" : [ "locality", "political" ]
            },
            {
               "long_name" : "Panola County",
               "short_name" : "Panola County",
               "types" : [ "administrative_area_level_2", "political" ]
            },
            {
               "long_name" : "Texas",
               "short_name" : "TX",
               "types" : [ "administrative_area_level_1", "political" ]
            },
            {
               "long_name" : "United States",
               "short_name" : "US",
               "types" : [ "country", "political" ]
            },
            {
               "long_name" : "75633",
               "short_name" : "75633",
               "types" : [ "postal_code" ]
            }
         ],
         "formatted_address" : "Cotton Street, Carthage, TX 75633, USA",
         "geometry" : {
            "bounds" : {
               "northeast" : {
                  "lat" : 32.1550253,
                  "lng" : -94.3354379
               },
               "southwest" : {
                  "lat" : 32.1526922,
                  "lng" : -94.3405118
               }
            },
            "location" : {
               "lat" : 32.1531145,
               "lng" : -94.3377455
            },
            "location_type" : "GEOMETRIC_CENTER",
            "viewport" : {
               "northeast" : {
                  "lat" : 32.15520773029149,
                  "lng" : -94.3354379
               },
               "southwest" : {
                  "lat" : 32.15250976970849,
                  "lng" : -94.3405118
               }
            }
         },
         "types" : [ "route" ]
      },
      {
         "address_components" : [
            {
               "long_name" : "Cotton Street",
               "short_name" : "Cotton St",
               "types" : [ "route" ]
            },
            {
               "long_name" : "West Monroe",
               "short_name" : "West Monroe",
               "types" : [ "locality", "political" ]
            },
            {
               "long_name" : "C",
               "short_name" : "C",
               "types" : [ "administrative_area_level_3", "political" ]
            },
            {
               "long_name" : "Ouachita Parish",
               "short_name" : "Ouachita Parish",
               "types" : [ "administrative_area_level_2", "political" ]
            },
            {
               "long_name" : "Louisiana",
               "short_name" : "LA",
               "types" : [ "administrative_area_level_1", "political" ]
            },
            {
               "long_name" : "United States",
               "short_name" : "US",
               "types" : [ "country", "political" ]
            },
            {
               "long_name" : "71291",
               "short_name" : "71291",
               "types" : [ "postal_code" ]
            }
         ],
         "formatted_address" : "Cotton Street, West Monroe, LA 71291, USA",
         "geometry" : {
            "bounds" : {
               "northeast" : {
                  "lat" : 32.5047081,
                  "lng" : -92.12407619999999
               },
               "southwest" : {
                  "lat" : 32.5003178,
                  "lng" : -92.12807819999999
               }
            },
            "location" : {
               "lat" : 32.5025666,
               "lng" : -92.1260525
            },
            "location_type" : "GEOMETRIC_CENTER",
            "viewport" : {
               "northeast" : {
                  "lat" : 32.5047081,
                  "lng" : -92.12407619999999
               },
               "southwest" : {
                  "lat" : 32.5003178,
                  "lng" : -92.12807819999999
               }
            }
         },
         "types" : [ "route" ]
      },
      {
         "address_components" : [
            {
               "long_name" : "Cotton Street",
               "short_name" : "Cotton St",
               "types" : [ "route" ]
            },
            {
               "long_name" : "Evergreen",
               "short_name" : "Evergreen",
               "types" : [ "locality", "political" ]
            },
            {
               "long_name" : "8",
               "short_name" : "8",
               "types" : [ "administrative_area_level_3", "political" ]
            },
            {
               "long_name" : "Avoyelles Parish",
               "short_name" : "Avoyelles Parish",
               "types" : [ "administrative_area_level_2", "political" ]
            },
            {
               "long_name" : "Louisiana",
               "short_name" : "LA",
               "types" : [ "administrative_area_level_1", "political" ]
            },
            {
               "long_name" : "United States",
               "short_name" : "US",
               "types" : [ "country", "political" ]
            }
         ],
         "formatted_address" : "Cotton Street, Evergreen, LA, USA",
         "geometry" : {
            "bounds" : {
               "northeast" : {
                  "lat" : 30.9578526,
                  "lng" : -92.1096024
               },
               "southwest" : {
                  "lat" : 30.9525655,
                  "lng" : -92.1117984
               }
            },
            "location" : {
               "lat" : 30.9553414,
               "lng" : -92.1104266
            },
            "location_type" : "GEOMETRIC_CENTER",
            "viewport" : {
               "northeast" : {
                  "lat" : 30.9578526,
                  "lng" : -92.1093514197085
               },
               "southwest" : {
                  "lat" : 30.9525655,
                  "lng" : -92.11204938029151
               }
            }
         },
         "types" : [ "route" ]
      },
      {
         "address_components" : [
            {
               "long_name" : "Cotton Street",
               "short_name" : "Cotton St",
               "types" : [ "route" ]
            },
            {
               "long_name" : "Northwest Philadelphia",
               "short_name" : "Northwest Philadelphia",
               "types" : [ "neighborhood", "political" ]
            },
            {
               "long_name" : "Philadelphia",
               "short_name" : "Philadelphia",
               "types" : [ "locality", "political" ]
            },
            {
               "long_name" : "Philadelphia County",
               "short_name" : "Philadelphia County",
               "types" : [ "administrative_area_level_2", "political" ]
            },
            {
               "long_name" : "Pennsylvania",
               "short_name" : "PA",
               "types" : [ "administrative_area_level_1", "political" ]
            },
            {
               "long_name" : "United States",
               "short_name" : "US",
               "types" : [ "country", "political" ]
            }
         ],
         "formatted_address" : "Cotton Street, Philadelphia, PA, USA",
         "geometry" : {
            "bounds" : {
               "northeast" : {
                  "lat" : 40.0280291,
                  "lng" : -75.21711560000001
               },
               "southwest" : {
                  "lat" : 40.0245795,
                  "lng" : -75.2230878
               }
            },
            "location" : {
               "lat" : 40.0265861,
               "lng" : -75.2202403
            },
            "location_type" : "GEOMETRIC_CENTER",
            "viewport" : {
               "northeast" : {
                  "lat" : 40.0280291,
                  "lng" : -75.21711560000001
               },
               "southwest" : {
                  "lat" : 40.0245795,
                  "lng" : -75.2230878
               }
            }
         },
         "types" : [ "route" ]
      },
      {
         "address_components" : [
            {
               "long_name" : "Cotton Street",
               "short_name" : "Cotton St",
               "types" : [ "route" ]
            },
            {
               "long_name" : "Polkton",
               "short_name" : "Polkton",
               "types" : [ "locality", "political" ]
            },
            {
               "long_name" : "Lanesboro",
               "short_name" : "Lanesboro",
               "types" : [ "administrative_area_level_3", "political" ]
            },
            {
               "long_name" : "Anson County",
               "short_name" : "Anson County",
               "types" : [ "administrative_area_level_2", "political" ]
            },
            {
               "long_name" : "North Carolina",
               "short_name" : "NC",
               "types" : [ "administrative_area_level_1", "political" ]
            },
            {
               "long_name" : "United States",
               "short_name" : "US",
               "types" : [ "country", "political" ]
            },
            {
               "long_name" : "28135",
               "short_name" : "28135",
               "types" : [ "postal_code" ]
            }
         ],
         "formatted_address" : "Cotton Street, Polkton, NC 28135, USA",
         "geometry" : {
            "bounds" : {
               "northeast" : {
                  "lat" : 34.9994924,
                  "lng" : -80.20601499999999
               },
               "southwest" : {
                  "lat" : 34.995956,
                  "lng" : -80.2139919
               }
            },
            "location" : {
               "lat" : 34.9976672,
               "lng" : -80.2101306
            },
            "location_type" : "GEOMETRIC_CENTER",
            "viewport" : {
               "northeast" : {
                  "lat" : 34.9994924,
                  "lng" : -80.20601499999999
               },
               "southwest" : {
                  "lat" : 34.995956,
                  "lng" : -80.2139919
               }
            }
         },
         "types" : [ "route" ]
      },
      {
         "address_components" : [
            {
               "long_name" : "Cotton Street",
               "short_name" : "Cotton St",
               "types" : [ "route" ]
            },
            {
               "long_name" : "Montgomery",
               "short_name" : "Montgomery",
               "types" : [ "locality", "political" ]
            },
            {
               "long_name" : "Montgomery County",
               "short_name" : "Montgomery County",
               "types" : [ "administrative_area_level_2", "political" ]
            },
            {
               "long_name" : "Alabama",
               "short_name" : "AL",
               "types" : [ "administrative_area_level_1", "political" ]
            },
            {
               "long_name" : "United States",
               "short_name" : "US",
               "types" : [ "country", "political" ]
            },
            {
               "long_name" : "36110",
               "short_name" : "36110",
               "types" : [ "postal_code" ]
            }
         ],
         "formatted_address" : "Cotton Street, Montgomery, AL 36110, USA",
         "geometry" : {
            "bounds" : {
               "northeast" : {
                  "lat" : 32.4112919,
                  "lng" : -86.283608
               },
               "southwest" : {
                  "lat" : 32.4056689,
                  "lng" : -86.284453
               }
            },
            "location" : {
               "lat" : 32.4082363,
               "lng" : -86.2839565
            },
            "location_type" : "GEOMETRIC_CENTER",
            "viewport" : {
               "northeast" : {
                  "lat" : 32.4112919,
                  "lng" : -86.28268151970849
               },
               "southwest" : {
                  "lat" : 32.4056689,
                  "lng" : -86.2853794802915
               }
            }
         },
         "types" : [ "route" ]
      },
      {
         "address_components" : [
            {
               "long_name" : "Cotton Street",
               "short_name" : "Cotton St",
               "types" : [ "route" ]
            },
            {
               "long_name" : "Marks",
               "short_name" : "Marks",
               "types" : [ "locality", "political" ]
            },
            {
               "long_name" : "Quitman County",
               "short_name" : "Quitman County",
               "types" : [ "administrative_area_level_2", "political" ]
            },
            {
               "long_name" : "Mississippi",
               "short_name" : "MS",
               "types" : [ "administrative_area_level_1", "political" ]
            },
            {
               "long_name" : "United States",
               "short_name" : "US",
               "types" : [ "country", "political" ]
            },
            {
               "long_name" : "38646",
               "short_name" : "38646",
               "types" : [ "postal_code" ]
            }
         ],
         "formatted_address" : "Cotton Street, Marks, MS 38646, USA",
         "geometry" : {
            "bounds" : {
               "northeast" : {
                  "lat" : 34.249204,
                  "lng" : -90.2765656
               },
               "southwest" : {
                  "lat" : 34.247165,
                  "lng" : -90.2815579
               }
            },
            "location" : {
               "lat" : 34.2489458,
               "lng" : -90.2788628
            },
            "location_type" : "GEOMETRIC_CENTER",
            "viewport" : {
               "northeast" : {
                  "lat" : 34.2495334802915,
                  "lng" : -90.2765656
               },
               "southwest" : {
                  "lat" : 34.2468355197085,
                  "lng" : -90.2815579
               }
            }
         },
         "types" : [ "route" ]
      },
      {
         "address_components" : [
            {
               "long_name" : "State Road S-3-105",
               "short_name" : "State Rd S-3-105",
               "types" : [ "route" ]
            },
            {
               "long_name" : "Sycamore",
               "short_name" : "Sycamore",
               "types" : [ "locality", "political" ]
            },
            {
               "long_name" : "Allendale County",
               "short_name" : "Allendale County",
               "types" : [ "administrative_area_level_2", "political" ]
            },
            {
               "long_name" : "South Carolina",
               "short_name" : "SC",
               "types" : [ "administrative_area_level_1", "political" ]
            },
            {
               "long_name" : "United States",
               "short_name" : "US",
               "types" : [ "country", "political" ]
            }
         ],
         "formatted_address" : "State Road S-3-105, Sycamore, SC, USA",
         "geometry" : {
            "bounds" : {
               "northeast" : {
                  "lat" : 33.037518,
                  "lng" : -81.2191182
               },
               "southwest" : {
                  "lat" : 33.0358631,
                  "lng" : -81.22512639999999
               }
            },
            "location" : {
               "lat" : 33.0370425,
               "lng" : -81.22200830000001
            },
            "location_type" : "GEOMETRIC_CENTER",
            "viewport" : {
               "northeast" : {
                  "lat" : 33.0380395302915,
                  "lng" : -81.2191182
               },
               "southwest" : {
                  "lat" : 33.0353415697085,
                  "lng" : -81.22512639999999
               }
            }
         },
         "types" : [ "route" ]
      },
      {
         "address_components" : [
            {
               "long_name" : "Cotton Street",
               "short_name" : "Cotton St",
               "types" : [ "route" ]
            },
            {
               "long_name" : "Pulaski",
               "short_name" : "Pulaski",
               "types" : [ "locality", "political" ]
            },
            {
               "long_name" : "Giles County",
               "short_name" : "Giles County",
               "types" : [ "administrative_area_level_2", "political" ]
            },
            {
               "long_name" : "Tennessee",
               "short_name" : "TN",
               "types" : [ "administrative_area_level_1", "political" ]
            },
            {
               "long_name" : "United States",
               "short_name" : "US",
               "types" : [ "country", "political" ]
            },
            {
               "long_name" : "38478",
               "short_name" : "38478",
               "types" : [ "postal_code" ]
            }
         ],
         "formatted_address" : "Cotton Street, Pulaski, TN 38478, USA",
         "geometry" : {
            "bounds" : {
               "northeast" : {
                  "lat" : 35.198913,
                  "lng" : -87.03629079999999
               },
               "southwest" : {
                  "lat" : 35.196771,
                  "lng" : -87.04195659999999
               }
            },
            "location" : {
               "lat" : 35.1976566,
               "lng" : -87.03884389999999
            },
            "location_type" : "GEOMETRIC_CENTER",
            "viewport" : {
               "northeast" : {
                  "lat" : 35.1991909802915,
                  "lng" : -87.03629079999999
               },
               "southwest" : {
                  "lat" : 35.19649301970851,
                  "lng" : -87.04195659999999
               }
            }
         },
         "types" : [ "route" ]
      },
      {
         "address_components" : [
            {
               "long_name" : "Cotton Street",
               "short_name" : "Cotton St",
               "types" : [ "route" ]
            },
            {
               "long_name" : "Essex",
               "short_name" : "Essex",
               "types" : [ "locality", "political" ]
            },
            {
               "long_name" : "Richland",
               "short_name" : "Richland",
               "types" : [ "administrative_area_level_3", "political" ]
            },
            {
               "long_name" : "Stoddard County",
               "short_name" : "Stoddard County",
               "types" : [ "administrative_area_level_2", "political" ]
            },
            {
               "long_name" : "Missouri",
               "short_name" : "MO",
               "types" : [ "administrative_area_level_1", "political" ]
            },
            {
               "long_name" : "United States",
               "short_name" : "US",
               "types" : [ "country", "political" ]
            },
            {
               "long_name" : "63846",
               "short_name" : "63846",
               "types" : [ "postal_code" ]
            }
         ],
         "formatted_address" : "Cotton Street, Essex, MO 63846, USA",
         "geometry" : {
            "bounds" : {
               "northeast" : {
                  "lat" : 36.8168819,
                  "lng" : -89.8628166
               },
               "southwest" : {
                  "lat" : 36.8122189,
                  "lng" : -89.8630173
               }
            },
            "location" : {
               "lat" : 36.8142062,
               "lng" : -89.8630084
            },
            "location_type" : "GEOMETRIC_CENTER",
            "viewport" : {
               "northeast" : {
                  "lat" : 36.8168819,
                  "lng" : -89.86156796970849
               },
               "southwest" : {
                  "lat" : 36.8122189,
                  "lng" : -89.8642659302915
               }
            }
         },
         "types" : [ "route" ]
      },
      {
         "address_components" : [
            {
               "long_name" : "Cotton Street",
               "short_name" : "Cotton St",
               "types" : [ "route" ]
            },
            {
               "long_name" : "Wesson",
               "short_name" : "Wesson",
               "types" : [ "locality", "political" ]
            },
            {
               "long_name" : "Copiah County",
               "short_name" : "Copiah County",
               "types" : [ "administrative_area_level_2", "political" ]
            },
            {
               "long_name" : "Mississippi",
               "short_name" : "MS",
               "types" : [ "administrative_area_level_1", "political" ]
            },
            {
               "long_name" : "United States",
               "short_name" : "US",
               "types" : [ "country", "political" ]
            },
            {
               "long_name" : "39191",
               "short_name" : "39191",
               "types" : [ "postal_code" ]
            }
         ],
         "formatted_address" : "Cotton Street, Wesson, MS 39191, USA",
         "geometry" : {
            "bounds" : {
               "northeast" : {
                  "lat" : 31.7043711,
                  "lng" : -90.390495
               },
               "southwest" : {
                  "lat" : 31.7004803,
                  "lng" : -90.3943237
               }
            },
            "location" : {
               "lat" : 31.7023575,
               "lng" : -90.39245609999999
            },
            "location_type" : "GEOMETRIC_CENTER",
            "viewport" : {
               "northeast" : {
                  "lat" : 31.7043711,
                  "lng" : -90.390495
               },
               "southwest" : {
                  "lat" : 31.7004803,
                  "lng" : -90.3943237
               }
            }
         },
         "types" : [ "route" ]
      },
      {
         "address_components" : [
            {
               "long_name" : "Cotton Street",
               "short_name" : "Cotton St",
               "types" : [ "route" ]
            },
            {
               "long_name" : "Wrens",
               "short_name" : "Wrens",
               "types" : [ "locality", "political" ]
            },
            {
               "long_name" : "Jefferson County",
               "short_name" : "Jefferson County",
               "types" : [ "administrative_area_level_2", "political" ]
            },
            {
               "long_name" : "Georgia",
               "short_name" : "GA",
               "types" : [ "administrative_area_level_1", "political" ]
            },
            {
               "long_name" : "United States",
               "short_name" : "US",
               "types" : [ "country", "political" ]
            },
            {
               "long_name" : "30833",
               "short_name" : "30833",
               "types" : [ "postal_code" ]
            }
         ],
         "formatted_address" : "Cotton Street, Wrens, GA 30833, USA",
         "geometry" : {
            "bounds" : {
               "northeast" : {
                  "lat" : 33.2084258,
                  "lng" : -82.3853931
               },
               "southwest" : {
                  "lat" : 33.2037276,
                  "lng" : -82.387046
               }
            },
            "location" : {
               "lat" : 33.206068,
               "lng" : -82.38619700000001
            },
            "location_type" : "GEOMETRIC_CENTER",
            "viewport" : {
               "northeast" : {
                  "lat" : 33.2084258,
                  "lng" : -82.3848705697085
               },
               "southwest" : {
                  "lat" : 33.2037276,
                  "lng" : -82.3875685302915
               }
            }
         },
         "types" : [ "route" ]
      }
   ],
   "status" : "OK"
}
