{
   "results" : [
      {
         "address_components" : [
            {
               "long_name" : "H Road",
               "short_name" : "H Rd",
               "types" : [ "route" ]
            },
            {
               "long_name" : "Otoe County",
               "short_name" : "Otoe County",
               "types" : [ "administrative_area_level_2", "political" ]
            },
            {
               "long_name" : "Nebraska",
               "short_name" : "NE",
               "types" : [ "administrative_area_level_1", "political" ]
            },
            {
               "long_name" : "United States",
               "short_name" : "US",
               "types" : [ "country", "political" ]
            }
         ],
         "formatted_address" : "H Road, Nebraska, USA",
         "geometry" : {
            "bounds" : {
               "northeast" : {
                  "lat" : 40.6830283,
                  "lng" : -96.1983827
               },
               "southwest" : {
                  "lat" : 40.68161070000001,
                  "lng" : -96.4258105
               }
            },
            "location" : {
               "lat" : 40.6830283,
               "lng" : -96.26448549999999
            },
            "location_type" : "GEOMETRIC_CENTER",
            "viewport" : {
               "northeast" : {
                  "lat" : 40.6836684802915,
                  "lng" : -96.1983827
               },
               "southwest" : {
                  "lat" : 40.6809705197085,
                  "lng" : -96.4258105
               }
            }
         },
         "partial_match" : true,
         "types" : [ "route" ]
      },
      {
         "address_components" : [
            {
               "long_name" : "H Road",
               "short_name" : "H Rd",
               "types" : [ "route" ]
            },
            {
               "long_name" : "Meade County",
               "short_name" : "Meade County",
               "types" : [ "administrative_area_level_2", "political" ]
            },
            {
               "long_name" : "Kansas",
               "short_name" : "KS",
               "types" : [ "administrative_area_level_1", "political" ]
            },
            {
               "long_name" : "United States",
               "short_name" : "US",
               "types" : [ "country", "political" ]
            }
         ],
         "formatted_address" : "H Road, Kansas, USA",
         "geometry" : {
            "bounds" : {
               "northeast" : {
                  "lat" : 37.3731039,
                  "lng" : -100.0915874
               },
               "southwest" : {
                  "lat" : 37.3721999,
                  "lng" : -100.6340458
               }
            },
            "location" : {
               "lat" : 37.3725285,
               "lng" : -100.3608909
            },
            "location_type" : "GEOMETRIC_CENTER",
            "viewport" : {
               "northeast" : {
                  "lat" : 37.3740008802915,
                  "lng" : -100.0915874
               },
               "southwest" : {
                  "lat" : 37.3713029197085,
                  "lng" : -100.6340458
               }
            }
         },
         "partial_match" : true,
         "types" : [ "route" ]
      },
      {
         "address_components" : [
            {
               "long_name" : "Road",
               "short_name" : "Rd",
               "types" : [ "route" ]
            },
            {
               "long_name" : "Cooper County",
               "short_name" : "Cooper County",
               "types" : [ "administrative_area_level_2", "political" ]
            },
            {
               "long_name" : "Missouri",
               "short_name" : "MO",
               "types" : [ "administrative_area_level_1", "political" ]
            },
            {
               "long_name" : "United States",
               "short_name" : "US",
               "types" : [ "country", "political" ]
            }
         ],
         "formatted_address" : "Road, Missouri, USA",
         "geometry" : {
            "bounds" : {
               "northeast" : {
                  "lat" : 38.8024274,
                  "lng" : -92.92971109999999
               },
               "southwest" : {
                  "lat" : 38.7736114,
                  "lng" : -92.9324651
               }
            },
            "location" : {
               "lat" : 38.7881801,
               "lng" : -92.9301265
            },
            "location_type" : "GEOMETRIC_CENTER",
            "viewport" : {
               "northeast" : {
                  "lat" : 38.8024274,
                  "lng" : -92.92971109999999
               },
               "southwest" : {
                  "lat" : 38.7736114,
                  "lng" : -92.9324651
               }
            }
         },
         "partial_match" : true,
         "types" : [ "route" ]
      },
      {
         "address_components" : [
            {
               "long_name" : "H Road",
               "short_name" : "H Rd",
               "types" : [ "route" ]
            },
            {
               "long_name" : "Stockton",
               "short_name" : "Stockton",
               "types" : [ "locality", "political" ]
            },
            {
               "long_name" : "Rooks County",
               "short_name" : "Rooks County",
               "types" : [ "administrative_area_level_2", "political" ]
            },
            {
               "long_name" : "Kansas",
               "short_name" : "KS",
               "types" : [ "administrative_area_level_1", "political" ]
            },
            {
               "long_name" : "United States",
               "short_name" : "US",
               "types" : [ "country", "political" ]
            },
            {
               "long_name" : "67669",
               "short_name" : "67669",
               "types" : [ "postal_code" ]
            }
         ],
         "formatted_address" : "H Road, Stockton, KS 67669, USA",
         "geometry" : {
            "bounds" : {
               "northeast" : {
                  "lat" : 39.4666555,
                  "lng" : -99.24736229999999
               },
               "southwest" : {
                  "lat" : 39.4645944,
                  "lng" : -99.58423359999999
               }
            },
            "location" : {
               "lat" : 39.4665099,
               "lng" : -99.41615469999999
            },
            "location_type" : "GEOMETRIC_CENTER",
            "viewport" : {
               "northeast" : {
                  "lat" : 39.46697393029149,
                  "lng" : -99.24736229999999
               },
               "southwest" : {
                  "lat" : 39.4642759697085,
                  "lng" : -99.58423359999999
               }
            }
         },
         "partial_match" : true,
         "types" : [ "route" ]
      },
      {
         "address_components" : [
            {
               "long_name" : "H Road",
               "short_name" : "H Rd",
               "types" : [ "route" ]
            },
            {
               "long_name" : "Acton",
               "short_name" : "Acton",
               "types" : [ "locality", "political" ]
            },
            {
               "long_name" : "York County",
               "short_name" : "York County",
               "types" : [ "administrative_area_level_2", "political" ]
            },
            {
               "long_name" : "Maine",
               "short_name" : "ME",
               "types" : [ "administrative_area_level_1", "political" ]
            },
            {
               "long_name" : "United States",
               "short_name" : "US",
               "types" : [ "country", "political" ]
            },
            {
               "long_name" : "04001",
               "short_name" : "04001",
               "types" : [ "postal_code" ]
            }
         ],
         "formatted_address" : "H Road, Acton, ME 04001, USA",
         "geometry" : {
            "bounds" : {
               "northeast" : {
                  "lat" : 43.5979593,
                  "lng" : -70.9089915
               },
               "southwest" : {
                  "lat" : 43.5316091,
                  "lng" : -70.94688549999999
               }
            },
            "location" : {
               "lat" : 43.5676311,
               "lng" : -70.91437540000001
            },
            "location_type" : "GEOMETRIC_CENTER",
            "viewport" : {
               "northeast" : {
                  "lat" : 43.5979593,
                  "lng" : -70.9089915
               },
               "southwest" : {
                  "lat" : 43.5316091,
                  "lng" : -70.94688549999999
               }
            }
         },
         "partial_match" : true,
         "types" : [ "route" ]
      },
      {
         "address_components" : [
            {
               "long_name" : "H Road",
               "short_name" : "H Rd",
               "types" : [ "route" ]
            },
            {
               "long_name" : "Trego County",
               "short_name" : "Trego County",
               "types" : [ "administrative_area_level_2", "political" ]
            },
            {
               "long_name" : "Kansas",
               "short_name" : "KS",
               "types" : [ "administrative_area_level_1", "political" ]
            },
            {
               "long_name" : "United States",
               "short_name" : "US",
               "types" : [ "country", "political" ]
            }
         ],
         "formatted_address" : "H Road, Kansas, USA",
         "geometry" : {
            "bounds" : {
               "northeast" : {
                  "lat" : 39.03059289999999,
                  "lng" : -99.59374799999999
               },
               "southwest" : {
                  "lat" : 39.0297819,
                  "lng" : -99.86715219999999
               }
            },
            "location" : {
               "lat" : 39.0305359,
               "lng" : -99.7242239
            },
            "location_type" : "GEOMETRIC_CENTER",
            "viewport" : {
               "northeast" : {
                  "lat" : 39.03153638029149,
                  "lng" : -99.59374799999999
               },
               "southwest" : {
                  "lat" : 39.0288384197085,
                  "lng" : -99.86715219999999
               }
            }
         },
         "partial_match" : true,
         "types" : [ "route" ]
      },
      {
         "address_components" : [
            {
               "long_name" : "H Road",
               "short_name" : "H Rd",
               "types" : [ "route" ]
            },
            {
               "long_name" : "Jetmore",
               "short_name" : "Jetmore",
               "types" : [ "locality", "political" ]
            },
            {
               "long_name" : "Kansas",
               "short_name" : "KS",
               "types" : [ "administrative_area_level_1", "political" ]
            },
            {
               "long_name" : "United States",
               "short_name" : "US",
               "types" : [ "country", "political" ]
            },
            {
               "long_name" : "67854",
               "short_name" : "67854",
               "types" : [ "postal_code" ]
            }
         ],
         "formatted_address" : "H Road, Jetmore, KS 67854, USA",
         "geometry" : {
            "bounds" : {
               "northeast" : {
                  "lat" : 38.0154497,
                  "lng" : -99.97291629999999
               },
               "southwest" : {
                  "lat" : 38.0146498,
                  "lng" : -100.2264953
               }
            },
            "location" : {
               "lat" : 38.0149963,
               "lng" : -100.1002187
            },
            "location_type" : "GEOMETRIC_CENTER",
            "viewport" : {
               "northeast" : {
                  "lat" : 38.0163987302915,
                  "lng" : -99.97291629999999
               },
               "southwest" : {
                  "lat" : 38.0137007697085,
                  "lng" : -100.2264953
               }
            }
         },
         "partial_match" : true,
         "types" : [ "route" ]
      },
      {
         "address_components" : [
            {
               "long_name" : "H Road",
               "short_name" : "H Rd",
               "types" : [ "route" ]
            },
            {
               "long_name" : "Eureka",
               "short_name" : "Eureka",
               "types" : [ "locality", "political" ]
            },
            {
               "long_name" : "South Salem",
               "short_name" : "South Salem",
               "types" : [ "administrative_area_level_3", "political" ]
            },
            {
               "long_name" : "Greenwood County",
               "short_name" : "Greenwood County",
               "types" : [ "administrative_area_level_2", "political" ]
            },
            {
               "long_name" : "Kansas",
               "short_name" : "KS",
               "types" : [ "administrative_area_level_1", "political" ]
            },
            {
               "long_name" : "United States",
               "short_name" : "US",
               "types" : [ "country", "political" ]
            },
            {
               "long_name" : "67045",
               "short_name" : "67045",
               "types" : [ "postal_code" ]
            }
         ],
         "formatted_address" : "H Road, Eureka, KS 67045, USA",
         "geometry" : {
            "bounds" : {
               "northeast" : {
                  "lat" : 37.88821799999999,
                  "lng" : -96.3967799
               },
               "southwest" : {
                  "lat" : 37.8265989,
                  "lng" : -96.42861500000001
               }
            },
            "location" : {
               "lat" : 37.8570641,
               "lng" : -96.39840819999999
            },
            "location_type" : "GEOMETRIC_CENTER",
            "viewport" : {
               "northeast" : {
                  "lat" : 37.88821799999999,
                  "lng" : -96.3967799
               },
               "southwest" : {
                  "lat" : 37.8265989,
                  "lng" : -96.42861500000001
               }
            }
         },
         "partial_match" : true,
         "types" : [ "route" ]
      },
      {
         "address_components" : [
            {
               "long_name" : "H Road",
               "short_name" : "H Rd",
               "types" : [ "route" ]
            },
            {
               "long_name" : "Tyrone",
               "short_name" : "Tyrone",
               "types" : [ "locality", "political" ]
            },
            {
               "long_name" : "Oklahoma",
               "short_name" : "OK",
               "types" : [ "administrative_area_level_1", "political" ]
            },
            {
               "long_name" : "United States",
               "short_name" : "US",
               "types" : [ "country", "political" ]
            },
            {
               "long_name" : "73951",
               "short_name" : "73951",
               "types" : [ "postal_code" ]
            }
         ],
         "formatted_address" : "H Road, Tyrone, OK 73951, USA",
         "geometry" : {
            "bounds" : {
               "northeast" : {
                  "lat" : 36.8922658,
                  "lng" : -100.945471
               },
               "southwest" : {
                  "lat" : 36.8911629,
                  "lng" : -101.1614371
               }
            },
            "location" : {
               "lat" : 36.892168,
               "lng" : -101.053811
            },
            "location_type" : "GEOMETRIC_CENTER",
            "viewport" : {
               "northeast" : {
                  "lat" : 36.8930633302915,
                  "lng" : -100.945471
               },
               "southwest" : {
                  "lat" : 36.8903653697085,
                  "lng" : -101.1614371
               }
            }
         },
         "partial_match" : true,
         "types" : [ "route" ]
      },
      {
         "address_components" : [
            {
               "long_name" : "H Road",
               "short_name" : "H Rd",
               "types" : [ "route" ]
            },
            {
               "long_name" : "Ingalls",
               "short_name" : "Ingalls",
               "types" : [ "locality", "political" ]
            },
            {
               "long_name" : "Gray County",
               "short_name" : "Gray County",
               "types" : [ "administrative_area_level_2", "political" ]
            },
            {
               "long_name" : "Kansas",
               "short_name" : "KS",
               "types" : [ "administrative_area_level_1", "political" ]
            },
            {
               "long_name" : "United States",
               "short_name" : "US",
               "types" : [ "country", "political" ]
            },
            {
               "long_name" : "67853",
               "short_name" : "67853",
               "types" : [ "postal_code" ]
            }
         ],
         "formatted_address" : "H Road, Ingalls, KS 67853, USA",
         "geometry" : {
            "bounds" : {
               "northeast" : {
                  "lat" : 37.9008935,
                  "lng" : -100.410157
               },
               "southwest" : {
                  "lat" : 37.8932358,
                  "lng" : -100.6101564
               }
            },
            "location" : {
               "lat" : 37.9001983,
               "lng" : -100.5103468
            },
            "location_type" : "GEOMETRIC_CENTER",
            "viewport" : {
               "northeast" : {
                  "lat" : 37.9008935,
                  "lng" : -100.410157
               },
               "southwest" : {
                  "lat" : 37.8932358,
                  "lng" : -100.6101564
               }
            }
         },
         "partial_match" : true,
         "types" : [ "route" ]
      },
      {
         "address_components" : [
            {
               "long_name" : "H Road",
               "short_name" : "H Rd",
               "types" : [ "route" ]
            },
            {
               "long_name" : "Chapman",
               "short_name" : "Chapman",
               "types" : [ "locality", "political" ]
            },
            {
               "long_name" : "Nebraska",
               "short_name" : "NE",
               "types" : [ "administrative_area_level_1", "political" ]
            },
            {
               "long_name" : "United States",
               "short_name" : "US",
               "types" : [ "country", "political" ]
            },
            {
               "long_name" : "68827",
               "short_name" : "68827",
               "types" : [ "postal_code" ]
            }
         ],
         "formatted_address" : "H Road, Chapman, NE 68827, USA",
         "geometry" : {
            "bounds" : {
               "northeast" : {
                  "lat" : 41.0318701,
                  "lng" : -98.0843898
               },
               "southwest" : {
                  "lat" : 41.0315663,
                  "lng" : -98.28238259999999
               }
            },
            "location" : {
               "lat" : 41.0315663,
               "lng" : -98.18531019999999
            },
            "location_type" : "GEOMETRIC_CENTER",
            "viewport" : {
               "northeast" : {
                  "lat" : 41.0330671802915,
                  "lng" : -98.0843898
               },
               "southwest" : {
                  "lat" : 41.0303692197085,
                  "lng" : -98.28238259999999
               }
            }
         },
         "partial_match" : true,
         "types" : [ "route" ]
      },
      {
         "address_components" : [
            {
               "long_name" : "Road",
               "short_name" : "Road",
               "types" : [ "route" ]
            },
            {
               "long_name" : "Mogolhat",
               "short_name" : "Mogolhat",
               "types" : [ "locality", "political" ]
            },
            {
               "long_name" : "Lalmonirhat",
               "short_name" : "Lalmonirhat",
               "types" : [ "administrative_area_level_2", "political" ]
            },
            {
               "long_name" : "Rangpur Division",
               "short_name" : "Rangpur Division",
               "types" : [ "administrative_area_level_1", "political" ]
            },
            {
               "long_name" : "Bangladesh",
               "short_name" : "BD",
               "types" : [ "country", "political" ]
            }
         ],
         "formatted_address" : "Road, Mogolhat, Bangladesh",
         "geometry" : {
            "bounds" : {
               "northeast" : {
                  "lat" : 25.9883644,
                  "lng" : 89.443506
               },
               "southwest" : {
                  "lat" : 25.9803452,
                  "lng" : 89.4412476
               }
            },
            "location" : {
               "lat" : 25.9848298,
               "lng" : 89.44126370000001
            },
            "location_type" : "GEOMETRIC_CENTER",
            "viewport" : {
               "northeast" : {
                  "lat" : 25.9883644,
                  "lng" : 89.4437257802915
               },
               "southwest" : {
                  "lat" : 25.9803452,
                  "lng" : 89.44102781970849
               }
            }
         },
         "partial_match" : true,
         "types" : [ "route" ]
      },
      {
         "address_components" : [
            {
               "long_name" : "H Road",
               "short_name" : "H Rd",
               "types" : [ "route" ]
            },
            {
               "long_name" : "Grand Junction",
               "short_name" : "Grand Junction",
               "types" : [ "locality", "political" ]
            },
            {
               "long_name" : "Mesa County",
               "short_name" : "Mesa County",
               "types" : [ "administrative_area_level_2", "political" ]
            },
            {
               "long_name" : "Colorado",
               "short_name" : "CO",
               "types" : [ "administrative_area_level_1", "political" ]
            },
            {
               "long_name" : "United States",
               "short_name" : "US",
               "types" : [ "country", "political" ]
            }
         ],
         "formatted_address" : "H Road, Grand Junction, CO, USA",
         "geometry" : {
            "bounds" : {
               "northeast" : {
                  "lat" : 39.126121,
                  "lng" : -108.5300042
               },
               "southwest" : {
                  "lat" : 39.1173589,
                  "lng" : -108.6638762
               }
            },
            "location" : {
               "lat" : 39.1207888,
               "lng" : -108.5978867
            },
            "location_type" : "GEOMETRIC_CENTER",
            "viewport" : {
               "northeast" : {
                  "lat" : 39.126121,
                  "lng" : -108.5300042
               },
               "southwest" : {
                  "lat" : 39.1173589,
                  "lng" : -108.6638762
               }
            }
         },
         "partial_match" : true,
         "types" : [ "route" ]
      },
      {
         "address_components" : [
            {
               "long_name" : "H Road",
               "short_name" : "H Rd",
               "types" : [ "route" ]
            },
            {
               "long_name" : "West Point",
               "short_name" : "West Point",
               "types" : [ "locality", "political" ]
            },
            {
               "long_name" : "Nebraska",
               "short_name" : "NE",
               "types" : [ "administrative_area_level_1", "political" ]
            },
            {
               "long_name" : "United States",
               "short_name" : "US",
               "types" : [ "country", "political" ]
            },
            {
               "long_name" : "68788",
               "short_name" : "68788",
               "types" : [ "postal_code" ]
            }
         ],
         "formatted_address" : "H Road, West Point, NE 68788, USA",
         "geometry" : {
            "bounds" : {
               "northeast" : {
                  "lat" : 41.8439518,
                  "lng" : -96.55523549999999
               },
               "southwest" : {
                  "lat" : 41.8434368,
                  "lng" : -96.6987398
               }
            },
            "location" : {
               "lat" : 41.8437199,
               "lng" : -96.6278676
            },
            "location_type" : "GEOMETRIC_CENTER",
            "viewport" : {
               "northeast" : {
                  "lat" : 41.8450432802915,
                  "lng" : -96.55523549999999
               },
               "southwest" : {
                  "lat" : 41.8423453197085,
                  "lng" : -96.6987398
               }
            }
         },
         "partial_match" : true,
         "types" : [ "route" ]
      },
      {
         "address_components" : [
            {
               "long_name" : "Road",
               "short_name" : "Road",
               "types" : [ "route" ]
            },
            {
               "long_name" : "Mah'shahr",
               "short_name" : "Mah'shahr",
               "types" : [ "administrative_area_level_2", "political" ]
            },
            {
               "long_name" : "Khuzestan",
               "short_name" : "Khuzestan",
               "types" : [ "administrative_area_level_1", "political" ]
            },
            {
               "long_name" : "Iran",
               "short_name" : "IR",
               "types" : [ "country", "political" ]
            }
         ],
         "formatted_address" : "Khuzestan, Road, Iran",
         "geometry" : {
            "bounds" : {
               "northeast" : {
                  "lat" : 30.6903192,
                  "lng" : 49.1628554
               },
               "southwest" : {
                  "lat" : 30.6075576,
                  "lng" : 49.1569555
               }
            },
            "location" : {
               "lat" : 30.6501564,
               "lng" : 49.1597092
            },
            "location_type" : "GEOMETRIC_CENTER",
            "viewport" : {
               "northeast" : {
                  "lat" : 30.6903192,
                  "lng" : 49.1628554
               },
               "southwest" : {
                  "lat" : 30.6075576,
                  "lng" : 49.1569555
               }
            }
         },
         "partial_match" : true,
         "types" : [ "route" ]
      },
      {
         "address_components" : [
            {
               "long_name" : "H Road",
               "short_name" : "H Rd",
               "types" : [ "route" ]
            },
            {
               "long_name" : "Hooker",
               "short_name" : "Hooker",
               "types" : [ "locality", "political" ]
            },
            {
               "long_name" : "Texas County",
               "short_name" : "Texas County",
               "types" : [ "administrative_area_level_2", "political" ]
            },
            {
               "long_name" : "Oklahoma",
               "short_name" : "OK",
               "types" : [ "administrative_area_level_1", "political" ]
            },
            {
               "long_name" : "United States",
               "short_name" : "US",
               "types" : [ "country", "political" ]
            },
            {
               "long_name" : "73945",
               "short_name" : "73945",
               "types" : [ "postal_code" ]
            }
         ],
         "formatted_address" : "H Road, Hooker, OK 73945, USA",
         "geometry" : {
            "bounds" : {
               "northeast" : {
                  "lat" : 36.8922279,
                  "lng" : -101.234451
               },
               "southwest" : {
                  "lat" : 36.892145,
                  "lng" : -101.378861
               }
            },
            "location" : {
               "lat" : 36.8921969,
               "lng" : -101.306682
            },
            "location_type" : "GEOMETRIC_CENTER",
            "viewport" : {
               "northeast" : {
                  "lat" : 36.8935354302915,
                  "lng" : -101.234451
               },
               "southwest" : {
                  "lat" : 36.89083746970851,
                  "lng" : -101.378861
               }
            }
         },
         "partial_match" : true,
         "types" : [ "route" ]
      },
      {
         "address_components" : [
            {
               "long_name" : "H Road",
               "short_name" : "H Rd",
               "types" : [ "route" ]
            },
            {
               "long_name" : "Cimarron",
               "short_name" : "Cimarron",
               "types" : [ "locality", "political" ]
            },
            {
               "long_name" : "Foote",
               "short_name" : "Foote",
               "types" : [ "administrative_area_level_3", "political" ]
            },
            {
               "long_name" : "Gray County",
               "short_name" : "Gray County",
               "types" : [ "administrative_area_level_2", "political" ]
            },
            {
               "long_name" : "Kansas",
               "short_name" : "KS",
               "types" : [ "administrative_area_level_1", "political" ]
            },
            {
               "long_name" : "United States",
               "short_name" : "US",
               "types" : [ "country", "political" ]
            },
            {
               "long_name" : "67835",
               "short_name" : "67835",
               "types" : [ "postal_code" ]
            }
         ],
         "formatted_address" : "H Road, Cimarron, KS 67835, USA",
         "geometry" : {
            "bounds" : {
               "northeast" : {
                  "lat" : 37.899778,
                  "lng" : -100.2272787
               },
               "southwest" : {
                  "lat" : 37.8995134,
                  "lng" : -100.3735838
               }
            },
            "location" : {
               "lat" : 37.8995887,
               "lng" : -100.3002805
            },
            "location_type" : "GEOMETRIC_CENTER",
            "viewport" : {
               "northeast" : {
                  "lat" : 37.9009946802915,
                  "lng" : -100.2272787
               },
               "southwest" : {
                  "lat" : 37.8982967197085,
                  "lng" : -100.3735838
               }
            }
         },
         "partial_match" : true,
         "types" : [ "route" ]
      },
      {
         "address_components" : [
            {
               "long_name" : "H Road",
               "short_name" : "H Rd",
               "types" : [ "route" ]
            },
            {
               "long_name" : "Cedar Point",
               "short_name" : "Cedar Point",
               "types" : [ "locality", "political" ]
            },
            {
               "long_name" : "Homestead",
               "short_name" : "Homestead",
               "types" : [ "administrative_area_level_3", "political" ]
            },
            {
               "long_name" : "Chase County",
               "short_name" : "Chase County",
               "types" : [ "administrative_area_level_2", "political" ]
            },
            {
               "long_name" : "Kansas",
               "short_name" : "KS",
               "types" : [ "administrative_area_level_1", "political" ]
            },
            {
               "long_name" : "United States",
               "short_name" : "US",
               "types" : [ "country", "political" ]
            },
            {
               "long_name" : "66843",
               "short_name" : "66843",
               "types" : [ "postal_code" ]
            }
         ],
         "formatted_address" : "H Road, Cedar Point, KS 66843, USA",
         "geometry" : {
            "bounds" : {
               "northeast" : {
                  "lat" : 38.2169199,
                  "lng" : -96.7123623
               },
               "southwest" : {
                  "lat" : 38.1196246,
                  "lng" : -96.71263119999999
               }
            },
            "location" : {
               "lat" : 38.1677911,
               "lng" : -96.7126251
            },
            "location_type" : "GEOMETRIC_CENTER",
            "viewport" : {
               "northeast" : {
                  "lat" : 38.2169199,
                  "lng" : -96.71114776970849
               },
               "southwest" : {
                  "lat" : 38.1196246,
                  "lng" : -96.7138457302915
               }
            }
         },
         "partial_match" : true,
         "types" : [ "route" ]
      },
      {
         "address_components" : [
            {
               "long_name" : "H Road",
               "short_name" : "H Rd",
               "types" : [ "route" ]
            },
            {
               "long_name" : "Orleans",
               "short_name" : "Orleans",
               "types" : [ "locality", "political" ]
            },
            {
               "long_name" : "Harlan County",
               "short_name" : "Harlan County",
               "types" : [ "administrative_area_level_2", "political" ]
            },
            {
               "long_name" : "Nebraska",
               "short_name" : "NE",
               "types" : [ "administrative_area_level_1", "political" ]
            },
            {
               "long_name" : "United States",
               "short_name" : "US",
               "types" : [ "country", "political" ]
            },
            {
               "long_name" : "68966",
               "short_name" : "68966",
               "types" : [ "postal_code" ]
            }
         ],
         "formatted_address" : "H Road, Orleans, NE 68966, USA",
         "geometry" : {
            "bounds" : {
               "northeast" : {
                  "lat" : 40.27854689999999,
                  "lng" : -99.47967500000001
               },
               "southwest" : {
                  "lat" : 40.176217,
                  "lng" : -99.48058800000001
               }
            },
            "location" : {
               "lat" : 40.2273764,
               "lng" : -99.48030179999999
            },
            "location_type" : "GEOMETRIC_CENTER",
            "viewport" : {
               "northeast" : {
                  "lat" : 40.27854689999999,
                  "lng" : -99.47878251970852
               },
               "southwest" : {
                  "lat" : 40.176217,
                  "lng" : -99.48148048029152
               }
            }
         },
         "partial_match" : true,
         "types" : [ "route" ]
      },
      {
         "address_components" : [
            {
               "long_name" : "H Road",
               "short_name" : "H Rd",
               "types" : [ "route" ]
            },
            {
               "long_name" : "Delta",
               "short_name" : "Delta",
               "types" : [ "locality", "political" ]
            },
            {
               "long_name" : "Delta County",
               "short_name" : "Delta County",
               "types" : [ "administrative_area_level_2", "political" ]
            },
            {
               "long_name" : "Colorado",
               "short_name" : "CO",
               "types" : [ "administrative_area_level_1", "political" ]
            },
            {
               "long_name" : "United States",
               "short_name" : "US",
               "types" : [ "country", "political" ]
            },
            {
               "long_name" : "81416",
               "short_name" : "81416",
               "types" : [ "postal_code" ]
            }
         ],
         "formatted_address" : "H Road, Delta, CO 81416, USA",
         "geometry" : {
            "bounds" : {
               "northeast" : {
                  "lat" : 38.7622,
                  "lng" : -107.9536627
               },
               "southwest" : {
                  "lat" : 38.7479,
                  "lng" : -108.0506679
               }
            },
            "location" : {
               "lat" : 38.7554884,
               "lng" : -108.002316
            },
            "location_type" : "GEOMETRIC_CENTER",
            "viewport" : {
               "northeast" : {
                  "lat" : 38.7622,
                  "lng" : -107.9536627
               },
               "southwest" : {
                  "lat" : 38.7479,
                  "lng" : -108.0506679
               }
            }
         },
         "partial_match" : true,
         "types" : [ "route" ]
      },
      {
         "address_components" : [
            {
               "long_name" : "H Road",
               "short_name" : "H Rd",
               "types" : [ "route" ]
            },
            {
               "long_name" : "Seneca",
               "short_name" : "Seneca",
               "types" : [ "locality", "political" ]
            },
            {
               "long_name" : "Nemaha County",
               "short_name" : "Nemaha County",
               "types" : [ "administrative_area_level_2", "political" ]
            },
            {
               "long_name" : "Kansas",
               "short_name" : "KS",
               "types" : [ "administrative_area_level_1", "political" ]
            },
            {
               "long_name" : "United States",
               "short_name" : "US",
               "types" : [ "country", "political" ]
            },
            {
               "long_name" : "66538",
               "short_name" : "66538",
               "types" : [ "postal_code" ]
            }
         ],
         "formatted_address" : "H Road, Seneca, KS 66538, USA",
         "geometry" : {
            "bounds" : {
               "northeast" : {
                  "lat" : 39.8852628,
                  "lng" : -96.10780389999999
               },
               "southwest" : {
                  "lat" : 39.7983357,
                  "lng" : -96.1085911
               }
            },
            "location" : {
               "lat" : 39.8418468,
               "lng" : -96.1083596
            },
            "location_type" : "GEOMETRIC_CENTER",
            "viewport" : {
               "northeast" : {
                  "lat" : 39.8852628,
                  "lng" : -96.10684851970849
               },
               "southwest" : {
                  "lat" : 39.7983357,
                  "lng" : -96.1095464802915
               }
            }
         },
         "partial_match" : true,
         "types" : [ "route" ]
      },
      {
         "address_components" : [
            {
               "long_name" : "H Road",
               "short_name" : "H Rd",
               "types" : [ "route" ]
            },
            {
               "long_name" : "Hanston",
               "short_name" : "Hanston",
               "types" : [ "locality", "political" ]
            },
            {
               "long_name" : "Sterling",
               "short_name" : "Sterling",
               "types" : [ "administrative_area_level_3", "political" ]
            },
            {
               "long_name" : "Hodgeman County",
               "short_name" : "Hodgeman County",
               "types" : [ "administrative_area_level_2", "political" ]
            },
            {
               "long_name" : "Kansas",
               "short_name" : "KS",
               "types" : [ "administrative_area_level_1", "political" ]
            },
            {
               "long_name" : "United States",
               "short_name" : "US",
               "types" : [ "country", "political" ]
            },
            {
               "long_name" : "67849",
               "short_name" : "67849",
               "types" : [ "postal_code" ]
            }
         ],
         "formatted_address" : "H Road, Hanston, KS 67849, USA",
         "geometry" : {
            "bounds" : {
               "northeast" : {
                  "lat" : 38.0149293,
                  "lng" : -99.64425419999999
               },
               "southwest" : {
                  "lat" : 38.0146285,
                  "lng" : -99.75275280000001
               }
            },
            "location" : {
               "lat" : 38.0149279,
               "lng" : -99.6977036
            },
            "location_type" : "GEOMETRIC_CENTER",
            "viewport" : {
               "northeast" : {
                  "lat" : 38.0161278802915,
                  "lng" : -99.64425419999999
               },
               "southwest" : {
                  "lat" : 38.0134299197085,
                  "lng" : -99.75275280000001
               }
            }
         },
         "partial_match" : true,
         "types" : [ "route" ]
      },
      {
         "address_components" : [
            {
               "long_name" : "H Road",
               "short_name" : "H Rd",
               "types" : [ "route" ]
            },
            {
               "long_name" : "Stromsburg",
               "short_name" : "Stromsburg",
               "types" : [ "locality", "political" ]
            },
            {
               "long_name" : "Polk County",
               "short_name" : "Polk County",
               "types" : [ "administrative_area_level_2", "political" ]
            },
            {
               "long_name" : "Nebraska",
               "short_name" : "NE",
               "types" : [ "administrative_area_level_1", "political" ]
            },
            {
               "long_name" : "United States",
               "short_name" : "US",
               "types" : [ "country", "political" ]
            },
            {
               "long_name" : "68666",
               "short_name" : "68666",
               "types" : [ "postal_code" ]
            }
         ],
         "formatted_address" : "H Road, Stromsburg, NE 68666, USA",
         "geometry" : {
            "bounds" : {
               "northeast" : {
                  "lat" : 41.1484756,
                  "lng" : -97.69430849999999
               },
               "southwest" : {
                  "lat" : 41.1339473,
                  "lng" : -97.69440639999999
               }
            },
            "location" : {
               "lat" : 41.14133289999999,
               "lng" : -97.69436189999999
            },
            "location_type" : "GEOMETRIC_CENTER",
            "viewport" : {
               "northeast" : {
                  "lat" : 41.1484756,
                  "lng" : -97.69300846970849
               },
               "southwest" : {
                  "lat" : 41.1339473,
                  "lng" : -97.69570643029151
               }
            }
         },
         "partial_match" : true,
         "types" : [ "route" ]
      },
      {
         "address_components" : [
            {
               "long_name" : "Road",
               "short_name" : "Road",
               "types" : [ "route" ]
            },
            {
               "long_name" : "6th of October City",
               "short_name" : "6th of October City",
               "types" : [ "locality", "political" ]
            },
            {
               "long_name" : "Giza Governorate",
               "short_name" : "Giza Governorate",
               "types" : [ "administrative_area_level_1", "political" ]
            },
            {
               "long_name" : "Egypt",
               "short_name" : "EG",
               "types" : [ "country", "political" ]
            }
         ],
         "formatted_address" : "Road, Giza Governorate, Egypt",
         "geometry" : {
            "bounds" : {
               "northeast" : {
                  "lat" : 29.9724008,
                  "lng" : 30.9225438
               },
               "southwest" : {
                  "lat" : 29.9697066,
                  "lng" : 30.9198883
               }
            },
            "location" : {
               "lat" : 29.9710383,
               "lng" : 30.9212546
            },
            "location_type" : "GEOMETRIC_CENTER",
            "viewport" : {
               "northeast" : {
                  "lat" : 29.9724026802915,
                  "lng" : 30.92256503029149
               },
               "southwest" : {
                  "lat" : 29.9697047197085,
                  "lng" : 30.91986706970849
               }
            }
         },
         "partial_match" : true,
         "types" : [ "route" ]
      },
      {
         "address_components" : [
            {
               "long_name" : "Road",
               "short_name" : "Road",
               "types" : [ "route" ]
            },
            {
               "long_name" : "Rangbhang",
               "short_name" : "Rangbhang",
               "types" : [ "neighborhood", "political" ]
            },
            {
               "long_name" : "Putalibazar",
               "short_name" : "Putalibazar",
               "types" : [ "locality", "political" ]
            },
            {
               "long_name" : "Gandaki",
               "short_name" : "Gandaki",
               "types" : [ "administrative_area_level_2", "political" ]
            },
            {
               "long_name" : "Western Region",
               "short_name" : "Western Region",
               "types" : [ "administrative_area_level_1", "political" ]
            },
            {
               "long_name" : "Nepal",
               "short_name" : "NP",
               "types" : [ "country", "political" ]
            },
            {
               "long_name" : "33800",
               "short_name" : "33800",
               "types" : [ "postal_code" ]
            }
         ],
         "formatted_address" : "Road, Putalibazar 33800, Nepal",
         "geometry" : {
            "bounds" : {
               "northeast" : {
                  "lat" : 28.092786,
                  "lng" : 83.8804114
               },
               "southwest" : {
                  "lat" : 28.0723022,
                  "lng" : 83.86887709999999
               }
            },
            "location" : {
               "lat" : 28.0822038,
               "lng" : 83.8737488
            },
            "location_type" : "GEOMETRIC_CENTER",
            "viewport" : {
               "northeast" : {
                  "lat" : 28.092786,
                  "lng" : 83.8804114
               },
               "southwest" : {
                  "lat" : 28.0723022,
                  "lng" : 83.86887709999999
               }
            }
         },
         "partial_match" : true,
         "types" : [ "route" ]
      },
      {
         "address_components" : [
            {
               "long_name" : "Road",
               "short_name" : "Road",
               "types" : [ "route" ]
            },
            {
               "long_name" : "Gadhinglaj",
               "short_name" : "Gadhinglaj",
               "types" : [ "locality", "political" ]
            },
            {
               "long_name" : "Kolhapur",
               "short_name" : "Kolhapur",
               "types" : [ "administrative_area_level_2", "political" ]
            },
            {
               "long_name" : "Maharashtra",
               "short_name" : "MH",
               "types" : [ "administrative_area_level_1", "political" ]
            },
            {
               "long_name" : "India",
               "short_name" : "IN",
               "types" : [ "country", "political" ]
            },
            {
               "long_name" : "416502",
               "short_name" : "416502",
               "types" : [ "postal_code" ]
            }
         ],
         "formatted_address" : "Road, Gadhinglaj, Maharashtra 416502, India",
         "geometry" : {
            "bounds" : {
               "northeast" : {
                  "lat" : 16.2360159,
                  "lng" : 74.3722272
               },
               "southwest" : {
                  "lat" : 16.2221345,
                  "lng" : 74.35688499999999
               }
            },
            "location" : {
               "lat" : 16.2294264,
               "lng" : 74.36372999999999
            },
            "location_type" : "GEOMETRIC_CENTER",
            "viewport" : {
               "northeast" : {
                  "lat" : 16.2360159,
                  "lng" : 74.3722272
               },
               "southwest" : {
                  "lat" : 16.2221345,
                  "lng" : 74.35688499999999
               }
            }
         },
         "partial_match" : true,
         "types" : [ "route" ]
      },
      {
         "address_components" : [
            {
               "long_name" : "Road",
               "short_name" : "Road",
               "types" : [ "route" ]
            },
            {
               "long_name" : "Pabna",
               "short_name" : "Pabna",
               "types" : [ "administrative_area_level_2", "political" ]
            },
            {
               "long_name" : "Rajshahi Division",
               "short_name" : "Rajshahi Division",
               "types" : [ "administrative_area_level_1", "political" ]
            },
            {
               "long_name" : "Bangladesh",
               "short_name" : "BD",
               "types" : [ "country", "political" ]
            }
         ],
         "formatted_address" : "Road, Bangladesh",
         "geometry" : {
            "bounds" : {
               "northeast" : {
                  "lat" : 23.9671464,
                  "lng" : 89.58166659999999
               },
               "southwest" : {
                  "lat" : 23.963019,
                  "lng" : 89.5621374
               }
            },
            "location" : {
               "lat" : 23.964644,
               "lng" : 89.5716405
            },
            "location_type" : "GEOMETRIC_CENTER",
            "viewport" : {
               "northeast" : {
                  "lat" : 23.9671464,
                  "lng" : 89.58166659999999
               },
               "southwest" : {
                  "lat" : 23.963019,
                  "lng" : 89.5621374
               }
            }
         },
         "partial_match" : true,
         "types" : [ "route" ]
      },
      {
         "address_components" : [
            {
               "long_name" : "Road",
               "short_name" : "Road",
               "types" : [ "route" ]
            },
            {
               "long_name" : "Abhar",
               "short_name" : "Abhar",
               "types" : [ "locality", "political" ]
            },
            {
               "long_name" : "Zanjan",
               "short_name" : "Zanjan",
               "types" : [ "administrative_area_level_1", "political" ]
            },
            {
               "long_name" : "Iran",
               "short_name" : "IR",
               "types" : [ "country", "political" ]
            }
         ],
         "formatted_address" : "Zanjan, Abhar, Road, Iran",
         "geometry" : {
            "bounds" : {
               "northeast" : {
                  "lat" : 36.1870105,
                  "lng" : 49.2453485
               },
               "southwest" : {
                  "lat" : 36.1701326,
                  "lng" : 49.220767
               }
            },
            "location" : {
               "lat" : 36.1795594,
               "lng" : 49.23455569999999
            },
            "location_type" : "GEOMETRIC_CENTER",
            "viewport" : {
               "northeast" : {
                  "lat" : 36.1870105,
                  "lng" : 49.2453485
               },
               "southwest" : {
                  "lat" : 36.1701326,
                  "lng" : 49.220767
               }
            }
         },
         "partial_match" : true,
         "types" : [ "route" ]
      },
      {
         "address_components" : [
            {
               "long_name" : "Road",
               "short_name" : "Road",
               "types" : [ "route" ]
            },
            {
               "long_name" : "Taungoo",
               "short_name" : "Taungoo",
               "types" : [ "administrative_area_level_2", "political" ]
            },
            {
               "long_name" : "Bago Region",
               "short_name" : "Bago Region",
               "types" : [ "administrative_area_level_1", "political" ]
            },
            {
               "long_name" : "Republic of the Union of Myanmar",
               "short_name" : "MM",
               "types" : [ "country", "political" ]
            }
         ],
         "formatted_address" : "Road, Republic of the Union of Myanmar",
         "geometry" : {
            "bounds" : {
               "northeast" : {
                  "lat" : 18.8760773,
                  "lng" : 96.51511789999999
               },
               "southwest" : {
                  "lat" : 18.8738845,
                  "lng" : 96.50080559999999
               }
            },
            "location" : {
               "lat" : 18.8750881,
               "lng" : 96.50821099999999
            },
            "location_type" : "GEOMETRIC_CENTER",
            "viewport" : {
               "northeast" : {
                  "lat" : 18.8763298802915,
                  "lng" : 96.51511789999999
               },
               "southwest" : {
                  "lat" : 18.8736319197085,
                  "lng" : 96.50080559999999
               }
            }
         },
         "partial_match" : true,
         "types" : [ "route" ]
      },
      {
         "address_components" : [
            {
               "long_name" : "Road",
               "short_name" : "Road",
               "types" : [ "route" ]
            },
            {
               "long_name" : "Catbalogan City Proper",
               "short_name" : "Catbalogan City Proper",
               "types" : [ "sublocality_level_1", "sublocality", "political" ]
            },
            {
               "long_name" : "Catbalogan City",
               "short_name" : "Catbalogan City",
               "types" : [ "locality", "political" ]
            },
            {
               "long_name" : "Samar",
               "short_name" : "Samar",
               "types" : [ "administrative_area_level_2", "political" ]
            },
            {
               "long_name" : "Eastern Visayas",
               "short_name" : "Eastern Visayas",
               "types" : [ "administrative_area_level_1", "political" ]
            },
            {
               "long_name" : "Philippines",
               "short_name" : "PH",
               "types" : [ "country", "political" ]
            }
         ],
         "formatted_address" : "Road, Catbalogan City Proper, Catbalogan City, Samar, Philippines",
         "geometry" : {
            "bounds" : {
               "northeast" : {
                  "lat" : 11.7778087,
                  "lng" : 124.885786
               },
               "southwest" : {
                  "lat" : 11.7759717,
                  "lng" : 124.8844094
               }
            },
            "location" : {
               "lat" : 11.7767329,
               "lng" : 124.8855695
            },
            "location_type" : "GEOMETRIC_CENTER",
            "viewport" : {
               "northeast" : {
                  "lat" : 11.7782391802915,
                  "lng" : 124.8864466802915
               },
               "southwest" : {
                  "lat" : 11.7755412197085,
                  "lng" : 124.8837487197085
               }
            }
         },
         "partial_match" : true,
         "types" : [ "route" ]
      }
   ],
   "status" : "OK"
}
