{
   "results" : [
      {
         "address_components" : [
            {
               "long_name" : "Gera",
               "short_name" : "G",
               "types" : [ "locality", "political" ]
            },
            {
               "long_name" : "Thuringia",
               "short_name" : "Technische Hochschule",
               "types" : [ "administrative_area_level_1", "political" ]
            },
            {
               "long_name" : "Germany",
               "short_name" : "DE",
               "types" : [ "country", "political" ]
            }
         ],
         "formatted_address" : "Gera, Germany",
         "geometry" : {
            "bounds" : {
               "northeast" : {
                  "lat" : 50.9766184,
                  "lng" : 12.1695209
               },
               "southwest" : {
                  "lat" : 50.79861760000001,
                  "lng" : 11.9980384
               }
            },
            "location" : {
               "lat" : 50.8850706,
               "lng" : 12.0807203
            },
            "location_type" : "APPROXIMATE",
            "viewport" : {
               "northeast" : {
                  "lat" : 50.9766184,
                  "lng" : 12.1695209
               },
               "southwest" : {
                  "lat" : 50.79861760000001,
                  "lng" : 11.9980384
               }
            }
         },
         "partial_match" : true,
         "types" : [ "locality", "political" ]
      },
      {
         "address_components" : [
            {
               "long_name" : "Regensburg",
               "short_name" : "R",
               "types" : [ "locality", "political" ]
            },
            {
               "long_name" : "Regensburg",
               "short_name" : "R",
               "types" : [ "administrative_area_level_3", "political" ]
            },
            {
               "long_name" : "Upper Palatinate",
               "short_name" : "Upper Palatinate",
               "types" : [ "administrative_area_level_2", "political" ]
            },
            {
               "long_name" : "Bavaria",
               "short_name" : "BY",
               "types" : [ "administrative_area_level_1", "political" ]
            },
            {
               "long_name" : "Germany",
               "short_name" : "DE",
               "types" : [ "country", "political" ]
            }
         ],
         "formatted_address" : "Regensburg, Germany",
         "geometry" : {
            "bounds" : {
               "northeast" : {
                  "lat" : 49.0764158,
                  "lng" : 12.1916077
               },
               "southwest" : {
                  "lat" : 48.9667457,
                  "lng" : 12.0290745
               }
            },
            "location" : {
               "lat" : 49.0134297,
               "lng" : 12.1016236
            },
            "location_type" : "APPROXIMATE",
            "viewport" : {
               "northeast" : {
                  "lat" : 49.0764158,
                  "lng" : 12.1916077
               },
               "southwest" : {
                  "lat" : 48.9667457,
                  "lng" : 12.0290745
               }
            }
         },
         "partial_match" : true,
         "types" : [ "locality", "political" ]
      },
      {
         "address_components" : [
            {
               "long_name" : "R",
               "short_name" : "R",
               "types" : [ "route" ]
            },
            {
               "long_name" : "Shelby County",
               "short_name" : "Shelby County",
               "types" : [ "administrative_area_level_2", "political" ]
            },
            {
               "long_name" : "Illinois",
               "short_name" : "IL",
               "types" : [ "administrative_area_level_1", "political" ]
            },
            {
               "long_name" : "United States",
               "short_name" : "US",
               "types" : [ "country", "political" ]
            }
         ],
         "formatted_address" : "R, Illinois, USA",
         "geometry" : {
            "bounds" : {
               "northeast" : {
                  "lat" : 39.3317996,
                  "lng" : -88.56428029999999
               },
               "southwest" : {
                  "lat" : 39.2551611,
                  "lng" : -88.58215919999999
               }
            },
            "location" : {
               "lat" : 39.29148780000001,
               "lng" : -88.58196029999999
            },
            "location_type" : "GEOMETRIC_CENTER",
            "viewport" : {
               "northeast" : {
                  "lat" : 39.3317996,
                  "lng" : -88.56428029999999
               },
               "southwest" : {
                  "lat" : 39.2551611,
                  "lng" : -88.58215919999999
               }
            }
         },
         "partial_match" : true,
         "types" : [ "route" ]
      },
      {
         "address_components" : [
            {
               "long_name" : "G",
               "short_name" : "G",
               "types" : [ "premise" ]
            },
            {
               "long_name" : "南雅南路二段",
               "short_name" : "南雅南路二段",
               "types" : [ "route" ]
            },
            {
               "long_name" : "板橋區",
               "short_name" : "板橋區",
               "types" : [ "administrative_area_level_3", "political" ]
            },
            {
               "long_name" : "新北市",
               "short_name" : "新北市",
               "types" : [ "administrative_area_level_1", "political" ]
            },
            {
               "long_name" : "Taiwan",
               "short_name" : "TW",
               "types" : [ "country", "political" ]
            },
            {
               "long_name" : "220",
               "short_name" : "220",
               "types" : [ "postal_code" ]
            }
         ],
         "formatted_address" : "G, 南雅南路二段板橋區新北市 Taiwan 220",
         "geometry" : {
            "bounds" : {
               "northeast" : {
                  "lat" : 24.9984809,
                  "lng" : 121.4522989
               },
               "southwest" : {
                  "lat" : 24.9982255,
                  "lng" : 121.452004
               }
            },
            "location" : {
               "lat" : 24.9983532,
               "lng" : 121.4521514
            },
            "location_type" : "ROOFTOP",
            "viewport" : {
               "northeast" : {
                  "lat" : 24.9997021802915,
                  "lng" : 121.4535004302915
               },
               "southwest" : {
                  "lat" : 24.9970042197085,
                  "lng" : 121.4508024697085
               }
            }
         },
         "partial_match" : true,
         "types" : [ "premise" ]
      },
      {
         "address_components" : [
            {
               "long_name" : "Avenida de los Presidentes",
               "short_name" : "Avenida de los Presidentes",
               "types" : [ "route" ]
            },
            {
               "long_name" : "La Habana",
               "short_name" : "La Habana",
               "types" : [ "locality", "political" ]
            },
            {
               "long_name" : "Plaza de la Revolución",
               "short_name" : "Plaza de la Revolución",
               "types" : [ "administrative_area_level_2", "political" ]
            },
            {
               "long_name" : "La Habana",
               "short_name" : "La Habana",
               "types" : [ "administrative_area_level_1", "political" ]
            },
            {
               "long_name" : "Cuba",
               "short_name" : "CU",
               "types" : [ "country", "political" ]
            }
         ],
         "formatted_address" : "Avenida de los Presidentes, La Habana, Cuba",
         "geometry" : {
            "bounds" : {
               "northeast" : {
                  "lat" : 23.1446321,
                  "lng" : -82.38607589999999
               },
               "southwest" : {
                  "lat" : 23.1337697,
                  "lng" : -82.39599389999999
               }
            },
            "location" : {
               "lat" : 23.139272,
               "lng" : -82.39086429999999
            },
            "location_type" : "GEOMETRIC_CENTER",
            "viewport" : {
               "northeast" : {
                  "lat" : 23.1446321,
                  "lng" : -82.38607589999999
               },
               "southwest" : {
                  "lat" : 23.1337697,
                  "lng" : -82.39599389999999
               }
            }
         },
         "partial_match" : true,
         "types" : [ "route" ]
      },
      {
         "address_components" : [
            {
               "long_name" : "R",
               "short_name" : "R",
               "types" : [ "route" ]
            },
            {
               "long_name" : "Abyan",
               "short_name" : "Abyan",
               "types" : [ "administrative_area_level_1", "political" ]
            },
            {
               "long_name" : "Yemen",
               "short_name" : "YE",
               "types" : [ "country", "political" ]
            }
         ],
         "formatted_address" : "R, Yemen",
         "geometry" : {
            "bounds" : {
               "northeast" : {
                  "lat" : 13.0067717,
                  "lng" : 45.1212966
               },
               "southwest" : {
                  "lat" : 12.9924044,
                  "lng" : 45.0980187
               }
            },
            "location" : {
               "lat" : 12.9995588,
               "lng" : 45.10977750000001
            },
            "location_type" : "GEOMETRIC_CENTER",
            "viewport" : {
               "northeast" : {
                  "lat" : 13.0067717,
                  "lng" : 45.1212966
               },
               "southwest" : {
                  "lat" : 12.9924044,
                  "lng" : 45.0980187
               }
            }
         },
         "partial_match" : true,
         "types" : [ "route" ]
      },
      {
         "address_components" : [
            {
               "long_name" : "\"g\"",
               "short_name" : "\"g\"",
               "types" : [ "route" ]
            },
            {
               "long_name" : "Mano Con Mano",
               "short_name" : "Mano Con Mano",
               "types" : [ "neighborhood", "political" ]
            },
            {
               "long_name" : "Tampico",
               "short_name" : "Tampico",
               "types" : [ "locality", "political" ]
            },
            {
               "long_name" : "Tampico",
               "short_name" : "Tampico",
               "types" : [ "administrative_area_level_2", "political" ]
            },
            {
               "long_name" : "Tamaulipas",
               "short_name" : "TAMPS",
               "types" : [ "administrative_area_level_1", "political" ]
            },
            {
               "long_name" : "Mexico",
               "short_name" : "MX",
               "types" : [ "country", "political" ]
            },
            {
               "long_name" : "89298",
               "short_name" : "89298",
               "types" : [ "postal_code" ]
            }
         ],
         "formatted_address" : "\"g\", Mano Con Mano, 89298 Tampico, TAMPS, Mexico",
         "geometry" : {
            "bounds" : {
               "northeast" : {
                  "lat" : 22.2354357,
                  "lng" : -97.8932325
               },
               "southwest" : {
                  "lat" : 22.2343607,
                  "lng" : -97.89436959999999
               }
            },
            "location" : {
               "lat" : 22.2350539,
               "lng" : -97.8936549
            },
            "location_type" : "GEOMETRIC_CENTER",
            "viewport" : {
               "northeast" : {
                  "lat" : 22.2362471802915,
                  "lng" : -97.89245206970848
               },
               "southwest" : {
                  "lat" : 22.2335492197085,
                  "lng" : -97.8951500302915
               }
            }
         },
         "partial_match" : true,
         "types" : [ "route" ]
      },
      {
         "address_components" : [
            {
               "long_name" : "Calle G",
               "short_name" : "Calle G",
               "types" : [ "route" ]
            },
            {
               "long_name" : "Pergamino",
               "short_name" : "Pergamino",
               "types" : [ "locality", "political" ]
            },
            {
               "long_name" : "Pergamino Partido",
               "short_name" : "Pergamino Partido",
               "types" : [ "administrative_area_level_2", "political" ]
            },
            {
               "long_name" : "Buenos Aires",
               "short_name" : "BA",
               "types" : [ "administrative_area_level_1", "political" ]
            },
            {
               "long_name" : "Argentina",
               "short_name" : "AR",
               "types" : [ "country", "political" ]
            }
         ],
         "formatted_address" : "Calle G, Pergamino, Buenos Aires, Argentina",
         "geometry" : {
            "bounds" : {
               "northeast" : {
                  "lat" : -33.8733139,
                  "lng" : -60.5656357
               },
               "southwest" : {
                  "lat" : -33.8776512,
                  "lng" : -60.57840729999999
               }
            },
            "location" : {
               "lat" : -33.8756104,
               "lng" : -60.57162479999999
            },
            "location_type" : "GEOMETRIC_CENTER",
            "viewport" : {
               "northeast" : {
                  "lat" : -33.8733139,
                  "lng" : -60.5656357
               },
               "southwest" : {
                  "lat" : -33.8776512,
                  "lng" : -60.57840729999999
               }
            }
         },
         "partial_match" : true,
         "types" : [ "route" ]
      }
   ],
   "status" : "OK"
}
