{
   "results" : [
      {
         "address_components" : [
            {
               "long_name" : "Halder Para",
               "short_name" : "Halder Para",
               "types" : [ "locality", "political" ]
            },
            {
               "long_name" : "Murshidabad",
               "short_name" : "Murshidabad",
               "types" : [ "administrative_area_level_2", "political" ]
            },
            {
               "long_name" : "West Bengal",
               "short_name" : "WB",
               "types" : [ "administrative_area_level_1", "political" ]
            },
            {
               "long_name" : "India",
               "short_name" : "IN",
               "types" : [ "country", "political" ]
            },
            {
               "long_name" : "742165",
               "short_name" : "742165",
               "types" : [ "postal_code" ]
            }
         ],
         "formatted_address" : "Halder Para, West Bengal 742165, India",
         "geometry" : {
            "bounds" : {
               "northeast" : {
                  "lat" : 24.0624137,
                  "lng" : 88.3213449
               },
               "southwest" : {
                  "lat" : 24.0593179,
                  "lng" : 88.3180188
               }
            },
            "location" : {
               "lat" : 24.0611808,
               "lng" : 88.3196791
            },
            "location_type" : "APPROXIMATE",
            "viewport" : {
               "northeast" : {
                  "lat" : 24.0624137,
                  "lng" : 88.3213449
               },
               "southwest" : {
                  "lat" : 24.0593179,
                  "lng" : 88.3180188
               }
            }
         },
         "types" : [ "locality", "political" ]
      },
      {
         "address_components" : [
            {
               "long_name" : "Halder Para",
               "short_name" : "Halder Para",
               "types" : [ "sublocality_level_1", "sublocality", "political" ]
            },
            {
               "long_name" : "Sylhet",
               "short_name" : "Sylhet",
               "types" : [ "locality", "political" ]
            },
            {
               "long_name" : "Sylhet",
               "short_name" : "Sylhet",
               "types" : [ "administrative_area_level_2", "political" ]
            },
            {
               "long_name" : "Sylhet Division",
               "short_name" : "Sylhet Division",
               "types" : [ "administrative_area_level_1", "political" ]
            },
            {
               "long_name" : "Bangladesh",
               "short_name" : "BD",
               "types" : [ "country", "political" ]
            }
         ],
         "formatted_address" : "Halder Para, Sylhet, Bangladesh",
         "geometry" : {
            "bounds" : {
               "northeast" : {
                  "lat" : 24.9330177,
                  "lng" : 91.8566465
               },
               "southwest" : {
                  "lat" : 24.9165552,
                  "lng" : 91.84165829999999
               }
            },
            "location" : {
               "lat" : 24.9254494,
               "lng" : 91.8489038
            },
            "location_type" : "APPROXIMATE",
            "viewport" : {
               "northeast" : {
                  "lat" : 24.9330177,
                  "lng" : 91.8566465
               },
               "southwest" : {
                  "lat" : 24.9165552,
                  "lng" : 91.84165829999999
               }
            }
         },
         "types" : [ "sublocality_level_1", "sublocality", "political" ]
      },
      {
         "address_components" : [
            {
               "long_name" : "Halder Para",
               "short_name" : "Halder Para",
               "types" : [ "sublocality_level_2", "sublocality", "political" ]
            },
            {
               "long_name" : "Shibrampur Mauza",
               "short_name" : "Shibrampur Mauza",
               "types" : [ "sublocality_level_1", "sublocality", "political" ]
            },
            {
               "long_name" : "Kolkata",
               "short_name" : "Kolkata",
               "types" : [ "locality", "political" ]
            },
            {
               "long_name" : "Kolkata",
               "short_name" : "Kolkata",
               "types" : [ "administrative_area_level_2", "political" ]
            },
            {
               "long_name" : "West Bengal",
               "short_name" : "WB",
               "types" : [ "administrative_area_level_1", "political" ]
            },
            {
               "long_name" : "India",
               "short_name" : "IN",
               "types" : [ "country", "political" ]
            },
            {
               "long_name" : "700141",
               "short_name" : "700141",
               "types" : [ "postal_code" ]
            }
         ],
         "formatted_address" : "Halder Para, Shibrampur Mauza, Kolkata, West Bengal 700141, India",
         "geometry" : {
            "bounds" : {
               "northeast" : {
                  "lat" : 22.4872939,
                  "lng" : 88.27386489999999
               },
               "southwest" : {
                  "lat" : 22.4825239,
                  "lng" : 88.26769999999999
               }
            },
            "location" : {
               "lat" : 22.4847434,
               "lng" : 88.27105779999999
            },
            "location_type" : "APPROXIMATE",
            "viewport" : {
               "northeast" : {
                  "lat" : 22.4872939,
                  "lng" : 88.27386489999999
               },
               "southwest" : {
                  "lat" : 22.4825239,
                  "lng" : 88.26769999999999
               }
            }
         },
         "types" : [ "sublocality_level_2", "sublocality", "political" ]
      },
      {
         "address_components" : [
            {
               "long_name" : "Halder Para",
               "short_name" : "Halder Para",
               "types" : [ "neighborhood", "political" ]
            },
            {
               "long_name" : "Gangarampur",
               "short_name" : "Gangarampur",
               "types" : [ "locality", "political" ]
            },
            {
               "long_name" : "Dakshin Dinajpur",
               "short_name" : "Dakshin Dinajpur",
               "types" : [ "administrative_area_level_2", "political" ]
            },
            {
               "long_name" : "West Bengal",
               "short_name" : "WB",
               "types" : [ "administrative_area_level_1", "political" ]
            },
            {
               "long_name" : "India",
               "short_name" : "IN",
               "types" : [ "country", "political" ]
            },
            {
               "long_name" : "733124",
               "short_name" : "733124",
               "types" : [ "postal_code" ]
            }
         ],
         "formatted_address" : "Halder Para, Gangarampur, West Bengal 733124, India",
         "geometry" : {
            "bounds" : {
               "northeast" : {
                  "lat" : 25.4122683,
                  "lng" : 88.52062219999999
               },
               "southwest" : {
                  "lat" : 25.4071319,
                  "lng" : 88.51418509999999
               }
            },
            "location" : {
               "lat" : 25.410384,
               "lng" : 88.5172472
            },
            "location_type" : "APPROXIMATE",
            "viewport" : {
               "northeast" : {
                  "lat" : 25.4122683,
                  "lng" : 88.52062219999999
               },
               "southwest" : {
                  "lat" : 25.4071319,
                  "lng" : 88.51418509999999
               }
            }
         },
         "types" : [ "neighborhood", "political" ]
      },
      {
         "address_components" : [
            {
               "long_name" : "Halder Para",
               "short_name" : "Halder Para",
               "types" : [ "neighborhood", "political" ]
            },
            {
               "long_name" : "Brahmanbaria",
               "short_name" : "Brahmanbaria",
               "types" : [ "locality", "political" ]
            },
            {
               "long_name" : "Brahmanbaria",
               "short_name" : "Brahmanbaria",
               "types" : [ "administrative_area_level_2", "political" ]
            },
            {
               "long_name" : "Chittagong Division",
               "short_name" : "Chittagong Division",
               "types" : [ "administrative_area_level_1", "political" ]
            },
            {
               "long_name" : "Bangladesh",
               "short_name" : "BD",
               "types" : [ "country", "political" ]
            }
         ],
         "formatted_address" : "Halder Para, Brahmanbaria, Bangladesh",
         "geometry" : {
            "bounds" : {
               "northeast" : {
                  "lat" : 23.9771803,
                  "lng" : 91.10921960000002
               },
               "southwest" : {
                  "lat" : 23.9746779,
                  "lng" : 91.1064757
               }
            },
            "location" : {
               "lat" : 23.9760604,
               "lng" : 91.1080254
            },
            "location_type" : "APPROXIMATE",
            "viewport" : {
               "northeast" : {
                  "lat" : 23.97727808029151,
                  "lng" : 91.10921960000002
               },
               "southwest" : {
                  "lat" : 23.9745801197085,
                  "lng" : 91.1064757
               }
            }
         },
         "types" : [ "neighborhood", "political" ]
      },
      {
         "address_components" : [
            {
               "long_name" : "Halder Para Road",
               "short_name" : "Halder Para Road",
               "types" : [ "route" ]
            },
            {
               "long_name" : "Gangarampur",
               "short_name" : "Gangarampur",
               "types" : [ "locality", "political" ]
            },
            {
               "long_name" : "Dakshin Dinajpur",
               "short_name" : "Dakshin Dinajpur",
               "types" : [ "administrative_area_level_2", "political" ]
            },
            {
               "long_name" : "West Bengal",
               "short_name" : "WB",
               "types" : [ "administrative_area_level_1", "political" ]
            },
            {
               "long_name" : "India",
               "short_name" : "IN",
               "types" : [ "country", "political" ]
            },
            {
               "long_name" : "733124",
               "short_name" : "733124",
               "types" : [ "postal_code" ]
            }
         ],
         "formatted_address" : "Halder Para Road, Gangarampur, West Bengal 733124, India",
         "geometry" : {
            "bounds" : {
               "northeast" : {
                  "lat" : 25.4113524,
                  "lng" : 88.52218189999999
               },
               "southwest" : {
                  "lat" : 25.4059154,
                  "lng" : 88.51668479999999
               }
            },
            "location" : {
               "lat" : 25.4093803,
               "lng" : 88.51835849999999
            },
            "location_type" : "GEOMETRIC_CENTER",
            "viewport" : {
               "northeast" : {
                  "lat" : 25.4113524,
                  "lng" : 88.52218189999999
               },
               "southwest" : {
                  "lat" : 25.4059154,
                  "lng" : 88.51668479999999
               }
            }
         },
         "partial_match" : true,
         "types" : [ "route" ]
      },
      {
         "address_components" : [
            {
               "long_name" : "Halder Para Lane",
               "short_name" : "Halder Para Lane",
               "types" : [ "route" ]
            },
            {
               "long_name" : "Narayanpur",
               "short_name" : "Narayanpur",
               "types" : [ "locality", "political" ]
            },
            {
               "long_name" : "Birbhum",
               "short_name" : "Birbhum",
               "types" : [ "administrative_area_level_2", "political" ]
            },
            {
               "long_name" : "West Bengal",
               "short_name" : "WB",
               "types" : [ "administrative_area_level_1", "political" ]
            },
            {
               "long_name" : "India",
               "short_name" : "IN",
               "types" : [ "country", "political" ]
            },
            {
               "long_name" : "731223",
               "short_name" : "731223",
               "types" : [ "postal_code" ]
            }
         ],
         "formatted_address" : "Halder Para Lane, Narayanpur, West Bengal 731223, India",
         "geometry" : {
            "bounds" : {
               "northeast" : {
                  "lat" : 24.2412637,
                  "lng" : 87.6897991
               },
               "southwest" : {
                  "lat" : 24.2394714,
                  "lng" : 87.6885733
               }
            },
            "location" : {
               "lat" : 24.2403674,
               "lng" : 87.6892608
            },
            "location_type" : "GEOMETRIC_CENTER",
            "viewport" : {
               "northeast" : {
                  "lat" : 24.2417165302915,
                  "lng" : 87.6905351802915
               },
               "southwest" : {
                  "lat" : 24.2390185697085,
                  "lng" : 87.6878372197085
               }
            }
         },
         "partial_match" : true,
         "types" : [ "route" ]
      },
      {
         "address_components" : [
            {
               "long_name" : "Halder Para Road",
               "short_name" : "Halder Para Rd",
               "types" : [ "route" ]
            },
            {
               "long_name" : "Basantapur",
               "short_name" : "Basantapur",
               "types" : [ "locality", "political" ]
            },
            {
               "long_name" : "Satkhira",
               "short_name" : "Satkhira",
               "types" : [ "administrative_area_level_2", "political" ]
            },
            {
               "long_name" : "Khulna Division",
               "short_name" : "Khulna Division",
               "types" : [ "administrative_area_level_1", "political" ]
            },
            {
               "long_name" : "Bangladesh",
               "short_name" : "BD",
               "types" : [ "country", "political" ]
            }
         ],
         "formatted_address" : "Halder Para Road, Basantapur, Bangladesh",
         "geometry" : {
            "bounds" : {
               "northeast" : {
                  "lat" : 22.4596679,
                  "lng" : 89.0096669
               },
               "southwest" : {
                  "lat" : 22.4581109,
                  "lng" : 89.0088748
               }
            },
            "location" : {
               "lat" : 22.4588086,
               "lng" : 89.00946479999999
            },
            "location_type" : "GEOMETRIC_CENTER",
            "viewport" : {
               "northeast" : {
                  "lat" : 22.4602383802915,
                  "lng" : 89.01061983029152
               },
               "southwest" : {
                  "lat" : 22.45754041970849,
                  "lng" : 89.0079218697085
               }
            }
         },
         "partial_match" : true,
         "types" : [ "route" ]
      },
      {
         "address_components" : [
            {
               "long_name" : "Halder Para Lane",
               "short_name" : "Halder Para Ln",
               "types" : [ "route" ]
            },
            {
               "long_name" : "Kalighat",
               "short_name" : "Kalighat",
               "types" : [ "sublocality_level_1", "sublocality", "political" ]
            },
            {
               "long_name" : "Kolkata",
               "short_name" : "Kolkata",
               "types" : [ "locality", "political" ]
            },
            {
               "long_name" : "Kolkata",
               "short_name" : "Kolkata",
               "types" : [ "administrative_area_level_2", "political" ]
            },
            {
               "long_name" : "West Bengal",
               "short_name" : "WB",
               "types" : [ "administrative_area_level_1", "political" ]
            },
            {
               "long_name" : "India",
               "short_name" : "IN",
               "types" : [ "country", "political" ]
            },
            {
               "long_name" : "700026",
               "short_name" : "700026",
               "types" : [ "postal_code" ]
            }
         ],
         "formatted_address" : "Halder Para Lane, Kalighat, Kolkata, West Bengal 700026, India",
         "geometry" : {
            "bounds" : {
               "northeast" : {
                  "lat" : 22.521422,
                  "lng" : 88.3465733
               },
               "southwest" : {
                  "lat" : 22.5208844,
                  "lng" : 88.34259059999999
               }
            },
            "location" : {
               "lat" : 22.5214173,
               "lng" : 88.34455779999999
            },
            "location_type" : "GEOMETRIC_CENTER",
            "viewport" : {
               "northeast" : {
                  "lat" : 22.5225021802915,
                  "lng" : 88.3465733
               },
               "southwest" : {
                  "lat" : 22.5198042197085,
                  "lng" : 88.34259059999999
               }
            }
         },
         "partial_match" : true,
         "types" : [ "route" ]
      },
      {
         "address_components" : [
            {
               "long_name" : "Halder Para Lane",
               "short_name" : "Halder Para Ln",
               "types" : [ "route" ]
            },
            {
               "long_name" : "Metiabruz",
               "short_name" : "Metiabruz",
               "types" : [ "sublocality_level_1", "sublocality", "political" ]
            },
            {
               "long_name" : "Kolkata",
               "short_name" : "Kolkata",
               "types" : [ "locality", "political" ]
            },
            {
               "long_name" : "Kolkata",
               "short_name" : "Kolkata",
               "types" : [ "administrative_area_level_2", "political" ]
            },
            {
               "long_name" : "West Bengal",
               "short_name" : "WB",
               "types" : [ "administrative_area_level_1", "political" ]
            },
            {
               "long_name" : "India",
               "short_name" : "IN",
               "types" : [ "country", "political" ]
            },
            {
               "long_name" : "700044",
               "short_name" : "700044",
               "types" : [ "postal_code" ]
            }
         ],
         "formatted_address" : "Halder Para Lane, Metiabruz, Kolkata, West Bengal 700044, India",
         "geometry" : {
            "bounds" : {
               "northeast" : {
                  "lat" : 22.5479979,
                  "lng" : 88.2747392
               },
               "southwest" : {
                  "lat" : 22.5463184,
                  "lng" : 88.2729057
               }
            },
            "location" : {
               "lat" : 22.5477588,
               "lng" : 88.273973
            },
            "location_type" : "GEOMETRIC_CENTER",
            "viewport" : {
               "northeast" : {
                  "lat" : 22.5485071302915,
                  "lng" : 88.27517143029149
               },
               "southwest" : {
                  "lat" : 22.5458091697085,
                  "lng" : 88.27247346970849
               }
            }
         },
         "partial_match" : true,
         "types" : [ "route" ]
      },
      {
         "address_components" : [
            {
               "long_name" : "Halder Para Lane",
               "short_name" : "Halder Para Ln",
               "types" : [ "route" ]
            },
            {
               "long_name" : "Hanuman Mandir Basti",
               "short_name" : "Hanuman Mandir Basti",
               "types" : [ "sublocality_level_2", "sublocality", "political" ]
            },
            {
               "long_name" : "Garden Reach",
               "short_name" : "Garden Reach",
               "types" : [ "sublocality_level_1", "sublocality", "political" ]
            },
            {
               "long_name" : "Kolkata",
               "short_name" : "Kolkata",
               "types" : [ "locality", "political" ]
            },
            {
               "long_name" : "Kolkata",
               "short_name" : "Kolkata",
               "types" : [ "administrative_area_level_2", "political" ]
            },
            {
               "long_name" : "West Bengal",
               "short_name" : "WB",
               "types" : [ "administrative_area_level_1", "political" ]
            },
            {
               "long_name" : "India",
               "short_name" : "IN",
               "types" : [ "country", "political" ]
            },
            {
               "long_name" : "700024",
               "short_name" : "700024",
               "types" : [ "postal_code" ]
            }
         ],
         "formatted_address" : "Halder Para Lane, Hanuman Mandir Basti, Garden Reach, Kolkata, West Bengal 700024, India",
         "geometry" : {
            "bounds" : {
               "northeast" : {
                  "lat" : 22.5411208,
                  "lng" : 88.2865577
               },
               "southwest" : {
                  "lat" : 22.5409851,
                  "lng" : 88.28478989999999
               }
            },
            "location" : {
               "lat" : 22.5410972,
               "lng" : 88.28571490000002
            },
            "location_type" : "GEOMETRIC_CENTER",
            "viewport" : {
               "northeast" : {
                  "lat" : 22.5424019302915,
                  "lng" : 88.28702278029151
               },
               "southwest" : {
                  "lat" : 22.5397039697085,
                  "lng" : 88.2843248197085
               }
            }
         },
         "partial_match" : true,
         "types" : [ "route" ]
      }
   ],
   "status" : "OK"
}
