{
   "results" : [
      {
         "address_components" : [
            {
               "long_name" : "Nehru Road",
               "short_name" : "Nehru Rd",
               "types" : [ "route" ]
            },
            {
               "long_name" : "Bhopal Ganj",
               "short_name" : "Bhopal Ganj",
               "types" : [ "sublocality_level_1", "sublocality", "political" ]
            },
            {
               "long_name" : "Bhilwara",
               "short_name" : "Bhilwara",
               "types" : [ "locality", "political" ]
            },
            {
               "long_name" : "Bhilwara",
               "short_name" : "Bhilwara",
               "types" : [ "administrative_area_level_2", "political" ]
            },
            {
               "long_name" : "Rajasthan",
               "short_name" : "RJ",
               "types" : [ "administrative_area_level_1", "political" ]
            },
            {
               "long_name" : "India",
               "short_name" : "IN",
               "types" : [ "country", "political" ]
            },
            {
               "long_name" : "311001",
               "short_name" : "311001",
               "types" : [ "postal_code" ]
            }
         ],
         "formatted_address" : "Nehru Road, Bhopal Ganj, Bhilwara, Rajasthan 311001, India",
         "geometry" : {
            "bounds" : {
               "northeast" : {
                  "lat" : 25.3539155,
                  "lng" : 74.64214699999999
               },
               "southwest" : {
                  "lat" : 25.3507898,
                  "lng" : 74.6359736
               }
            },
            "location" : {
               "lat" : 25.3520109,
               "lng" : 74.6389635
            },
            "location_type" : "GEOMETRIC_CENTER",
            "viewport" : {
               "northeast" : {
                  "lat" : 25.3539155,
                  "lng" : 74.64214699999999
               },
               "southwest" : {
                  "lat" : 25.3507898,
                  "lng" : 74.6359736
               }
            }
         },
         "partial_match" : true,
         "types" : [ "route" ]
      },
      {
         "address_components" : [
            {
               "long_name" : "Nehru Road",
               "short_name" : "Nehru Rd",
               "types" : [ "route" ]
            },
            {
               "long_name" : "Quatre Bornes",
               "short_name" : "Quatre Bornes",
               "types" : [ "locality", "political" ]
            },
            {
               "long_name" : "Plaines Wilhems",
               "short_name" : "Plaines Wilhems",
               "types" : [ "administrative_area_level_1", "political" ]
            },
            {
               "long_name" : "Mauritius",
               "short_name" : "MU",
               "types" : [ "country", "political" ]
            }
         ],
         "formatted_address" : "Nehru Road, Quatre Bornes, Mauritius",
         "geometry" : {
            "bounds" : {
               "northeast" : {
                  "lat" : -20.2745505,
                  "lng" : 57.47211970000001
               },
               "southwest" : {
                  "lat" : -20.2923959,
                  "lng" : 57.4582109
               }
            },
            "location" : {
               "lat" : -20.283387,
               "lng" : 57.46516260000001
            },
            "location_type" : "GEOMETRIC_CENTER",
            "viewport" : {
               "northeast" : {
                  "lat" : -20.2745505,
                  "lng" : 57.47211970000001
               },
               "southwest" : {
                  "lat" : -20.2923959,
                  "lng" : 57.4582109
               }
            }
         },
         "partial_match" : true,
         "types" : [ "route" ]
      },
      {
         "address_components" : [
            {
               "long_name" : "Nehru Road",
               "short_name" : "Nehru Rd",
               "types" : [ "route" ]
            },
            {
               "long_name" : "Steel Plant Township",
               "short_name" : "Steel Plant Twp",
               "types" : [ "sublocality_level_1", "sublocality", "political" ]
            },
            {
               "long_name" : "Visakhapatnam",
               "short_name" : "Visakhapatnam",
               "types" : [ "locality", "political" ]
            },
            {
               "long_name" : "Vishakhapatnam",
               "short_name" : "Vishakhapatnam",
               "types" : [ "administrative_area_level_2", "political" ]
            },
            {
               "long_name" : "Andhra Pradesh",
               "short_name" : "AP",
               "types" : [ "administrative_area_level_1", "political" ]
            },
            {
               "long_name" : "India",
               "short_name" : "IN",
               "types" : [ "country", "political" ]
            },
            {
               "long_name" : "530032",
               "short_name" : "530032",
               "types" : [ "postal_code" ]
            }
         ],
         "formatted_address" : "Nehru Road, Steel Plant Township, Visakhapatnam, Andhra Pradesh 530032, India",
         "geometry" : {
            "bounds" : {
               "northeast" : {
                  "lat" : 17.6627066,
                  "lng" : 83.1670556
               },
               "southwest" : {
                  "lat" : 17.6571651,
                  "lng" : 83.1435149
               }
            },
            "location" : {
               "lat" : 17.6599177,
               "lng" : 83.1548382
            },
            "location_type" : "GEOMETRIC_CENTER",
            "viewport" : {
               "northeast" : {
                  "lat" : 17.6627066,
                  "lng" : 83.1670556
               },
               "southwest" : {
                  "lat" : 17.6571651,
                  "lng" : 83.1435149
               }
            }
         },
         "partial_match" : true,
         "types" : [ "route" ]
      },
      {
         "address_components" : [
            {
               "long_name" : "Nehru Road",
               "short_name" : "Nehru Rd",
               "types" : [ "route" ]
            },
            {
               "long_name" : "Farrukhabad",
               "short_name" : "Farrukhabad",
               "types" : [ "locality", "political" ]
            },
            {
               "long_name" : "Farrukhabad",
               "short_name" : "Farrukhabad",
               "types" : [ "administrative_area_level_2", "political" ]
            },
            {
               "long_name" : "Uttar Pradesh",
               "short_name" : "UP",
               "types" : [ "administrative_area_level_1", "political" ]
            },
            {
               "long_name" : "India",
               "short_name" : "IN",
               "types" : [ "country", "political" ]
            },
            {
               "long_name" : "209625",
               "short_name" : "209625",
               "types" : [ "postal_code" ]
            }
         ],
         "formatted_address" : "Nehru Road, Farrukhabad, Uttar Pradesh 209625, India",
         "geometry" : {
            "bounds" : {
               "northeast" : {
                  "lat" : 27.3948171,
                  "lng" : 79.58680989999999
               },
               "southwest" : {
                  "lat" : 27.3875818,
                  "lng" : 79.5747511
               }
            },
            "location" : {
               "lat" : 27.3906509,
               "lng" : 79.58022509999999
            },
            "location_type" : "GEOMETRIC_CENTER",
            "viewport" : {
               "northeast" : {
                  "lat" : 27.3948171,
                  "lng" : 79.58680989999999
               },
               "southwest" : {
                  "lat" : 27.3875818,
                  "lng" : 79.5747511
               }
            }
         },
         "partial_match" : true,
         "types" : [ "route" ]
      },
      {
         "address_components" : [
            {
               "long_name" : "Nehru Road",
               "short_name" : "Nehru Rd",
               "types" : [ "route" ]
            },
            {
               "long_name" : "Pimpri",
               "short_name" : "Pimpri",
               "types" : [ "sublocality_level_1", "sublocality", "political" ]
            },
            {
               "long_name" : "Pimpri-Chinchwad",
               "short_name" : "Pimpri-Chinchwad",
               "types" : [ "locality", "political" ]
            },
            {
               "long_name" : "Pune",
               "short_name" : "Pune",
               "types" : [ "administrative_area_level_2", "political" ]
            },
            {
               "long_name" : "Maharashtra",
               "short_name" : "MH",
               "types" : [ "administrative_area_level_1", "political" ]
            },
            {
               "long_name" : "India",
               "short_name" : "IN",
               "types" : [ "country", "political" ]
            },
            {
               "long_name" : "411018",
               "short_name" : "411018",
               "types" : [ "postal_code" ]
            }
         ],
         "formatted_address" : "Nehru Road, Pimpri, Pimpri-Chinchwad, Maharashtra 411018, India",
         "geometry" : {
            "bounds" : {
               "northeast" : {
                  "lat" : 18.6410942,
                  "lng" : 73.82255529999999
               },
               "southwest" : {
                  "lat" : 18.6296041,
                  "lng" : 73.81949999999999
               }
            },
            "location" : {
               "lat" : 18.6357949,
               "lng" : 73.8208535
            },
            "location_type" : "GEOMETRIC_CENTER",
            "viewport" : {
               "northeast" : {
                  "lat" : 18.6410942,
                  "lng" : 73.82255529999999
               },
               "southwest" : {
                  "lat" : 18.6296041,
                  "lng" : 73.81949999999999
               }
            }
         },
         "partial_match" : true,
         "types" : [ "route" ]
      },
      {
         "address_components" : [
            {
               "long_name" : "Nehru Road",
               "short_name" : "Nehru Rd",
               "types" : [ "route" ]
            },
            {
               "long_name" : "Mumbai",
               "short_name" : "Mumbai",
               "types" : [ "locality", "political" ]
            },
            {
               "long_name" : "Maharashtra",
               "short_name" : "MH",
               "types" : [ "administrative_area_level_1", "political" ]
            },
            {
               "long_name" : "India",
               "short_name" : "IN",
               "types" : [ "country", "political" ]
            }
         ],
         "formatted_address" : "Nehru Road, Mumbai, Maharashtra, India",
         "geometry" : {
            "bounds" : {
               "northeast" : {
                  "lat" : 19.8770042,
                  "lng" : 73.8337317
               },
               "southwest" : {
                  "lat" : 19.094628,
                  "lng" : 72.8443343
               }
            },
            "location" : {
               "lat" : 19.0959261,
               "lng" : 72.85537099999999
            },
            "location_type" : "GEOMETRIC_CENTER",
            "viewport" : {
               "northeast" : {
                  "lat" : 19.8770042,
                  "lng" : 73.8337317
               },
               "southwest" : {
                  "lat" : 19.094628,
                  "lng" : 72.8443343
               }
            }
         },
         "partial_match" : true,
         "types" : [ "route" ]
      },
      {
         "address_components" : [
            {
               "long_name" : "Nehru Road",
               "short_name" : "Nehru Rd",
               "types" : [ "route" ]
            },
            {
               "long_name" : "Durgigudi",
               "short_name" : "Durgigudi",
               "types" : [ "sublocality_level_1", "sublocality", "political" ]
            },
            {
               "long_name" : "Shivamogga",
               "short_name" : "Shivamogga",
               "types" : [ "locality", "political" ]
            },
            {
               "long_name" : "Shimoga",
               "short_name" : "Shimoga",
               "types" : [ "administrative_area_level_2", "political" ]
            },
            {
               "long_name" : "Karnataka",
               "short_name" : "KA",
               "types" : [ "administrative_area_level_1", "political" ]
            },
            {
               "long_name" : "India",
               "short_name" : "IN",
               "types" : [ "country", "political" ]
            },
            {
               "long_name" : "577201",
               "short_name" : "577201",
               "types" : [ "postal_code" ]
            }
         ],
         "formatted_address" : "Nehru Road, Durgigudi, Shivamogga, Karnataka 577201, India",
         "geometry" : {
            "bounds" : {
               "northeast" : {
                  "lat" : 13.9383653,
                  "lng" : 75.57442549999999
               },
               "southwest" : {
                  "lat" : 13.9296577,
                  "lng" : 75.5695734
               }
            },
            "location" : {
               "lat" : 13.9345281,
               "lng" : 75.5723996
            },
            "location_type" : "GEOMETRIC_CENTER",
            "viewport" : {
               "northeast" : {
                  "lat" : 13.9383653,
                  "lng" : 75.57442549999999
               },
               "southwest" : {
                  "lat" : 13.9296577,
                  "lng" : 75.5695734
               }
            }
         },
         "partial_match" : true,
         "types" : [ "route" ]
      },
      {
         "address_components" : [
            {
               "long_name" : "Nehru Road",
               "short_name" : "Nehru Rd",
               "types" : [ "route" ]
            },
            {
               "long_name" : "Bengaluru",
               "short_name" : "Bengaluru",
               "types" : [ "locality", "political" ]
            },
            {
               "long_name" : "Bangalore Urban",
               "short_name" : "Bangalore Urban",
               "types" : [ "administrative_area_level_2", "political" ]
            },
            {
               "long_name" : "Karnataka",
               "short_name" : "KA",
               "types" : [ "administrative_area_level_1", "political" ]
            },
            {
               "long_name" : "India",
               "short_name" : "IN",
               "types" : [ "country", "political" ]
            }
         ],
         "formatted_address" : "Nehru Road, Bengaluru, Karnataka, India",
         "geometry" : {
            "bounds" : {
               "northeast" : {
                  "lat" : 13.016064,
                  "lng" : 77.6424387
               },
               "southwest" : {
                  "lat" : 13.013849,
                  "lng" : 77.6292151
               }
            },
            "location" : {
               "lat" : 13.014452,
               "lng" : 77.635755
            },
            "location_type" : "GEOMETRIC_CENTER",
            "viewport" : {
               "northeast" : {
                  "lat" : 13.0163054802915,
                  "lng" : 77.6424387
               },
               "southwest" : {
                  "lat" : 13.0136075197085,
                  "lng" : 77.6292151
               }
            }
         },
         "partial_match" : true,
         "types" : [ "route" ]
      },
      {
         "address_components" : [
            {
               "long_name" : "Nehru Road",
               "short_name" : "Nehru Rd",
               "types" : [ "route" ]
            },
            {
               "long_name" : "Meerut",
               "short_name" : "Meerut",
               "types" : [ "locality", "political" ]
            },
            {
               "long_name" : "Meerut",
               "short_name" : "Meerut",
               "types" : [ "administrative_area_level_2", "political" ]
            },
            {
               "long_name" : "Uttar Pradesh",
               "short_name" : "UP",
               "types" : [ "administrative_area_level_1", "political" ]
            },
            {
               "long_name" : "India",
               "short_name" : "IN",
               "types" : [ "country", "political" ]
            }
         ],
         "formatted_address" : "Nehru Road, Meerut, Uttar Pradesh, India",
         "geometry" : {
            "bounds" : {
               "northeast" : {
                  "lat" : 28.9903821,
                  "lng" : 77.7186092
               },
               "southwest" : {
                  "lat" : 28.9866138,
                  "lng" : 77.71340699999999
               }
            },
            "location" : {
               "lat" : 28.9891982,
               "lng" : 77.7162714
            },
            "location_type" : "GEOMETRIC_CENTER",
            "viewport" : {
               "northeast" : {
                  "lat" : 28.9903821,
                  "lng" : 77.7186092
               },
               "southwest" : {
                  "lat" : 28.9866138,
                  "lng" : 77.71340699999999
               }
            }
         },
         "partial_match" : true,
         "types" : [ "route" ]
      },
      {
         "address_components" : [
            {
               "long_name" : "Nehru Road",
               "short_name" : "Nehru Rd",
               "types" : [ "route" ]
            },
            {
               "long_name" : "Saktapur Ryt",
               "short_name" : "Saktapur Ryt",
               "types" : [ "locality", "political" ]
            },
            {
               "long_name" : "Khandwa",
               "short_name" : "Khandwa",
               "types" : [ "administrative_area_level_2", "political" ]
            },
            {
               "long_name" : "Madhya Pradesh",
               "short_name" : "MP",
               "types" : [ "administrative_area_level_1", "political" ]
            },
            {
               "long_name" : "India",
               "short_name" : "IN",
               "types" : [ "country", "political" ]
            },
            {
               "long_name" : "450116",
               "short_name" : "450116",
               "types" : [ "postal_code" ]
            }
         ],
         "formatted_address" : "Nehru Road, Saktapur Ryt, Madhya Pradesh 450116, India",
         "geometry" : {
            "bounds" : {
               "northeast" : {
                  "lat" : 21.9792793,
                  "lng" : 76.68925659999999
               },
               "southwest" : {
                  "lat" : 21.9635553,
                  "lng" : 76.66124309999999
               }
            },
            "location" : {
               "lat" : 21.971522,
               "lng" : 76.67522439999999
            },
            "location_type" : "GEOMETRIC_CENTER",
            "viewport" : {
               "northeast" : {
                  "lat" : 21.9792793,
                  "lng" : 76.68925659999999
               },
               "southwest" : {
                  "lat" : 21.9635553,
                  "lng" : 76.66124309999999
               }
            }
         },
         "partial_match" : true,
         "types" : [ "route" ]
      },
      {
         "address_components" : [
            {
               "long_name" : "Nehru Road",
               "short_name" : "Nehru Rd",
               "types" : [ "route" ]
            },
            {
               "long_name" : "Cantonment",
               "short_name" : "Cantonment",
               "types" : [ "sublocality_level_1", "sublocality", "political" ]
            },
            {
               "long_name" : "Lucknow",
               "short_name" : "Lucknow",
               "types" : [ "locality", "political" ]
            },
            {
               "long_name" : "Lucknow",
               "short_name" : "Lucknow",
               "types" : [ "administrative_area_level_2", "political" ]
            },
            {
               "long_name" : "Uttar Pradesh",
               "short_name" : "UP",
               "types" : [ "administrative_area_level_1", "political" ]
            },
            {
               "long_name" : "India",
               "short_name" : "IN",
               "types" : [ "country", "political" ]
            },
            {
               "long_name" : "226002",
               "short_name" : "226002",
               "types" : [ "postal_code" ]
            }
         ],
         "formatted_address" : "Nehru Road, Cantonment, Lucknow, Uttar Pradesh 226002, India",
         "geometry" : {
            "bounds" : {
               "northeast" : {
                  "lat" : 26.8281412,
                  "lng" : 80.96306679999999
               },
               "southwest" : {
                  "lat" : 26.816262,
                  "lng" : 80.94359299999999
               }
            },
            "location" : {
               "lat" : 26.8203804,
               "lng" : 80.95101369999999
            },
            "location_type" : "GEOMETRIC_CENTER",
            "viewport" : {
               "northeast" : {
                  "lat" : 26.8281412,
                  "lng" : 80.96306679999999
               },
               "southwest" : {
                  "lat" : 26.816262,
                  "lng" : 80.94359299999999
               }
            }
         },
         "partial_match" : true,
         "types" : [ "route" ]
      },
      {
         "address_components" : [
            {
               "long_name" : "Nehru Road",
               "short_name" : "Nehru Rd",
               "types" : [ "route" ]
            },
            {
               "long_name" : "Bongul Bazar",
               "short_name" : "Bongul Bazar",
               "types" : [ "neighborhood", "political" ]
            },
            {
               "long_name" : "Kurnool",
               "short_name" : "KRNT",
               "types" : [ "locality", "political" ]
            },
            {
               "long_name" : "Kurnool",
               "short_name" : "Kurnool",
               "types" : [ "administrative_area_level_2", "political" ]
            },
            {
               "long_name" : "Andhra Pradesh",
               "short_name" : "AP",
               "types" : [ "administrative_area_level_1", "political" ]
            },
            {
               "long_name" : "India",
               "short_name" : "IN",
               "types" : [ "country", "political" ]
            },
            {
               "long_name" : "518001",
               "short_name" : "518001",
               "types" : [ "postal_code" ]
            }
         ],
         "formatted_address" : "Nehru Road, Bongul Bazar, Kurnool, Andhra Pradesh 518001, India",
         "geometry" : {
            "bounds" : {
               "northeast" : {
                  "lat" : 15.8316856,
                  "lng" : 78.05164119999999
               },
               "southwest" : {
                  "lat" : 15.8298114,
                  "lng" : 78.0486342
               }
            },
            "location" : {
               "lat" : 15.8306405,
               "lng" : 78.0499389
            },
            "location_type" : "GEOMETRIC_CENTER",
            "viewport" : {
               "northeast" : {
                  "lat" : 15.8320974802915,
                  "lng" : 78.05164119999999
               },
               "southwest" : {
                  "lat" : 15.8293995197085,
                  "lng" : 78.0486342
               }
            }
         },
         "partial_match" : true,
         "types" : [ "route" ]
      },
      {
         "address_components" : [
            {
               "long_name" : "Nehru Road",
               "short_name" : "Nehru Rd",
               "types" : [ "route" ]
            },
            {
               "long_name" : "Dalanwala",
               "short_name" : "Dalanwala",
               "types" : [ "sublocality_level_1", "sublocality", "political" ]
            },
            {
               "long_name" : "Dehradun",
               "short_name" : "Dehradun",
               "types" : [ "locality", "political" ]
            },
            {
               "long_name" : "Dehradun",
               "short_name" : "Dehradun",
               "types" : [ "administrative_area_level_2", "political" ]
            },
            {
               "long_name" : "Uttarakhand",
               "short_name" : "UT",
               "types" : [ "administrative_area_level_1", "political" ]
            },
            {
               "long_name" : "India",
               "short_name" : "IN",
               "types" : [ "country", "political" ]
            },
            {
               "long_name" : "248001",
               "short_name" : "248001",
               "types" : [ "postal_code" ]
            }
         ],
         "formatted_address" : "Nehru Road, Dalanwala, Dehradun, Uttarakhand 248001, India",
         "geometry" : {
            "bounds" : {
               "northeast" : {
                  "lat" : 30.3247062,
                  "lng" : 78.05595699999999
               },
               "southwest" : {
                  "lat" : 30.3108308,
                  "lng" : 78.05160189999999
               }
            },
            "location" : {
               "lat" : 30.3169453,
               "lng" : 78.05509910000001
            },
            "location_type" : "GEOMETRIC_CENTER",
            "viewport" : {
               "northeast" : {
                  "lat" : 30.3247062,
                  "lng" : 78.05595699999999
               },
               "southwest" : {
                  "lat" : 30.3108308,
                  "lng" : 78.05160189999999
               }
            }
         },
         "partial_match" : true,
         "types" : [ "route" ]
      },
      {
         "address_components" : [
            {
               "long_name" : "Nehru Road",
               "short_name" : "Nehru Rd",
               "types" : [ "route" ]
            },
            {
               "long_name" : "Tenali",
               "short_name" : "Tenali",
               "types" : [ "locality", "political" ]
            },
            {
               "long_name" : "Guntur",
               "short_name" : "Guntur",
               "types" : [ "administrative_area_level_2", "political" ]
            },
            {
               "long_name" : "Andhra Pradesh",
               "short_name" : "AP",
               "types" : [ "administrative_area_level_1", "political" ]
            },
            {
               "long_name" : "India",
               "short_name" : "IN",
               "types" : [ "country", "political" ]
            },
            {
               "long_name" : "522201",
               "short_name" : "522201",
               "types" : [ "postal_code" ]
            }
         ],
         "formatted_address" : "Nehru Road, Tenali, Andhra Pradesh 522201, India",
         "geometry" : {
            "bounds" : {
               "northeast" : {
                  "lat" : 16.2432189,
                  "lng" : 80.6497411
               },
               "southwest" : {
                  "lat" : 16.2381174,
                  "lng" : 80.6461941
               }
            },
            "location" : {
               "lat" : 16.2410191,
               "lng" : 80.64955599999999
            },
            "location_type" : "GEOMETRIC_CENTER",
            "viewport" : {
               "northeast" : {
                  "lat" : 16.2432189,
                  "lng" : 80.6497411
               },
               "southwest" : {
                  "lat" : 16.2381174,
                  "lng" : 80.6461941
               }
            }
         },
         "partial_match" : true,
         "types" : [ "route" ]
      },
      {
         "address_components" : [
            {
               "long_name" : "Nehru Road",
               "short_name" : "Nehru Road",
               "types" : [ "route" ]
            },
            {
               "long_name" : "Sankeshwar",
               "short_name" : "Sankeshwar",
               "types" : [ "locality", "political" ]
            },
            {
               "long_name" : "Belagavi",
               "short_name" : "Belagavi",
               "types" : [ "administrative_area_level_2", "political" ]
            },
            {
               "long_name" : "Karnataka",
               "short_name" : "KA",
               "types" : [ "administrative_area_level_1", "political" ]
            },
            {
               "long_name" : "India",
               "short_name" : "IN",
               "types" : [ "country", "political" ]
            },
            {
               "long_name" : "591313",
               "short_name" : "591313",
               "types" : [ "postal_code" ]
            }
         ],
         "formatted_address" : "Nehru Road, Sankeshwar, Karnataka 591313, India",
         "geometry" : {
            "bounds" : {
               "northeast" : {
                  "lat" : 16.2585925,
                  "lng" : 74.4845107
               },
               "southwest" : {
                  "lat" : 16.2505972,
                  "lng" : 74.48051869999999
               }
            },
            "location" : {
               "lat" : 16.2547455,
               "lng" : 74.48088349999999
            },
            "location_type" : "GEOMETRIC_CENTER",
            "viewport" : {
               "northeast" : {
                  "lat" : 16.2585925,
                  "lng" : 74.4845107
               },
               "southwest" : {
                  "lat" : 16.2505972,
                  "lng" : 74.48051869999999
               }
            }
         },
         "partial_match" : true,
         "types" : [ "route" ]
      },
      {
         "address_components" : [
            {
               "long_name" : "Jawaharlal Nehru Road",
               "short_name" : "Jawaharlal Nehru Rd",
               "types" : [ "route" ]
            },
            {
               "long_name" : "Rajarajeshwari Nagar",
               "short_name" : "Rajarajeshwari Nagar",
               "types" : [ "sublocality_level_1", "sublocality", "political" ]
            },
            {
               "long_name" : "Bengaluru",
               "short_name" : "Bengaluru",
               "types" : [ "locality", "political" ]
            },
            {
               "long_name" : "Bangalore Urban",
               "short_name" : "Bangalore Urban",
               "types" : [ "administrative_area_level_2", "political" ]
            },
            {
               "long_name" : "Karnataka",
               "short_name" : "KA",
               "types" : [ "administrative_area_level_1", "political" ]
            },
            {
               "long_name" : "India",
               "short_name" : "IN",
               "types" : [ "country", "political" ]
            },
            {
               "long_name" : "560098",
               "short_name" : "560098",
               "types" : [ "postal_code" ]
            }
         ],
         "formatted_address" : "Jawaharlal Nehru Road, Rajarajeshwari Nagar, Bengaluru, Karnataka 560098, India",
         "geometry" : {
            "bounds" : {
               "northeast" : {
                  "lat" : 12.9148977,
                  "lng" : 77.5213368
               },
               "southwest" : {
                  "lat" : 12.9028327,
                  "lng" : 77.52062429999999
               }
            },
            "location" : {
               "lat" : 12.9086857,
               "lng" : 77.52101309999999
            },
            "location_type" : "GEOMETRIC_CENTER",
            "viewport" : {
               "northeast" : {
                  "lat" : 12.9148977,
                  "lng" : 77.5223295302915
               },
               "southwest" : {
                  "lat" : 12.9028327,
                  "lng" : 77.51963156970849
               }
            }
         },
         "partial_match" : true,
         "types" : [ "route" ]
      },
      {
         "address_components" : [
            {
               "long_name" : "Nehru Road",
               "short_name" : "Nehru Rd",
               "types" : [ "route" ]
            },
            {
               "long_name" : "New Delhi",
               "short_name" : "New Delhi",
               "types" : [ "locality", "political" ]
            },
            {
               "long_name" : "North West Delhi",
               "short_name" : "North West Delhi",
               "types" : [ "administrative_area_level_2", "political" ]
            },
            {
               "long_name" : "Delhi",
               "short_name" : "DL",
               "types" : [ "administrative_area_level_1", "political" ]
            },
            {
               "long_name" : "India",
               "short_name" : "IN",
               "types" : [ "country", "political" ]
            },
            {
               "long_name" : "110033",
               "short_name" : "110033",
               "types" : [ "postal_code" ]
            }
         ],
         "formatted_address" : "Nehru Road, New Delhi, Delhi 110033, India",
         "geometry" : {
            "bounds" : {
               "northeast" : {
                  "lat" : 28.7629297,
                  "lng" : 77.15677599999999
               },
               "southwest" : {
                  "lat" : 28.7587293,
                  "lng" : 77.1487618
               }
            },
            "location" : {
               "lat" : 28.7613841,
               "lng" : 77.15254229999999
            },
            "location_type" : "GEOMETRIC_CENTER",
            "viewport" : {
               "northeast" : {
                  "lat" : 28.7629297,
                  "lng" : 77.15677599999999
               },
               "southwest" : {
                  "lat" : 28.7587293,
                  "lng" : 77.1487618
               }
            }
         },
         "partial_match" : true,
         "types" : [ "route" ]
      },
      {
         "address_components" : [
            {
               "long_name" : "Nehru Road",
               "short_name" : "Nehru Rd",
               "types" : [ "route" ]
            },
            {
               "long_name" : "Soosgadi",
               "short_name" : "Soosgadi",
               "types" : [ "sublocality_level_1", "sublocality", "political" ]
            },
            {
               "long_name" : "Bhatkal",
               "short_name" : "Bhatkal",
               "types" : [ "locality", "political" ]
            },
            {
               "long_name" : "Uttara Kannada",
               "short_name" : "Uttara Kannada",
               "types" : [ "administrative_area_level_2", "political" ]
            },
            {
               "long_name" : "Karnataka",
               "short_name" : "KA",
               "types" : [ "administrative_area_level_1", "political" ]
            },
            {
               "long_name" : "India",
               "short_name" : "IN",
               "types" : [ "country", "political" ]
            },
            {
               "long_name" : "581320",
               "short_name" : "581320",
               "types" : [ "postal_code" ]
            }
         ],
         "formatted_address" : "Nehru Road, Soosgadi, Bhatkal, Karnataka 581320, India",
         "geometry" : {
            "bounds" : {
               "northeast" : {
                  "lat" : 13.9894971,
                  "lng" : 74.55915759999999
               },
               "southwest" : {
                  "lat" : 13.9836081,
                  "lng" : 74.55500719999999
               }
            },
            "location" : {
               "lat" : 13.9864153,
               "lng" : 74.55902999999999
            },
            "location_type" : "GEOMETRIC_CENTER",
            "viewport" : {
               "northeast" : {
                  "lat" : 13.9894971,
                  "lng" : 74.55915759999999
               },
               "southwest" : {
                  "lat" : 13.9836081,
                  "lng" : 74.55500719999999
               }
            }
         },
         "partial_match" : true,
         "types" : [ "route" ]
      },
      {
         "address_components" : [
            {
               "long_name" : "Nehru Road",
               "short_name" : "Nehru Road",
               "types" : [ "route" ]
            },
            {
               "long_name" : "Baraut",
               "short_name" : "Baraut",
               "types" : [ "locality", "political" ]
            },
            {
               "long_name" : "Bagpat",
               "short_name" : "Bagpat",
               "types" : [ "administrative_area_level_2", "political" ]
            },
            {
               "long_name" : "Uttar Pradesh",
               "short_name" : "UP",
               "types" : [ "administrative_area_level_1", "political" ]
            },
            {
               "long_name" : "India",
               "short_name" : "IN",
               "types" : [ "country", "political" ]
            },
            {
               "long_name" : "250611",
               "short_name" : "250611",
               "types" : [ "postal_code" ]
            }
         ],
         "formatted_address" : "Nehru Road, Baraut, Uttar Pradesh 250611, India",
         "geometry" : {
            "bounds" : {
               "northeast" : {
                  "lat" : 29.0999886,
                  "lng" : 77.2708889
               },
               "southwest" : {
                  "lat" : 29.0969683,
                  "lng" : 77.26213749999999
               }
            },
            "location" : {
               "lat" : 29.09833949999999,
               "lng" : 77.2664613
            },
            "location_type" : "GEOMETRIC_CENTER",
            "viewport" : {
               "northeast" : {
                  "lat" : 29.0999886,
                  "lng" : 77.2708889
               },
               "southwest" : {
                  "lat" : 29.0969683,
                  "lng" : 77.26213749999999
               }
            }
         },
         "partial_match" : true,
         "types" : [ "route" ]
      },
      {
         "address_components" : [
            {
               "long_name" : "Nehru Road",
               "short_name" : "Nehru Rd",
               "types" : [ "route" ]
            },
            {
               "long_name" : "Doom Dooma",
               "short_name" : "Doom Dooma",
               "types" : [ "locality", "political" ]
            },
            {
               "long_name" : "Tinsukia",
               "short_name" : "Tinsukia",
               "types" : [ "administrative_area_level_2", "political" ]
            },
            {
               "long_name" : "Assam",
               "short_name" : "AS",
               "types" : [ "administrative_area_level_1", "political" ]
            },
            {
               "long_name" : "India",
               "short_name" : "IN",
               "types" : [ "country", "political" ]
            },
            {
               "long_name" : "786151",
               "short_name" : "786151",
               "types" : [ "postal_code" ]
            }
         ],
         "formatted_address" : "Nehru Road, Doom Dooma, Assam 786151, India",
         "geometry" : {
            "bounds" : {
               "northeast" : {
                  "lat" : 27.5699062,
                  "lng" : 95.5584142
               },
               "southwest" : {
                  "lat" : 27.5687142,
                  "lng" : 95.55701449999999
               }
            },
            "location" : {
               "lat" : 27.5693457,
               "lng" : 95.55783099999999
            },
            "location_type" : "GEOMETRIC_CENTER",
            "viewport" : {
               "northeast" : {
                  "lat" : 27.5706591802915,
                  "lng" : 95.55906333029151
               },
               "southwest" : {
                  "lat" : 27.5679612197085,
                  "lng" : 95.55636536970849
               }
            }
         },
         "partial_match" : true,
         "types" : [ "route" ]
      },
      {
         "address_components" : [
            {
               "long_name" : "Nehru Road",
               "short_name" : "Nehru Rd",
               "types" : [ "route" ]
            },
            {
               "long_name" : "Takhatgarh",
               "short_name" : "Takhatgarh",
               "types" : [ "locality", "political" ]
            },
            {
               "long_name" : "Jalore",
               "short_name" : "Jalore",
               "types" : [ "administrative_area_level_2", "political" ]
            },
            {
               "long_name" : "Rajasthan",
               "short_name" : "RJ",
               "types" : [ "administrative_area_level_1", "political" ]
            },
            {
               "long_name" : "India",
               "short_name" : "IN",
               "types" : [ "country", "political" ]
            },
            {
               "long_name" : "306912",
               "short_name" : "306912",
               "types" : [ "postal_code" ]
            }
         ],
         "formatted_address" : "Nehru Road, Takhatgarh, Rajasthan 306912, India",
         "geometry" : {
            "bounds" : {
               "northeast" : {
                  "lat" : 25.3206268,
                  "lng" : 73.0102658
               },
               "southwest" : {
                  "lat" : 25.3175735,
                  "lng" : 73.002145
               }
            },
            "location" : {
               "lat" : 25.3188885,
               "lng" : 73.00561669999999
            },
            "location_type" : "GEOMETRIC_CENTER",
            "viewport" : {
               "northeast" : {
                  "lat" : 25.3206268,
                  "lng" : 73.0102658
               },
               "southwest" : {
                  "lat" : 25.3175735,
                  "lng" : 73.002145
               }
            }
         },
         "partial_match" : true,
         "types" : [ "route" ]
      },
      {
         "address_components" : [
            {
               "long_name" : "Nehru Road",
               "short_name" : "Nehru Rd",
               "types" : [ "route" ]
            },
            {
               "long_name" : "Chinthalavadi",
               "short_name" : "Chinthalavadi",
               "types" : [ "locality", "political" ]
            },
            {
               "long_name" : "Karur",
               "short_name" : "Karur",
               "types" : [ "administrative_area_level_2", "political" ]
            },
            {
               "long_name" : "Tamil Nadu",
               "short_name" : "TN",
               "types" : [ "administrative_area_level_1", "political" ]
            },
            {
               "long_name" : "India",
               "short_name" : "IN",
               "types" : [ "country", "political" ]
            },
            {
               "long_name" : "639105",
               "short_name" : "639105",
               "types" : [ "postal_code" ]
            }
         ],
         "formatted_address" : "Nehru Road, Chinthalavadi, Tamil Nadu 639105, India",
         "geometry" : {
            "bounds" : {
               "northeast" : {
                  "lat" : 10.914059,
                  "lng" : 78.3248598
               },
               "southwest" : {
                  "lat" : 10.8954832,
                  "lng" : 78.3216834
               }
            },
            "location" : {
               "lat" : 10.9050323,
               "lng" : 78.3227831
            },
            "location_type" : "GEOMETRIC_CENTER",
            "viewport" : {
               "northeast" : {
                  "lat" : 10.914059,
                  "lng" : 78.3248598
               },
               "southwest" : {
                  "lat" : 10.8954832,
                  "lng" : 78.3216834
               }
            }
         },
         "partial_match" : true,
         "types" : [ "route" ]
      },
      {
         "address_components" : [
            {
               "long_name" : "Nehru Road",
               "short_name" : "Nehru Rd",
               "types" : [ "route" ]
            },
            {
               "long_name" : "Ramalingeswara Pet",
               "short_name" : "Ramalingeswara Pet",
               "types" : [ "sublocality_level_1", "sublocality", "political" ]
            },
            {
               "long_name" : "Tenali",
               "short_name" : "Tenali",
               "types" : [ "locality", "political" ]
            },
            {
               "long_name" : "Guntur",
               "short_name" : "Guntur",
               "types" : [ "administrative_area_level_2", "political" ]
            },
            {
               "long_name" : "Andhra Pradesh",
               "short_name" : "AP",
               "types" : [ "administrative_area_level_1", "political" ]
            },
            {
               "long_name" : "India",
               "short_name" : "IN",
               "types" : [ "country", "political" ]
            },
            {
               "long_name" : "522201",
               "short_name" : "522201",
               "types" : [ "postal_code" ]
            }
         ],
         "formatted_address" : "Nehru Road, Ramalingeswara Pet, Tenali, Andhra Pradesh 522201, India",
         "geometry" : {
            "bounds" : {
               "northeast" : {
                  "lat" : 16.2384453,
                  "lng" : 80.6496432
               },
               "southwest" : {
                  "lat" : 16.2381174,
                  "lng" : 80.64813269999999
               }
            },
            "location" : {
               "lat" : 16.2381535,
               "lng" : 80.6489509
            },
            "location_type" : "GEOMETRIC_CENTER",
            "viewport" : {
               "northeast" : {
                  "lat" : 16.2396303302915,
                  "lng" : 80.65023693029151
               },
               "southwest" : {
                  "lat" : 16.23693236970849,
                  "lng" : 80.64753896970849
               }
            }
         },
         "partial_match" : true,
         "types" : [ "route" ]
      },
      {
         "address_components" : [
            {
               "long_name" : "Nehru Road",
               "short_name" : "Nehru Rd",
               "types" : [ "route" ]
            },
            {
               "long_name" : "Siliguri",
               "short_name" : "Siliguri",
               "types" : [ "locality", "political" ]
            },
            {
               "long_name" : "Darjeeling",
               "short_name" : "Darjeeling",
               "types" : [ "administrative_area_level_2", "political" ]
            },
            {
               "long_name" : "West Bengal",
               "short_name" : "WB",
               "types" : [ "administrative_area_level_1", "political" ]
            },
            {
               "long_name" : "India",
               "short_name" : "IN",
               "types" : [ "country", "political" ]
            },
            {
               "long_name" : "734001",
               "short_name" : "734001",
               "types" : [ "postal_code" ]
            }
         ],
         "formatted_address" : "Nehru Road, Siliguri, West Bengal 734001, India",
         "geometry" : {
            "bounds" : {
               "northeast" : {
                  "lat" : 26.7076996,
                  "lng" : 88.4237902
               },
               "southwest" : {
                  "lat" : 26.7067912,
                  "lng" : 88.41701239999999
               }
            },
            "location" : {
               "lat" : 26.7074843,
               "lng" : 88.4204165
            },
            "location_type" : "GEOMETRIC_CENTER",
            "viewport" : {
               "northeast" : {
                  "lat" : 26.7085943802915,
                  "lng" : 88.4237902
               },
               "southwest" : {
                  "lat" : 26.7058964197085,
                  "lng" : 88.41701239999999
               }
            }
         },
         "partial_match" : true,
         "types" : [ "route" ]
      },
      {
         "address_components" : [
            {
               "long_name" : "Central Store Road",
               "short_name" : "Central Store Rd",
               "types" : [ "route" ]
            },
            {
               "long_name" : "Proddatur",
               "short_name" : "Proddatur",
               "types" : [ "locality", "political" ]
            },
            {
               "long_name" : "Kadapa",
               "short_name" : "Kadapa",
               "types" : [ "administrative_area_level_2", "political" ]
            },
            {
               "long_name" : "Andhra Pradesh",
               "short_name" : "AP",
               "types" : [ "administrative_area_level_1", "political" ]
            },
            {
               "long_name" : "India",
               "short_name" : "IN",
               "types" : [ "country", "political" ]
            },
            {
               "long_name" : "516360",
               "short_name" : "516360",
               "types" : [ "postal_code" ]
            }
         ],
         "formatted_address" : "Central Store Road, Proddatur, Andhra Pradesh 516360, India",
         "geometry" : {
            "bounds" : {
               "northeast" : {
                  "lat" : 14.7561041,
                  "lng" : 78.54911109999999
               },
               "southwest" : {
                  "lat" : 14.7542856,
                  "lng" : 78.54427559999999
               }
            },
            "location" : {
               "lat" : 14.7552092,
               "lng" : 78.54664939999999
            },
            "location_type" : "GEOMETRIC_CENTER",
            "viewport" : {
               "northeast" : {
                  "lat" : 14.7565438302915,
                  "lng" : 78.54911109999999
               },
               "southwest" : {
                  "lat" : 14.7538458697085,
                  "lng" : 78.54427559999999
               }
            }
         },
         "partial_match" : true,
         "types" : [ "route" ]
      },
      {
         "address_components" : [
            {
               "long_name" : "Nehru Road",
               "short_name" : "Nehru Rd",
               "types" : [ "route" ]
            },
            {
               "long_name" : "Goriyaribag",
               "short_name" : "Goriyaribag",
               "types" : [ "sublocality_level_1", "sublocality", "political" ]
            },
            {
               "long_name" : "Ramgarh",
               "short_name" : "Ramgarh",
               "types" : [ "locality", "political" ]
            },
            {
               "long_name" : "Ramgarh",
               "short_name" : "Ramgarh",
               "types" : [ "administrative_area_level_2", "political" ]
            },
            {
               "long_name" : "Jharkhand",
               "short_name" : "JH",
               "types" : [ "administrative_area_level_1", "political" ]
            },
            {
               "long_name" : "India",
               "short_name" : "IN",
               "types" : [ "country", "political" ]
            },
            {
               "long_name" : "829122",
               "short_name" : "829122",
               "types" : [ "postal_code" ]
            }
         ],
         "formatted_address" : "Nehru Road, Goriyaribag, Ramgarh, Jharkhand 829122, India",
         "geometry" : {
            "bounds" : {
               "northeast" : {
                  "lat" : 23.6292147,
                  "lng" : 85.51929779999999
               },
               "southwest" : {
                  "lat" : 23.6226827,
                  "lng" : 85.5175876
               }
            },
            "location" : {
               "lat" : 23.6259837,
               "lng" : 85.5191347
            },
            "location_type" : "GEOMETRIC_CENTER",
            "viewport" : {
               "northeast" : {
                  "lat" : 23.6292147,
                  "lng" : 85.5197916802915
               },
               "southwest" : {
                  "lat" : 23.6226827,
                  "lng" : 85.51709371970848
               }
            }
         },
         "partial_match" : true,
         "types" : [ "route" ]
      },
      {
         "address_components" : [
            {
               "long_name" : "Nehru Road",
               "short_name" : "Nehru Rd",
               "types" : [ "route" ]
            },
            {
               "long_name" : "Mannivakkam",
               "short_name" : "Mannivakkam",
               "types" : [ "locality", "political" ]
            },
            {
               "long_name" : "Kanchipuram",
               "short_name" : "Kanchipuram",
               "types" : [ "administrative_area_level_2", "political" ]
            },
            {
               "long_name" : "Tamil Nadu",
               "short_name" : "TN",
               "types" : [ "administrative_area_level_1", "political" ]
            },
            {
               "long_name" : "India",
               "short_name" : "IN",
               "types" : [ "country", "political" ]
            },
            {
               "long_name" : "600048",
               "short_name" : "600048",
               "types" : [ "postal_code" ]
            }
         ],
         "formatted_address" : "Nehru Road, Mannivakkam, Tamil Nadu 600048, India",
         "geometry" : {
            "bounds" : {
               "northeast" : {
                  "lat" : 12.880149,
                  "lng" : 80.0640464
               },
               "southwest" : {
                  "lat" : 12.8768858,
                  "lng" : 80.06317199999999
               }
            },
            "location" : {
               "lat" : 12.8786533,
               "lng" : 80.06346169999999
            },
            "location_type" : "GEOMETRIC_CENTER",
            "viewport" : {
               "northeast" : {
                  "lat" : 12.880149,
                  "lng" : 80.0649581802915
               },
               "southwest" : {
                  "lat" : 12.8768858,
                  "lng" : 80.06226021970849
               }
            }
         },
         "partial_match" : true,
         "types" : [ "route" ]
      },
      {
         "address_components" : [
            {
               "long_name" : "Nehru Road",
               "short_name" : "Nehru Rd",
               "types" : [ "route" ]
            },
            {
               "long_name" : "Guddadahalli",
               "short_name" : "Guddadahalli",
               "types" : [ "sublocality_level_1", "sublocality", "political" ]
            },
            {
               "long_name" : "Bengaluru",
               "short_name" : "Bengaluru",
               "types" : [ "locality", "political" ]
            },
            {
               "long_name" : "Bangalore Urban",
               "short_name" : "Bangalore Urban",
               "types" : [ "administrative_area_level_2", "political" ]
            },
            {
               "long_name" : "Karnataka",
               "short_name" : "KA",
               "types" : [ "administrative_area_level_1", "political" ]
            },
            {
               "long_name" : "India",
               "short_name" : "IN",
               "types" : [ "country", "political" ]
            },
            {
               "long_name" : "560026",
               "short_name" : "560026",
               "types" : [ "postal_code" ]
            }
         ],
         "formatted_address" : "Nehru Road, Guddadahalli, Bengaluru, Karnataka 560026, India",
         "geometry" : {
            "bounds" : {
               "northeast" : {
                  "lat" : 12.9604516,
                  "lng" : 77.5462713
               },
               "southwest" : {
                  "lat" : 12.9572358,
                  "lng" : 77.5453448
               }
            },
            "location" : {
               "lat" : 12.959001,
               "lng" : 77.5461016
            },
            "location_type" : "GEOMETRIC_CENTER",
            "viewport" : {
               "northeast" : {
                  "lat" : 12.9604516,
                  "lng" : 77.5471570302915
               },
               "southwest" : {
                  "lat" : 12.9572358,
                  "lng" : 77.54445906970849
               }
            }
         },
         "partial_match" : true,
         "types" : [ "route" ]
      }
   ],
   "status" : "OK"
}
