{
   "results" : [
      {
         "address_components" : [
            {
               "long_name" : "Munich",
               "short_name" : "M",
               "types" : [ "locality", "political" ]
            },
            {
               "long_name" : "Upper Bavaria",
               "short_name" : "Upper Bavaria",
               "types" : [ "administrative_area_level_2", "political" ]
            },
            {
               "long_name" : "Bavaria",
               "short_name" : "BY",
               "types" : [ "administrative_area_level_1", "political" ]
            },
            {
               "long_name" : "Germany",
               "short_name" : "DE",
               "types" : [ "country", "political" ]
            }
         ],
         "formatted_address" : "Munich, Germany",
         "geometry" : {
            "bounds" : {
               "northeast" : {
                  "lat" : 48.2482197,
                  "lng" : 11.7228755
               },
               "southwest" : {
                  "lat" : 48.0616018,
                  "lng" : 11.360796
               }
            },
            "location" : {
               "lat" : 48.1351253,
               "lng" : 11.5819806
            },
            "location_type" : "APPROXIMATE",
            "viewport" : {
               "northeast" : {
                  "lat" : 48.2482197,
                  "lng" : 11.7228755
               },
               "southwest" : {
                  "lat" : 48.0616018,
                  "lng" : 11.360796
               }
            }
         },
         "partial_match" : true,
         "types" : [ "locality", "political" ]
      },
      {
         "address_components" : [
            {
               "long_name" : "Gera",
               "short_name" : "G",
               "types" : [ "locality", "political" ]
            },
            {
               "long_name" : "Thuringia",
               "short_name" : "Technische Hochschule",
               "types" : [ "administrative_area_level_1", "political" ]
            },
            {
               "long_name" : "Germany",
               "short_name" : "DE",
               "types" : [ "country", "political" ]
            }
         ],
         "formatted_address" : "Gera, Germany",
         "geometry" : {
            "bounds" : {
               "northeast" : {
                  "lat" : 50.9766184,
                  "lng" : 12.1695209
               },
               "southwest" : {
                  "lat" : 50.79861760000001,
                  "lng" : 11.9980384
               }
            },
            "location" : {
               "lat" : 50.8850706,
               "lng" : 12.0807203
            },
            "location_type" : "APPROXIMATE",
            "viewport" : {
               "northeast" : {
                  "lat" : 50.9766184,
                  "lng" : 12.1695209
               },
               "southwest" : {
                  "lat" : 50.79861760000001,
                  "lng" : 11.9980384
               }
            }
         },
         "partial_match" : true,
         "types" : [ "locality", "political" ]
      },
      {
         "address_components" : [
            {
               "long_name" : "M",
               "short_name" : "M",
               "types" : [ "route" ]
            },
            {
               "long_name" : "St. Croix County",
               "short_name" : "St Croix County",
               "types" : [ "administrative_area_level_2", "political" ]
            },
            {
               "long_name" : "Wisconsin",
               "short_name" : "WI",
               "types" : [ "administrative_area_level_1", "political" ]
            },
            {
               "long_name" : "United States",
               "short_name" : "US",
               "types" : [ "country", "political" ]
            }
         ],
         "formatted_address" : "M, Wisconsin, USA",
         "geometry" : {
            "bounds" : {
               "northeast" : {
                  "lat" : 44.8698035,
                  "lng" : -92.4154344
               },
               "southwest" : {
                  "lat" : 44.8669429,
                  "lng" : -92.563064
               }
            },
            "location" : {
               "lat" : 44.869788,
               "lng" : -92.4888536
            },
            "location_type" : "GEOMETRIC_CENTER",
            "viewport" : {
               "northeast" : {
                  "lat" : 44.8698035,
                  "lng" : -92.4154344
               },
               "southwest" : {
                  "lat" : 44.8669429,
                  "lng" : -92.563064
               }
            }
         },
         "partial_match" : true,
         "types" : [ "route" ]
      },
      {
         "address_components" : [
            {
               "long_name" : "M",
               "short_name" : "M",
               "types" : [ "route" ]
            },
            {
               "long_name" : "Osceola",
               "short_name" : "Osceola",
               "types" : [ "locality", "political" ]
            },
            {
               "long_name" : "Polk County",
               "short_name" : "Polk County",
               "types" : [ "administrative_area_level_2", "political" ]
            },
            {
               "long_name" : "Wisconsin",
               "short_name" : "WI",
               "types" : [ "administrative_area_level_1", "political" ]
            },
            {
               "long_name" : "United States",
               "short_name" : "US",
               "types" : [ "country", "political" ]
            },
            {
               "long_name" : "54020",
               "short_name" : "54020",
               "types" : [ "postal_code" ]
            }
         ],
         "formatted_address" : "M, Osceola, WI 54020, USA",
         "geometry" : {
            "bounds" : {
               "northeast" : {
                  "lat" : 45.3183971,
                  "lng" : -92.67607989999999
               },
               "southwest" : {
                  "lat" : 45.3179508,
                  "lng" : -92.70508599999999
               }
            },
            "location" : {
               "lat" : 45.3179706,
               "lng" : -92.69129509999999
            },
            "location_type" : "GEOMETRIC_CENTER",
            "viewport" : {
               "northeast" : {
                  "lat" : 45.3195229302915,
                  "lng" : -92.67607989999999
               },
               "southwest" : {
                  "lat" : 45.3168249697085,
                  "lng" : -92.70508599999999
               }
            }
         },
         "partial_match" : true,
         "types" : [ "route" ]
      },
      {
         "address_components" : [
            {
               "long_name" : "G",
               "short_name" : "G",
               "types" : [ "premise" ]
            },
            {
               "long_name" : "南雅南路二段",
               "short_name" : "南雅南路二段",
               "types" : [ "route" ]
            },
            {
               "long_name" : "板橋區",
               "short_name" : "板橋區",
               "types" : [ "administrative_area_level_3", "political" ]
            },
            {
               "long_name" : "新北市",
               "short_name" : "新北市",
               "types" : [ "administrative_area_level_1", "political" ]
            },
            {
               "long_name" : "Taiwan",
               "short_name" : "TW",
               "types" : [ "country", "political" ]
            },
            {
               "long_name" : "220",
               "short_name" : "220",
               "types" : [ "postal_code" ]
            }
         ],
         "formatted_address" : "G, 南雅南路二段板橋區新北市 Taiwan 220",
         "geometry" : {
            "bounds" : {
               "northeast" : {
                  "lat" : 24.9984809,
                  "lng" : 121.4522989
               },
               "southwest" : {
                  "lat" : 24.9982255,
                  "lng" : 121.452004
               }
            },
            "location" : {
               "lat" : 24.9983532,
               "lng" : 121.4521514
            },
            "location_type" : "ROOFTOP",
            "viewport" : {
               "northeast" : {
                  "lat" : 24.9997021802915,
                  "lng" : 121.4535004302915
               },
               "southwest" : {
                  "lat" : 24.9970042197085,
                  "lng" : 121.4508024697085
               }
            }
         },
         "partial_match" : true,
         "types" : [ "premise" ]
      },
      {
         "address_components" : [
            {
               "long_name" : "M",
               "short_name" : "001",
               "types" : [ "route" ]
            },
            {
               "long_name" : "Abyan",
               "short_name" : "Abyan",
               "types" : [ "administrative_area_level_1", "political" ]
            },
            {
               "long_name" : "Yemen",
               "short_name" : "YE",
               "types" : [ "country", "political" ]
            }
         ],
         "formatted_address" : "M, Yemen",
         "geometry" : {
            "bounds" : {
               "northeast" : {
                  "lat" : 13.0110023,
                  "lng" : 45.1186287
               },
               "southwest" : {
                  "lat" : 12.9965199,
                  "lng" : 45.0952803
               }
            },
            "location" : {
               "lat" : 13.0039004,
               "lng" : 45.1068496
            },
            "location_type" : "GEOMETRIC_CENTER",
            "viewport" : {
               "northeast" : {
                  "lat" : 13.0110023,
                  "lng" : 45.1186287
               },
               "southwest" : {
                  "lat" : 12.9965199,
                  "lng" : 45.0952803
               }
            }
         },
         "partial_match" : true,
         "types" : [ "route" ]
      },
      {
         "address_components" : [
            {
               "long_name" : "Avenida de los Presidentes",
               "short_name" : "Avenida de los Presidentes",
               "types" : [ "route" ]
            },
            {
               "long_name" : "La Habana",
               "short_name" : "La Habana",
               "types" : [ "locality", "political" ]
            },
            {
               "long_name" : "Plaza de la Revolución",
               "short_name" : "Plaza de la Revolución",
               "types" : [ "administrative_area_level_2", "political" ]
            },
            {
               "long_name" : "La Habana",
               "short_name" : "La Habana",
               "types" : [ "administrative_area_level_1", "political" ]
            },
            {
               "long_name" : "Cuba",
               "short_name" : "CU",
               "types" : [ "country", "political" ]
            }
         ],
         "formatted_address" : "Avenida de los Presidentes, La Habana, Cuba",
         "geometry" : {
            "bounds" : {
               "northeast" : {
                  "lat" : 23.1446321,
                  "lng" : -82.38607589999999
               },
               "southwest" : {
                  "lat" : 23.1337697,
                  "lng" : -82.39599389999999
               }
            },
            "location" : {
               "lat" : 23.139272,
               "lng" : -82.39086429999999
            },
            "location_type" : "GEOMETRIC_CENTER",
            "viewport" : {
               "northeast" : {
                  "lat" : 23.1446321,
                  "lng" : -82.38607589999999
               },
               "southwest" : {
                  "lat" : 23.1337697,
                  "lng" : -82.39599389999999
               }
            }
         },
         "partial_match" : true,
         "types" : [ "route" ]
      },
      {
         "address_components" : [
            {
               "long_name" : "@M",
               "short_name" : "@M",
               "types" : [ "route" ]
            },
            {
               "long_name" : "Santa Marta (Distrito Turístico Cultural E Histórico)",
               "short_name" : "Santa Marta (Distrito Turístico Cultural E Histórico)",
               "types" : [ "locality", "political" ]
            },
            {
               "long_name" : "Magdalena",
               "short_name" : "Magdalena",
               "types" : [ "administrative_area_level_1", "political" ]
            },
            {
               "long_name" : "Colombia",
               "short_name" : "CO",
               "types" : [ "country", "political" ]
            }
         ],
         "formatted_address" : "@M, Santa Marta (Distrito Turístico Cultural E Histórico), Magdalena, Colombia",
         "geometry" : {
            "bounds" : {
               "northeast" : {
                  "lat" : 11.2268,
                  "lng" : -74.09707999999999
               },
               "southwest" : {
                  "lat" : 11.19535,
                  "lng" : -74.12362
               }
            },
            "location" : {
               "lat" : 11.21219,
               "lng" : -74.11068
            },
            "location_type" : "GEOMETRIC_CENTER",
            "viewport" : {
               "northeast" : {
                  "lat" : 11.2268,
                  "lng" : -74.09707999999999
               },
               "southwest" : {
                  "lat" : 11.19535,
                  "lng" : -74.12362
               }
            }
         },
         "partial_match" : true,
         "types" : [ "route" ]
      },
      {
         "address_components" : [
            {
               "long_name" : "M",
               "short_name" : "M",
               "types" : [ "route" ]
            },
            {
               "long_name" : "Caborca",
               "short_name" : "Caborca",
               "types" : [ "locality", "political" ]
            },
            {
               "long_name" : "Sonora",
               "short_name" : "SON",
               "types" : [ "administrative_area_level_1", "political" ]
            },
            {
               "long_name" : "Mexico",
               "short_name" : "MX",
               "types" : [ "country", "political" ]
            }
         ],
         "formatted_address" : "M, Caborca, SON, Mexico",
         "geometry" : {
            "bounds" : {
               "northeast" : {
                  "lat" : 30.7253884,
                  "lng" : -112.1583112
               },
               "southwest" : {
                  "lat" : 30.6966906,
                  "lng" : -112.1612358
               }
            },
            "location" : {
               "lat" : 30.7111583,
               "lng" : -112.1600445
            },
            "location_type" : "GEOMETRIC_CENTER",
            "viewport" : {
               "northeast" : {
                  "lat" : 30.7253884,
                  "lng" : -112.1583112
               },
               "southwest" : {
                  "lat" : 30.6966906,
                  "lng" : -112.1612358
               }
            }
         },
         "partial_match" : true,
         "types" : [ "route" ]
      },
      {
         "address_components" : [
            {
               "long_name" : "M",
               "short_name" : "M",
               "types" : [ "route" ]
            },
            {
               "long_name" : "Nueva Aurora 1",
               "short_name" : "Nueva Aurora 1",
               "types" : [ "neighborhood", "political" ]
            },
            {
               "long_name" : "La Arcadia",
               "short_name" : "La Arcadia",
               "types" : [ "sublocality_level_1", "sublocality", "political" ]
            },
            {
               "long_name" : "Quito",
               "short_name" : "Quito",
               "types" : [ "locality", "political" ]
            },
            {
               "long_name" : "Distrito Metropolitano de Quito",
               "short_name" : "Distrito Metropolitano de Quito",
               "types" : [ "administrative_area_level_2", "political" ]
            },
            {
               "long_name" : "Pichincha",
               "short_name" : "Pichincha",
               "types" : [ "administrative_area_level_1", "political" ]
            },
            {
               "long_name" : "Ecuador",
               "short_name" : "EC",
               "types" : [ "country", "political" ]
            }
         ],
         "formatted_address" : "M, Quito, Ecuador",
         "geometry" : {
            "bounds" : {
               "northeast" : {
                  "lat" : -0.3182215,
                  "lng" : -78.5494482
               },
               "southwest" : {
                  "lat" : -0.3186452,
                  "lng" : -78.55374479999999
               }
            },
            "location" : {
               "lat" : -0.3184504,
               "lng" : -78.55150999999999
            },
            "location_type" : "GEOMETRIC_CENTER",
            "viewport" : {
               "northeast" : {
                  "lat" : -0.317084369708498,
                  "lng" : -78.5494482
               },
               "southwest" : {
                  "lat" : -0.319782330291502,
                  "lng" : -78.55374479999999
               }
            }
         },
         "partial_match" : true,
         "types" : [ "route" ]
      },
      {
         "address_components" : [
            {
               "long_name" : "M",
               "short_name" : "M",
               "types" : [ "route" ]
            },
            {
               "long_name" : "Reparto Terrazas",
               "short_name" : "Reparto Terrazas",
               "types" : [ "sublocality_level_1", "sublocality", "political" ]
            },
            {
               "long_name" : "Santiago de Cuba",
               "short_name" : "Santiago de Cuba",
               "types" : [ "locality", "political" ]
            },
            {
               "long_name" : "Santiago de Cuba",
               "short_name" : "Santiago de Cuba",
               "types" : [ "administrative_area_level_2", "political" ]
            },
            {
               "long_name" : "Santiago de Cuba",
               "short_name" : "Santiago de Cuba",
               "types" : [ "administrative_area_level_1", "political" ]
            },
            {
               "long_name" : "Cuba",
               "short_name" : "CU",
               "types" : [ "country", "political" ]
            }
         ],
         "formatted_address" : "M, Santiago de Cuba, Cuba",
         "geometry" : {
            "bounds" : {
               "northeast" : {
                  "lat" : 20.0293855,
                  "lng" : -75.8055997
               },
               "southwest" : {
                  "lat" : 20.0275812,
                  "lng" : -75.8099127
               }
            },
            "location" : {
               "lat" : 20.028559,
               "lng" : -75.80761939999999
            },
            "location_type" : "GEOMETRIC_CENTER",
            "viewport" : {
               "northeast" : {
                  "lat" : 20.02983233029151,
                  "lng" : -75.8055997
               },
               "southwest" : {
                  "lat" : 20.0271343697085,
                  "lng" : -75.8099127
               }
            }
         },
         "partial_match" : true,
         "types" : [ "route" ]
      }
   ],
   "status" : "OK"
}
