{
   "results" : [
      {
         "address_components" : [
            {
               "long_name" : "New Park Road",
               "short_name" : "New Park Rd",
               "types" : [ "route" ]
            },
            {
               "long_name" : "United States",
               "short_name" : "US",
               "types" : [ "country", "political" ]
            }
         ],
         "formatted_address" : "New Park Road, United States",
         "geometry" : {
            "bounds" : {
               "northeast" : {
                  "lat" : 39.8080424,
                  "lng" : -76.45832899999999
               },
               "southwest" : {
                  "lat" : 39.704913,
                  "lng" : -76.5346399
               }
            },
            "location" : {
               "lat" : 39.7484251,
               "lng" : -76.48534339999999
            },
            "location_type" : "GEOMETRIC_CENTER",
            "viewport" : {
               "northeast" : {
                  "lat" : 39.8080424,
                  "lng" : -76.45832899999999
               },
               "southwest" : {
                  "lat" : 39.704913,
                  "lng" : -76.5346399
               }
            }
         },
         "partial_match" : true,
         "types" : [ "route" ]
      },
      {
         "address_components" : [
            {
               "long_name" : "New Park",
               "short_name" : "New Park",
               "types" : [ "point_of_interest", "establishment" ]
            },
            {
               "long_name" : "Wadavali Village",
               "short_name" : "Wadavali Village",
               "types" : [ "sublocality_level_3", "sublocality", "political" ]
            },
            {
               "long_name" : "Azad Nagar",
               "short_name" : "Azad Nagar",
               "types" : [ "sublocality_level_2", "sublocality", "political" ]
            },
            {
               "long_name" : "Chembur",
               "short_name" : "Chembur",
               "types" : [ "sublocality_level_1", "sublocality", "political" ]
            },
            {
               "long_name" : "Mumbai",
               "short_name" : "Mumbai",
               "types" : [ "locality", "political" ]
            },
            {
               "long_name" : "Mumbai Suburban",
               "short_name" : "Mumbai Suburban",
               "types" : [ "administrative_area_level_2", "political" ]
            },
            {
               "long_name" : "Maharashtra",
               "short_name" : "MH",
               "types" : [ "administrative_area_level_1", "political" ]
            },
            {
               "long_name" : "India",
               "short_name" : "IN",
               "types" : [ "country", "political" ]
            },
            {
               "long_name" : "400071",
               "short_name" : "400071",
               "types" : [ "postal_code" ]
            }
         ],
         "formatted_address" : "New Park, Wadavali Village, Azad Nagar, Chembur, Mumbai, Maharashtra 400071, India",
         "geometry" : {
            "location" : {
               "lat" : 19.0361865,
               "lng" : 72.89808239999999
            },
            "location_type" : "APPROXIMATE",
            "viewport" : {
               "northeast" : {
                  "lat" : 19.0375354802915,
                  "lng" : 72.8994313802915
               },
               "southwest" : {
                  "lat" : 19.0348375197085,
                  "lng" : 72.8967334197085
               }
            }
         },
         "types" : [ "park", "point_of_interest", "establishment" ]
      },
      {
         "address_components" : [
            {
               "long_name" : "New Park Avenue",
               "short_name" : "New Park Ave",
               "types" : [ "route" ]
            },
            {
               "long_name" : "Hartford County",
               "short_name" : "Hartford County",
               "types" : [ "administrative_area_level_2", "political" ]
            },
            {
               "long_name" : "Connecticut",
               "short_name" : "CT",
               "types" : [ "administrative_area_level_1", "political" ]
            },
            {
               "long_name" : "United States",
               "short_name" : "US",
               "types" : [ "country", "political" ]
            }
         ],
         "formatted_address" : "New Park Avenue, Connecticut, USA",
         "geometry" : {
            "bounds" : {
               "northeast" : {
                  "lat" : 41.7571389,
                  "lng" : -72.7061284
               },
               "southwest" : {
                  "lat" : 41.73024119999999,
                  "lng" : -72.726758
               }
            },
            "location" : {
               "lat" : 41.7434993,
               "lng" : -72.7159937
            },
            "location_type" : "GEOMETRIC_CENTER",
            "viewport" : {
               "northeast" : {
                  "lat" : 41.7571389,
                  "lng" : -72.7061284
               },
               "southwest" : {
                  "lat" : 41.73024119999999,
                  "lng" : -72.726758
               }
            }
         },
         "partial_match" : true,
         "types" : [ "route" ]
      },
      {
         "address_components" : [
            {
               "long_name" : "New Park Drive",
               "short_name" : "New Park Dr",
               "types" : [ "route" ]
            },
            {
               "long_name" : "Montgomery",
               "short_name" : "Montgomery",
               "types" : [ "locality", "political" ]
            },
            {
               "long_name" : "Montgomery County",
               "short_name" : "Montgomery County",
               "types" : [ "administrative_area_level_2", "political" ]
            },
            {
               "long_name" : "Alabama",
               "short_name" : "AL",
               "types" : [ "administrative_area_level_1", "political" ]
            },
            {
               "long_name" : "United States",
               "short_name" : "US",
               "types" : [ "country", "political" ]
            }
         ],
         "formatted_address" : "New Park Drive, Montgomery, AL, USA",
         "geometry" : {
            "bounds" : {
               "northeast" : {
                  "lat" : 32.3199044,
                  "lng" : -86.1370357
               },
               "southwest" : {
                  "lat" : 32.3051655,
                  "lng" : -86.18120090000001
               }
            },
            "location" : {
               "lat" : 32.3052142,
               "lng" : -86.1586155
            },
            "location_type" : "GEOMETRIC_CENTER",
            "viewport" : {
               "northeast" : {
                  "lat" : 32.3199044,
                  "lng" : -86.1370357
               },
               "southwest" : {
                  "lat" : 32.3051655,
                  "lng" : -86.18120090000001
               }
            }
         },
         "partial_match" : true,
         "types" : [ "route" ]
      },
      {
         "address_components" : [
            {
               "long_name" : "New Park Avenue",
               "short_name" : "New Park Ave",
               "types" : [ "route" ]
            },
            {
               "long_name" : "North Franklin",
               "short_name" : "North Franklin",
               "types" : [ "neighborhood", "political" ]
            },
            {
               "long_name" : "Franklin",
               "short_name" : "Franklin",
               "types" : [ "locality", "political" ]
            },
            {
               "long_name" : "New London County",
               "short_name" : "New London County",
               "types" : [ "administrative_area_level_2", "political" ]
            },
            {
               "long_name" : "Connecticut",
               "short_name" : "CT",
               "types" : [ "administrative_area_level_1", "political" ]
            },
            {
               "long_name" : "United States",
               "short_name" : "US",
               "types" : [ "country", "political" ]
            },
            {
               "long_name" : "06254",
               "short_name" : "06254",
               "types" : [ "postal_code" ]
            }
         ],
         "formatted_address" : "New Park Avenue, North Franklin, CT 06254, USA",
         "geometry" : {
            "bounds" : {
               "northeast" : {
                  "lat" : 41.5747095,
                  "lng" : -72.12073520000001
               },
               "southwest" : {
                  "lat" : 41.5670759,
                  "lng" : -72.1299246
               }
            },
            "location" : {
               "lat" : 41.5699303,
               "lng" : -72.1231549
            },
            "location_type" : "GEOMETRIC_CENTER",
            "viewport" : {
               "northeast" : {
                  "lat" : 41.5747095,
                  "lng" : -72.12073520000001
               },
               "southwest" : {
                  "lat" : 41.5670759,
                  "lng" : -72.1299246
               }
            }
         },
         "partial_match" : true,
         "types" : [ "route" ]
      },
      {
         "address_components" : [
            {
               "long_name" : "Chilkat State Park Road",
               "short_name" : "Chilkat State Park Rd",
               "types" : [ "route" ]
            },
            {
               "long_name" : "Haines",
               "short_name" : "Haines",
               "types" : [ "locality", "political" ]
            },
            {
               "long_name" : "Haines",
               "short_name" : "Haines",
               "types" : [ "administrative_area_level_2", "political" ]
            },
            {
               "long_name" : "Alaska",
               "short_name" : "AK",
               "types" : [ "administrative_area_level_1", "political" ]
            },
            {
               "long_name" : "United States",
               "short_name" : "US",
               "types" : [ "country", "political" ]
            },
            {
               "long_name" : "99827",
               "short_name" : "99827",
               "types" : [ "postal_code" ]
            }
         ],
         "formatted_address" : "Chilkat State Park Road, Haines, AK 99827, USA",
         "geometry" : {
            "bounds" : {
               "northeast" : {
                  "lat" : 59.1548193,
                  "lng" : -135.3585665
               },
               "southwest" : {
                  "lat" : 59.13835169999999,
                  "lng" : -135.3776609
               }
            },
            "location" : {
               "lat" : 59.147437,
               "lng" : -135.3660912
            },
            "location_type" : "GEOMETRIC_CENTER",
            "viewport" : {
               "northeast" : {
                  "lat" : 59.1548193,
                  "lng" : -135.3585665
               },
               "southwest" : {
                  "lat" : 59.13835169999999,
                  "lng" : -135.3776609
               }
            }
         },
         "partial_match" : true,
         "types" : [ "route" ]
      },
      {
         "address_components" : [
            {
               "long_name" : "New Park House",
               "short_name" : "New Park House",
               "types" : [ "premise" ]
            },
            {
               "long_name" : "51",
               "short_name" : "51",
               "types" : [ "street_number" ]
            },
            {
               "long_name" : "Preston New Road",
               "short_name" : "Preston New Rd",
               "types" : [ "route" ]
            },
            {
               "long_name" : "Blackburn",
               "short_name" : "Blackburn",
               "types" : [ "locality", "political" ]
            },
            {
               "long_name" : "Blackburn",
               "short_name" : "Blackburn",
               "types" : [ "postal_town" ]
            },
            {
               "long_name" : "Blackburn with Darwen",
               "short_name" : "Blackburn with Darwen",
               "types" : [ "administrative_area_level_2", "political" ]
            },
            {
               "long_name" : "United Kingdom",
               "short_name" : "GB",
               "types" : [ "country", "political" ]
            },
            {
               "long_name" : "BB2 6AE",
               "short_name" : "BB2 6AE",
               "types" : [ "postal_code" ]
            }
         ],
         "formatted_address" : "New Park House, 51 Preston New Road, Blackburn, Blackburn with Darwen BB2 6AE, UK",
         "geometry" : {
            "location" : {
               "lat" : 53.7514288,
               "lng" : -2.4885803
            },
            "location_type" : "ROOFTOP",
            "viewport" : {
               "northeast" : {
                  "lat" : 53.7527777802915,
                  "lng" : -2.487231319708498
               },
               "southwest" : {
                  "lat" : 53.7500798197085,
                  "lng" : -2.489929280291502
               }
            }
         },
         "partial_match" : true,
         "types" : [ "premise" ]
      },
      {
         "address_components" : [
            {
               "long_name" : "New Park Terrace",
               "short_name" : "New Park Terrace",
               "types" : [ "route" ]
            },
            {
               "long_name" : "4S Ranch",
               "short_name" : "4S Ranch",
               "types" : [ "neighborhood", "political" ]
            },
            {
               "long_name" : "San Diego",
               "short_name" : "San Diego",
               "types" : [ "locality", "political" ]
            },
            {
               "long_name" : "San Diego County",
               "short_name" : "San Diego County",
               "types" : [ "administrative_area_level_2", "political" ]
            },
            {
               "long_name" : "California",
               "short_name" : "CA",
               "types" : [ "administrative_area_level_1", "political" ]
            },
            {
               "long_name" : "United States",
               "short_name" : "US",
               "types" : [ "country", "political" ]
            },
            {
               "long_name" : "92127",
               "short_name" : "92127",
               "types" : [ "postal_code" ]
            }
         ],
         "formatted_address" : "New Park Terrace, San Diego, CA 92127, USA",
         "geometry" : {
            "bounds" : {
               "northeast" : {
                  "lat" : 33.020555,
                  "lng" : -117.1412529
               },
               "southwest" : {
                  "lat" : 33.0156315,
                  "lng" : -117.1474924
               }
            },
            "location" : {
               "lat" : 33.0184102,
               "lng" : -117.1459723
            },
            "location_type" : "GEOMETRIC_CENTER",
            "viewport" : {
               "northeast" : {
                  "lat" : 33.020555,
                  "lng" : -117.1412529
               },
               "southwest" : {
                  "lat" : 33.0156315,
                  "lng" : -117.1474924
               }
            }
         },
         "partial_match" : true,
         "types" : [ "route" ]
      },
      {
         "address_components" : [
            {
               "long_name" : "New Park Street",
               "short_name" : "New Park St",
               "types" : [ "route" ]
            },
            {
               "long_name" : "Devizes",
               "short_name" : "Devizes",
               "types" : [ "locality", "political" ]
            },
            {
               "long_name" : "Devizes",
               "short_name" : "Devizes",
               "types" : [ "postal_town" ]
            },
            {
               "long_name" : "Wiltshire",
               "short_name" : "Wiltshire",
               "types" : [ "administrative_area_level_2", "political" ]
            },
            {
               "long_name" : "United Kingdom",
               "short_name" : "GB",
               "types" : [ "country", "political" ]
            },
            {
               "long_name" : "SN10",
               "short_name" : "SN10",
               "types" : [ "postal_code_prefix", "postal_code" ]
            }
         ],
         "formatted_address" : "New Park Street, Devizes, Devizes, Wiltshire SN10, UK",
         "geometry" : {
            "bounds" : {
               "northeast" : {
                  "lat" : 51.3545182,
                  "lng" : -1.992225
               },
               "southwest" : {
                  "lat" : 51.3529129,
                  "lng" : -1.9982226
               }
            },
            "location" : {
               "lat" : 51.35393699999999,
               "lng" : -1.9949245
            },
            "location_type" : "GEOMETRIC_CENTER",
            "viewport" : {
               "northeast" : {
                  "lat" : 51.3550645302915,
                  "lng" : -1.992225
               },
               "southwest" : {
                  "lat" : 51.3523665697085,
                  "lng" : -1.9982226
               }
            }
         },
         "partial_match" : true,
         "types" : [ "route" ]
      },
      {
         "address_components" : [
            {
               "long_name" : "New Park Road",
               "short_name" : "New Park Rd",
               "types" : [ "route" ]
            },
            {
               "long_name" : "Chichester",
               "short_name" : "Chichester",
               "types" : [ "locality", "political" ]
            },
            {
               "long_name" : "Chichester",
               "short_name" : "Chichester",
               "types" : [ "postal_town" ]
            },
            {
               "long_name" : "West Sussex",
               "short_name" : "West Susx",
               "types" : [ "administrative_area_level_2", "political" ]
            },
            {
               "long_name" : "United Kingdom",
               "short_name" : "GB",
               "types" : [ "country", "political" ]
            },
            {
               "long_name" : "PO19",
               "short_name" : "PO19",
               "types" : [ "postal_code_prefix", "postal_code" ]
            }
         ],
         "formatted_address" : "New Park Road, Chichester, Chichester, West Sussex PO19, UK",
         "geometry" : {
            "bounds" : {
               "northeast" : {
                  "lat" : 50.84059389999999,
                  "lng" : -0.7719191999999999
               },
               "southwest" : {
                  "lat" : 50.8369848,
                  "lng" : -0.7749438
               }
            },
            "location" : {
               "lat" : 50.8383921,
               "lng" : -0.7732213999999999
            },
            "location_type" : "GEOMETRIC_CENTER",
            "viewport" : {
               "northeast" : {
                  "lat" : 50.84059389999999,
                  "lng" : -0.7719191999999999
               },
               "southwest" : {
                  "lat" : 50.8369848,
                  "lng" : -0.7749438
               }
            }
         },
         "partial_match" : true,
         "types" : [ "route" ]
      },
      {
         "address_components" : [
            {
               "long_name" : "New Park Road",
               "short_name" : "New Park Rd",
               "types" : [ "route" ]
            },
            {
               "long_name" : "Wagener",
               "short_name" : "Wagener",
               "types" : [ "locality", "political" ]
            },
            {
               "long_name" : "Aiken County",
               "short_name" : "Aiken County",
               "types" : [ "administrative_area_level_2", "political" ]
            },
            {
               "long_name" : "South Carolina",
               "short_name" : "SC",
               "types" : [ "administrative_area_level_1", "political" ]
            },
            {
               "long_name" : "United States",
               "short_name" : "US",
               "types" : [ "country", "political" ]
            },
            {
               "long_name" : "29164",
               "short_name" : "29164",
               "types" : [ "postal_code" ]
            }
         ],
         "formatted_address" : "New Park Road, Wagener, SC 29164, USA",
         "geometry" : {
            "bounds" : {
               "northeast" : {
                  "lat" : 33.6597808,
                  "lng" : -81.3347742
               },
               "southwest" : {
                  "lat" : 33.6430823,
                  "lng" : -81.34119090000002
               }
            },
            "location" : {
               "lat" : 33.6505092,
               "lng" : -81.33614899999999
            },
            "location_type" : "GEOMETRIC_CENTER",
            "viewport" : {
               "northeast" : {
                  "lat" : 33.6597808,
                  "lng" : -81.3347742
               },
               "southwest" : {
                  "lat" : 33.6430823,
                  "lng" : -81.34119090000002
               }
            }
         },
         "partial_match" : true,
         "types" : [ "route" ]
      },
      {
         "address_components" : [
            {
               "long_name" : "New Park Road",
               "short_name" : "New Park Rd",
               "types" : [ "route" ]
            },
            {
               "long_name" : "Fort Gaines",
               "short_name" : "Fort Gaines",
               "types" : [ "locality", "political" ]
            },
            {
               "long_name" : "Clay County",
               "short_name" : "Clay County",
               "types" : [ "administrative_area_level_2", "political" ]
            },
            {
               "long_name" : "Georgia",
               "short_name" : "GA",
               "types" : [ "administrative_area_level_1", "political" ]
            },
            {
               "long_name" : "United States",
               "short_name" : "US",
               "types" : [ "country", "political" ]
            },
            {
               "long_name" : "39851",
               "short_name" : "39851",
               "types" : [ "postal_code" ]
            }
         ],
         "formatted_address" : "New Park Road, Fort Gaines, GA 39851, USA",
         "geometry" : {
            "bounds" : {
               "northeast" : {
                  "lat" : 31.6038404,
                  "lng" : -85.05018889999999
               },
               "southwest" : {
                  "lat" : 31.6020487,
                  "lng" : -85.05352479999999
               }
            },
            "location" : {
               "lat" : 31.6026306,
               "lng" : -85.0517897
            },
            "location_type" : "GEOMETRIC_CENTER",
            "viewport" : {
               "northeast" : {
                  "lat" : 31.60429353029149,
                  "lng" : -85.05018889999999
               },
               "southwest" : {
                  "lat" : 31.6015955697085,
                  "lng" : -85.05352479999999
               }
            }
         },
         "partial_match" : true,
         "types" : [ "route" ]
      },
      {
         "address_components" : [
            {
               "long_name" : "New Park Road",
               "short_name" : "New Park Rd",
               "types" : [ "route" ]
            },
            {
               "long_name" : "London",
               "short_name" : "London",
               "types" : [ "locality", "political" ]
            },
            {
               "long_name" : "London",
               "short_name" : "London",
               "types" : [ "postal_town" ]
            },
            {
               "long_name" : "Greater London",
               "short_name" : "Gt Lon",
               "types" : [ "administrative_area_level_2", "political" ]
            },
            {
               "long_name" : "United Kingdom",
               "short_name" : "GB",
               "types" : [ "country", "political" ]
            },
            {
               "long_name" : "SW2 4DU",
               "short_name" : "SW2 4DU",
               "types" : [ "postal_code" ]
            }
         ],
         "formatted_address" : "New Park Road, London SW2 4DU, UK",
         "geometry" : {
            "bounds" : {
               "northeast" : {
                  "lat" : 51.4493686,
                  "lng" : -0.1234094
               },
               "southwest" : {
                  "lat" : 51.4430245,
                  "lng" : -0.1328583
               }
            },
            "location" : {
               "lat" : 51.4466765,
               "lng" : -0.1290635
            },
            "location_type" : "GEOMETRIC_CENTER",
            "viewport" : {
               "northeast" : {
                  "lat" : 51.4493686,
                  "lng" : -0.1234094
               },
               "southwest" : {
                  "lat" : 51.4430245,
                  "lng" : -0.1328583
               }
            }
         },
         "partial_match" : true,
         "types" : [ "route" ]
      },
      {
         "address_components" : [
            {
               "long_name" : "New Park Road",
               "short_name" : "New Park Rd",
               "types" : [ "route" ]
            },
            {
               "long_name" : "Lee Mill Bridge",
               "short_name" : "Lee Mill Bridge",
               "types" : [ "locality", "political" ]
            },
            {
               "long_name" : "Ivybridge",
               "short_name" : "Ivybridge",
               "types" : [ "postal_town" ]
            },
            {
               "long_name" : "Devon",
               "short_name" : "Devon",
               "types" : [ "administrative_area_level_2", "political" ]
            },
            {
               "long_name" : "United Kingdom",
               "short_name" : "GB",
               "types" : [ "country", "political" ]
            },
            {
               "long_name" : "PL21 9EB",
               "short_name" : "PL21 9EB",
               "types" : [ "postal_code" ]
            }
         ],
         "formatted_address" : "New Park Road, Lee Mill Bridge, Ivybridge, Devon PL21 9EB, UK",
         "geometry" : {
            "bounds" : {
               "northeast" : {
                  "lat" : 50.38529399999999,
                  "lng" : -3.9719332
               },
               "southwest" : {
                  "lat" : 50.38222649999999,
                  "lng" : -3.9864996
               }
            },
            "location" : {
               "lat" : 50.38431569999999,
               "lng" : -3.979599599999999
            },
            "location_type" : "GEOMETRIC_CENTER",
            "viewport" : {
               "northeast" : {
                  "lat" : 50.38529399999999,
                  "lng" : -3.9719332
               },
               "southwest" : {
                  "lat" : 50.38222649999999,
                  "lng" : -3.9864996
               }
            }
         },
         "partial_match" : true,
         "types" : [ "route" ]
      },
      {
         "address_components" : [
            {
               "long_name" : "New Park Road",
               "short_name" : "New Park Rd",
               "types" : [ "route" ]
            },
            {
               "long_name" : "Cranleigh",
               "short_name" : "Cranleigh",
               "types" : [ "locality", "political" ]
            },
            {
               "long_name" : "Cranleigh",
               "short_name" : "Cranleigh",
               "types" : [ "postal_town" ]
            },
            {
               "long_name" : "Surrey",
               "short_name" : "Surrey",
               "types" : [ "administrative_area_level_2", "political" ]
            },
            {
               "long_name" : "United Kingdom",
               "short_name" : "GB",
               "types" : [ "country", "political" ]
            },
            {
               "long_name" : "GU6 7JN",
               "short_name" : "GU6 7JN",
               "types" : [ "postal_code" ]
            }
         ],
         "formatted_address" : "New Park Road, Cranleigh, Cranleigh, Surrey GU6 7JN, UK",
         "geometry" : {
            "bounds" : {
               "northeast" : {
                  "lat" : 51.1425321,
                  "lng" : -0.4728368
               },
               "southwest" : {
                  "lat" : 51.1377321,
                  "lng" : -0.4808666
               }
            },
            "location" : {
               "lat" : 51.14020670000001,
               "lng" : -0.4762878
            },
            "location_type" : "GEOMETRIC_CENTER",
            "viewport" : {
               "northeast" : {
                  "lat" : 51.1425321,
                  "lng" : -0.4728368
               },
               "southwest" : {
                  "lat" : 51.1377321,
                  "lng" : -0.4808666
               }
            }
         },
         "partial_match" : true,
         "types" : [ "route" ]
      },
      {
         "address_components" : [
            {
               "long_name" : "New Park Road",
               "short_name" : "New Park Rd",
               "types" : [ "route" ]
            },
            {
               "long_name" : "Queensbury",
               "short_name" : "Queensbury",
               "types" : [ "locality", "political" ]
            },
            {
               "long_name" : "Bradford",
               "short_name" : "Bradford",
               "types" : [ "postal_town" ]
            },
            {
               "long_name" : "West Yorkshire",
               "short_name" : "West York",
               "types" : [ "administrative_area_level_2", "political" ]
            },
            {
               "long_name" : "United Kingdom",
               "short_name" : "GB",
               "types" : [ "country", "political" ]
            },
            {
               "long_name" : "BD13 2HD",
               "short_name" : "BD13 2HD",
               "types" : [ "postal_code" ]
            }
         ],
         "formatted_address" : "New Park Road, Queensbury, Bradford, West Yorkshire BD13 2HD, UK",
         "geometry" : {
            "bounds" : {
               "northeast" : {
                  "lat" : 53.7717246,
                  "lng" : -1.8506214
               },
               "southwest" : {
                  "lat" : 53.7664907,
                  "lng" : -1.8535911
               }
            },
            "location" : {
               "lat" : 53.7692683,
               "lng" : -1.8523236
            },
            "location_type" : "GEOMETRIC_CENTER",
            "viewport" : {
               "northeast" : {
                  "lat" : 53.7717246,
                  "lng" : -1.8506214
               },
               "southwest" : {
                  "lat" : 53.7664907,
                  "lng" : -1.8535911
               }
            }
         },
         "partial_match" : true,
         "types" : [ "route" ]
      },
      {
         "address_components" : [
            {
               "long_name" : "New Park Drive",
               "short_name" : "New Park Dr",
               "types" : [ "route" ]
            },
            {
               "long_name" : "Hemel Hempstead",
               "short_name" : "Hemel Hempstead",
               "types" : [ "locality", "political" ]
            },
            {
               "long_name" : "Hemel Hempstead",
               "short_name" : "Hemel Hempstead",
               "types" : [ "postal_town" ]
            },
            {
               "long_name" : "Hertfordshire",
               "short_name" : "Hertfordshire",
               "types" : [ "administrative_area_level_2", "political" ]
            },
            {
               "long_name" : "United Kingdom",
               "short_name" : "GB",
               "types" : [ "country", "political" ]
            },
            {
               "long_name" : "HP2",
               "short_name" : "HP2",
               "types" : [ "postal_code_prefix", "postal_code" ]
            }
         ],
         "formatted_address" : "New Park Drive, Hemel Hempstead, Hemel Hempstead, Hertfordshire HP2, UK",
         "geometry" : {
            "bounds" : {
               "northeast" : {
                  "lat" : 51.7571519,
                  "lng" : -0.4392255
               },
               "southwest" : {
                  "lat" : 51.7529239,
                  "lng" : -0.4430451
               }
            },
            "location" : {
               "lat" : 51.7548618,
               "lng" : -0.4410068
            },
            "location_type" : "GEOMETRIC_CENTER",
            "viewport" : {
               "northeast" : {
                  "lat" : 51.7571519,
                  "lng" : -0.4392255
               },
               "southwest" : {
                  "lat" : 51.7529239,
                  "lng" : -0.4430451
               }
            }
         },
         "partial_match" : true,
         "types" : [ "route" ]
      },
      {
         "address_components" : [
            {
               "long_name" : "New Park Street",
               "short_name" : "New Park St",
               "types" : [ "route" ]
            },
            {
               "long_name" : "Hamilton",
               "short_name" : "Hamilton",
               "types" : [ "locality", "political" ]
            },
            {
               "long_name" : "Hamilton",
               "short_name" : "Hamilton",
               "types" : [ "postal_town" ]
            },
            {
               "long_name" : "South Lanarkshire",
               "short_name" : "South Lanarkshire",
               "types" : [ "administrative_area_level_2", "political" ]
            },
            {
               "long_name" : "United Kingdom",
               "short_name" : "GB",
               "types" : [ "country", "political" ]
            },
            {
               "long_name" : "ML3 0BN",
               "short_name" : "ML3 0BN",
               "types" : [ "postal_code" ]
            }
         ],
         "formatted_address" : "New Park Street, Hamilton, South Lanarkshire ML3 0BN, UK",
         "geometry" : {
            "bounds" : {
               "northeast" : {
                  "lat" : 55.7862983,
                  "lng" : -4.0510426
               },
               "southwest" : {
                  "lat" : 55.7817285,
                  "lng" : -4.054592
               }
            },
            "location" : {
               "lat" : 55.7837201,
               "lng" : -4.0541316
            },
            "location_type" : "GEOMETRIC_CENTER",
            "viewport" : {
               "northeast" : {
                  "lat" : 55.7862983,
                  "lng" : -4.0510426
               },
               "southwest" : {
                  "lat" : 55.7817285,
                  "lng" : -4.054592
               }
            }
         },
         "partial_match" : true,
         "types" : [ "route" ]
      },
      {
         "address_components" : [
            {
               "long_name" : "New Park Terrace",
               "short_name" : "New Park Terrace",
               "types" : [ "route" ]
            },
            {
               "long_name" : "Pontypridd",
               "short_name" : "Pontypridd",
               "types" : [ "locality", "political" ]
            },
            {
               "long_name" : "Pontypridd",
               "short_name" : "Pontypridd",
               "types" : [ "postal_town" ]
            },
            {
               "long_name" : "Rhondda Cynon Taff",
               "short_name" : "Rhondda Cynon Taff",
               "types" : [ "administrative_area_level_2", "political" ]
            },
            {
               "long_name" : "United Kingdom",
               "short_name" : "GB",
               "types" : [ "country", "political" ]
            },
            {
               "long_name" : "CF37",
               "short_name" : "CF37",
               "types" : [ "postal_code_prefix", "postal_code" ]
            }
         ],
         "formatted_address" : "New Park Terrace, Pontypridd, Pontypridd, Rhondda Cynon Taff CF37, UK",
         "geometry" : {
            "bounds" : {
               "northeast" : {
                  "lat" : 51.592795,
                  "lng" : -3.3252911
               },
               "southwest" : {
                  "lat" : 51.5902579,
                  "lng" : -3.3266147
               }
            },
            "location" : {
               "lat" : 51.591416,
               "lng" : -3.3261385
            },
            "location_type" : "GEOMETRIC_CENTER",
            "viewport" : {
               "northeast" : {
                  "lat" : 51.5928754302915,
                  "lng" : -3.324603919708498
               },
               "southwest" : {
                  "lat" : 51.59017746970851,
                  "lng" : -3.327301880291501
               }
            }
         },
         "partial_match" : true,
         "types" : [ "route" ]
      },
      {
         "address_components" : [
            {
               "long_name" : "New Park Street",
               "short_name" : "New Park St",
               "types" : [ "route" ]
            },
            {
               "long_name" : "Morley",
               "short_name" : "Morley",
               "types" : [ "locality", "political" ]
            },
            {
               "long_name" : "Leeds",
               "short_name" : "Leeds",
               "types" : [ "postal_town" ]
            },
            {
               "long_name" : "West Yorkshire",
               "short_name" : "West York",
               "types" : [ "administrative_area_level_2", "political" ]
            },
            {
               "long_name" : "United Kingdom",
               "short_name" : "GB",
               "types" : [ "country", "political" ]
            },
            {
               "long_name" : "LS27 0PS",
               "short_name" : "LS27 0PS",
               "types" : [ "postal_code" ]
            }
         ],
         "formatted_address" : "New Park Street, Morley, Leeds, West Yorkshire LS27 0PS, UK",
         "geometry" : {
            "bounds" : {
               "northeast" : {
                  "lat" : 53.741173,
                  "lng" : -1.6104288
               },
               "southwest" : {
                  "lat" : 53.7398995,
                  "lng" : -1.6123921
               }
            },
            "location" : {
               "lat" : 53.7405507,
               "lng" : -1.6114286
            },
            "location_type" : "GEOMETRIC_CENTER",
            "viewport" : {
               "northeast" : {
                  "lat" : 53.7418852302915,
                  "lng" : -1.610061469708498
               },
               "southwest" : {
                  "lat" : 53.7391872697085,
                  "lng" : -1.612759430291502
               }
            }
         },
         "partial_match" : true,
         "types" : [ "route" ]
      },
      {
         "address_components" : [
            {
               "long_name" : "New Park Road",
               "short_name" : "New Park Rd",
               "types" : [ "route" ]
            },
            {
               "long_name" : "Eiffelton",
               "short_name" : "Eiffelton",
               "types" : [ "locality", "political" ]
            },
            {
               "long_name" : "Canterbury",
               "short_name" : "Canterbury",
               "types" : [ "administrative_area_level_1", "political" ]
            },
            {
               "long_name" : "New Zealand",
               "short_name" : "NZ",
               "types" : [ "country", "political" ]
            },
            {
               "long_name" : "7774",
               "short_name" : "7774",
               "types" : [ "postal_code" ]
            }
         ],
         "formatted_address" : "New Park Road, Eiffelton 7774, New Zealand",
         "geometry" : {
            "bounds" : {
               "northeast" : {
                  "lat" : -44.0374219,
                  "lng" : 171.6846417
               },
               "southwest" : {
                  "lat" : -44.0486381,
                  "lng" : 171.6317232
               }
            },
            "location" : {
               "lat" : -44.045514,
               "lng" : 171.6628133
            },
            "location_type" : "GEOMETRIC_CENTER",
            "viewport" : {
               "northeast" : {
                  "lat" : -44.0374219,
                  "lng" : 171.6846417
               },
               "southwest" : {
                  "lat" : -44.0486381,
                  "lng" : 171.6317232
               }
            }
         },
         "partial_match" : true,
         "types" : [ "route" ]
      },
      {
         "address_components" : [
            {
               "long_name" : "Central Park",
               "short_name" : "Central Park",
               "types" : [ "establishment" ]
            },
            {
               "long_name" : "Manhattan",
               "short_name" : "Manhattan",
               "types" : [ "sublocality_level_1", "sublocality", "political" ]
            },
            {
               "long_name" : "New York",
               "short_name" : "NY",
               "types" : [ "locality", "political" ]
            },
            {
               "long_name" : "New York County",
               "short_name" : "New York County",
               "types" : [ "administrative_area_level_2", "political" ]
            },
            {
               "long_name" : "New York",
               "short_name" : "NY",
               "types" : [ "administrative_area_level_1", "political" ]
            },
            {
               "long_name" : "United States",
               "short_name" : "US",
               "types" : [ "country", "political" ]
            }
         ],
         "formatted_address" : "Central Park, New York, NY, USA",
         "geometry" : {
            "bounds" : {
               "northeast" : {
                  "lat" : 40.8005207,
                  "lng" : -73.9493995
               },
               "southwest" : {
                  "lat" : 40.7645841,
                  "lng" : -73.9815758
               }
            },
            "location" : {
               "lat" : 40.7828647,
               "lng" : -73.9653551
            },
            "location_type" : "APPROXIMATE",
            "viewport" : {
               "northeast" : {
                  "lat" : 40.8005207,
                  "lng" : -73.9493995
               },
               "southwest" : {
                  "lat" : 40.7645841,
                  "lng" : -73.9815758
               }
            }
         },
         "partial_match" : true,
         "types" : [ "park", "establishment" ]
      },
      {
         "address_components" : [
            {
               "long_name" : "Park",
               "short_name" : "Park",
               "types" : [ "train_station", "transit_station", "establishment" ]
            },
            {
               "long_name" : "Johannesburg",
               "short_name" : "Johannesburg",
               "types" : [ "locality", "political" ]
            },
            {
               "long_name" : "City of Johannesburg Metropolitan Municipality",
               "short_name" : "City of Johannesburg Metropolitan Municipality",
               "types" : [ "administrative_area_level_2", "political" ]
            },
            {
               "long_name" : "Gauteng",
               "short_name" : "GP",
               "types" : [ "administrative_area_level_1", "political" ]
            },
            {
               "long_name" : "South Africa",
               "short_name" : "ZA",
               "types" : [ "country", "political" ]
            },
            {
               "long_name" : "2000",
               "short_name" : "2000",
               "types" : [ "postal_code" ]
            }
         ],
         "formatted_address" : "Park, Johannesburg, 2000, South Africa",
         "geometry" : {
            "location" : {
               "lat" : -26.1948,
               "lng" : 28.042167
            },
            "location_type" : "APPROXIMATE",
            "viewport" : {
               "northeast" : {
                  "lat" : -26.19345101970849,
                  "lng" : 28.0435159802915
               },
               "southwest" : {
                  "lat" : -26.1961489802915,
                  "lng" : 28.0408180197085
               }
            }
         },
         "partial_match" : true,
         "types" : [ "train_station", "transit_station", "establishment" ]
      }
   ],
   "status" : "OK"
}
