{
   "results" : [
      {
         "address_components" : [
            {
               "long_name" : "Park Circus Railway Station",
               "short_name" : "Park Circus Railway Station",
               "types" : [ "train_station", "transit_station", "establishment" ]
            },
            {
               "long_name" : "JBS Haldane Avenue",
               "short_name" : "JBS Haldane Ave",
               "types" : [ "route" ]
            },
            {
               "long_name" : "Gobra",
               "short_name" : "Gobra",
               "types" : [ "sublocality_level_1", "sublocality", "political" ]
            },
            {
               "long_name" : "Kolkata",
               "short_name" : "Kolkata",
               "types" : [ "locality", "political" ]
            },
            {
               "long_name" : "Kolkata",
               "short_name" : "Kolkata",
               "types" : [ "administrative_area_level_2", "political" ]
            },
            {
               "long_name" : "West Bengal",
               "short_name" : "WB",
               "types" : [ "administrative_area_level_1", "political" ]
            },
            {
               "long_name" : "India",
               "short_name" : "IN",
               "types" : [ "country", "political" ]
            },
            {
               "long_name" : "700017",
               "short_name" : "700017",
               "types" : [ "postal_code" ]
            }
         ],
         "formatted_address" : "Park Circus Railway Station, JBS Haldane Avenue, Gobra, Kolkata, West Bengal 700017, India",
         "geometry" : {
            "bounds" : {
               "northeast" : {
                  "lat" : 22.542313,
                  "lng" : 88.37422719999999
               },
               "southwest" : {
                  "lat" : 22.5392367,
                  "lng" : 88.3735109
               }
            },
            "location" : {
               "lat" : 22.5407352,
               "lng" : 88.373858
            },
            "location_type" : "APPROXIMATE",
            "viewport" : {
               "northeast" : {
                  "lat" : 22.542313,
                  "lng" : 88.37521803029151
               },
               "southwest" : {
                  "lat" : 22.5392367,
                  "lng" : 88.3725200697085
               }
            }
         },
         "types" : [ "train_station", "transit_station", "establishment" ]
      },
      {
         "address_components" : [
            {
               "long_name" : "Park Circus",
               "short_name" : "Park Circus",
               "types" : [ "route" ]
            },
            {
               "long_name" : "Birmingham",
               "short_name" : "Birmingham",
               "types" : [ "locality", "political" ]
            },
            {
               "long_name" : "Birmingham",
               "short_name" : "Birmingham",
               "types" : [ "postal_town" ]
            },
            {
               "long_name" : "West Midlands",
               "short_name" : "West Mids",
               "types" : [ "administrative_area_level_2", "political" ]
            },
            {
               "long_name" : "United Kingdom",
               "short_name" : "GB",
               "types" : [ "country", "political" ]
            },
            {
               "long_name" : "B6 5JT",
               "short_name" : "B6 5JT",
               "types" : [ "postal_code" ]
            }
         ],
         "formatted_address" : "Park Circus, Birmingham, West Midlands B6 5JT, UK",
         "geometry" : {
            "bounds" : {
               "northeast" : {
                  "lat" : 52.5026672,
                  "lng" : -1.8830249
               },
               "southwest" : {
                  "lat" : 52.5016111,
                  "lng" : -1.8846592
               }
            },
            "location" : {
               "lat" : 52.50248,
               "lng" : -1.8843253
            },
            "location_type" : "GEOMETRIC_CENTER",
            "viewport" : {
               "northeast" : {
                  "lat" : 52.50348813029149,
                  "lng" : -1.882493069708498
               },
               "southwest" : {
                  "lat" : 52.5007901697085,
                  "lng" : -1.885191030291502
               }
            }
         },
         "types" : [ "route" ]
      },
      {
         "address_components" : [
            {
               "long_name" : "Park Avenue",
               "short_name" : "Park Ave",
               "types" : [ "route" ]
            },
            {
               "long_name" : "San Patricio County",
               "short_name" : "San Patricio County",
               "types" : [ "administrative_area_level_2", "political" ]
            },
            {
               "long_name" : "Texas",
               "short_name" : "TX",
               "types" : [ "administrative_area_level_1", "political" ]
            },
            {
               "long_name" : "United States",
               "short_name" : "US",
               "types" : [ "country", "political" ]
            }
         ],
         "formatted_address" : "Park Avenue, Texas, USA",
         "geometry" : {
            "bounds" : {
               "northeast" : {
                  "lat" : 28.0625353,
                  "lng" : -97.5003519
               },
               "southwest" : {
                  "lat" : 27.9439646,
                  "lng" : -97.58730509999999
               }
            },
            "location" : {
               "lat" : 28.0000182,
               "lng" : -97.5390434
            },
            "location_type" : "GEOMETRIC_CENTER",
            "viewport" : {
               "northeast" : {
                  "lat" : 28.0625353,
                  "lng" : -97.5003519
               },
               "southwest" : {
                  "lat" : 27.9439646,
                  "lng" : -97.58730509999999
               }
            }
         },
         "partial_match" : true,
         "types" : [ "route" ]
      },
      {
         "address_components" : [
            {
               "long_name" : "Park Street",
               "short_name" : "Park St",
               "types" : [ "route" ]
            },
            {
               "long_name" : "Okeechobee",
               "short_name" : "Okeechobee",
               "types" : [ "locality", "political" ]
            },
            {
               "long_name" : "Okeechobee County",
               "short_name" : "Okeechobee County",
               "types" : [ "administrative_area_level_2", "political" ]
            },
            {
               "long_name" : "Florida",
               "short_name" : "FL",
               "types" : [ "administrative_area_level_1", "political" ]
            },
            {
               "long_name" : "United States",
               "short_name" : "US",
               "types" : [ "country", "political" ]
            }
         ],
         "formatted_address" : "Park Street, Okeechobee, FL, USA",
         "geometry" : {
            "bounds" : {
               "northeast" : {
                  "lat" : 27.2437264,
                  "lng" : -80.8443963
               },
               "southwest" : {
                  "lat" : 27.23911,
                  "lng" : -80.982028
               }
            },
            "location" : {
               "lat" : 27.2435676,
               "lng" : -80.9119039
            },
            "location_type" : "GEOMETRIC_CENTER",
            "viewport" : {
               "northeast" : {
                  "lat" : 27.2437264,
                  "lng" : -80.8443963
               },
               "southwest" : {
                  "lat" : 27.23911,
                  "lng" : -80.982028
               }
            }
         },
         "partial_match" : true,
         "types" : [ "route" ]
      },
      {
         "address_components" : [
            {
               "long_name" : "Park Avenue",
               "short_name" : "Park Ave",
               "types" : [ "route" ]
            },
            {
               "long_name" : "Orange Park",
               "short_name" : "Orange Park",
               "types" : [ "locality", "political" ]
            },
            {
               "long_name" : "Florida",
               "short_name" : "FL",
               "types" : [ "administrative_area_level_1", "political" ]
            },
            {
               "long_name" : "United States",
               "short_name" : "US",
               "types" : [ "country", "political" ]
            },
            {
               "long_name" : "32073",
               "short_name" : "32073",
               "types" : [ "postal_code" ]
            }
         ],
         "formatted_address" : "Park Avenue, Orange Park, FL 32073, USA",
         "geometry" : {
            "bounds" : {
               "northeast" : {
                  "lat" : 30.191799,
                  "lng" : -81.69825519999999
               },
               "southwest" : {
                  "lat" : 30.1474729,
                  "lng" : -81.71050369999999
               }
            },
            "location" : {
               "lat" : 30.1699189,
               "lng" : -81.70130490000001
            },
            "location_type" : "GEOMETRIC_CENTER",
            "viewport" : {
               "northeast" : {
                  "lat" : 30.191799,
                  "lng" : -81.69825519999999
               },
               "southwest" : {
                  "lat" : 30.1474729,
                  "lng" : -81.71050369999999
               }
            }
         },
         "partial_match" : true,
         "types" : [ "route" ]
      },
      {
         "address_components" : [
            {
               "long_name" : "Park Street",
               "short_name" : "Park St",
               "types" : [ "route" ]
            },
            {
               "long_name" : "Palmer",
               "short_name" : "Palmer",
               "types" : [ "locality", "political" ]
            },
            {
               "long_name" : "Hampden County",
               "short_name" : "Hampden County",
               "types" : [ "administrative_area_level_2", "political" ]
            },
            {
               "long_name" : "Massachusetts",
               "short_name" : "MA",
               "types" : [ "administrative_area_level_1", "political" ]
            },
            {
               "long_name" : "United States",
               "short_name" : "US",
               "types" : [ "country", "political" ]
            },
            {
               "long_name" : "01069",
               "short_name" : "01069",
               "types" : [ "postal_code" ]
            }
         ],
         "formatted_address" : "Park Street, Palmer, MA 01069, USA",
         "geometry" : {
            "bounds" : {
               "northeast" : {
                  "lat" : 42.1596906,
                  "lng" : -72.2741724
               },
               "southwest" : {
                  "lat" : 42.1400989,
                  "lng" : -72.3289472
               }
            },
            "location" : {
               "lat" : 42.1478049,
               "lng" : -72.3052814
            },
            "location_type" : "GEOMETRIC_CENTER",
            "viewport" : {
               "northeast" : {
                  "lat" : 42.1596906,
                  "lng" : -72.2741724
               },
               "southwest" : {
                  "lat" : 42.1400989,
                  "lng" : -72.3289472
               }
            }
         },
         "partial_match" : true,
         "types" : [ "route" ]
      },
      {
         "address_components" : [
            {
               "long_name" : "Park Street",
               "short_name" : "Park St",
               "types" : [ "route" ]
            },
            {
               "long_name" : "Sheldon",
               "short_name" : "Sheldon",
               "types" : [ "locality", "political" ]
            },
            {
               "long_name" : "Floyd",
               "short_name" : "Floyd",
               "types" : [ "administrative_area_level_3", "political" ]
            },
            {
               "long_name" : "O'Brien County",
               "short_name" : "O'Brien County",
               "types" : [ "administrative_area_level_2", "political" ]
            },
            {
               "long_name" : "Iowa",
               "short_name" : "IA",
               "types" : [ "administrative_area_level_1", "political" ]
            },
            {
               "long_name" : "United States",
               "short_name" : "US",
               "types" : [ "country", "political" ]
            },
            {
               "long_name" : "51201",
               "short_name" : "51201",
               "types" : [ "postal_code" ]
            }
         ],
         "formatted_address" : "Park Street, Sheldon, IA 51201, USA",
         "geometry" : {
            "bounds" : {
               "northeast" : {
                  "lat" : 43.1913832,
                  "lng" : -95.8050762
               },
               "southwest" : {
                  "lat" : 43.18132139999999,
                  "lng" : -95.8542252
               }
            },
            "location" : {
               "lat" : 43.18607600000001,
               "lng" : -95.8298997
            },
            "location_type" : "GEOMETRIC_CENTER",
            "viewport" : {
               "northeast" : {
                  "lat" : 43.1913832,
                  "lng" : -95.8050762
               },
               "southwest" : {
                  "lat" : 43.18132139999999,
                  "lng" : -95.8542252
               }
            }
         },
         "partial_match" : true,
         "types" : [ "route" ]
      },
      {
         "address_components" : [
            {
               "long_name" : "Park Avenue",
               "short_name" : "Park Ave",
               "types" : [ "route" ]
            },
            {
               "long_name" : "Abbeville",
               "short_name" : "Abbeville",
               "types" : [ "locality", "political" ]
            },
            {
               "long_name" : "11",
               "short_name" : "11",
               "types" : [ "administrative_area_level_3", "political" ]
            },
            {
               "long_name" : "Vermilion Parish",
               "short_name" : "Vermilion Parish",
               "types" : [ "administrative_area_level_2", "political" ]
            },
            {
               "long_name" : "Louisiana",
               "short_name" : "LA",
               "types" : [ "administrative_area_level_1", "political" ]
            },
            {
               "long_name" : "United States",
               "short_name" : "US",
               "types" : [ "country", "political" ]
            },
            {
               "long_name" : "70510",
               "short_name" : "70510",
               "types" : [ "postal_code" ]
            }
         ],
         "formatted_address" : "Park Avenue, Abbeville, LA 70510, USA",
         "geometry" : {
            "bounds" : {
               "northeast" : {
                  "lat" : 29.99987309999999,
                  "lng" : -92.12377699999999
               },
               "southwest" : {
                  "lat" : 29.975661,
                  "lng" : -92.1415909
               }
            },
            "location" : {
               "lat" : 29.9892086,
               "lng" : -92.13654319999999
            },
            "location_type" : "GEOMETRIC_CENTER",
            "viewport" : {
               "northeast" : {
                  "lat" : 29.99987309999999,
                  "lng" : -92.12377699999999
               },
               "southwest" : {
                  "lat" : 29.975661,
                  "lng" : -92.1415909
               }
            }
         },
         "partial_match" : true,
         "types" : [ "route" ]
      },
      {
         "address_components" : [
            {
               "long_name" : "Park Drive",
               "short_name" : "Park Dr",
               "types" : [ "route" ]
            },
            {
               "long_name" : "Clatsop County",
               "short_name" : "Clatsop County",
               "types" : [ "administrative_area_level_2", "political" ]
            },
            {
               "long_name" : "Oregon",
               "short_name" : "OR",
               "types" : [ "administrative_area_level_1", "political" ]
            },
            {
               "long_name" : "United States",
               "short_name" : "US",
               "types" : [ "country", "political" ]
            },
            {
               "long_name" : "97138",
               "short_name" : "97138",
               "types" : [ "postal_code" ]
            }
         ],
         "formatted_address" : "Park Drive, Oregon 97138, USA",
         "geometry" : {
            "bounds" : {
               "northeast" : {
                  "lat" : 46.0497409,
                  "lng" : -123.9101292
               },
               "southwest" : {
                  "lat" : 46.0113202,
                  "lng" : -123.9140462
               }
            },
            "location" : {
               "lat" : 46.0306417,
               "lng" : -123.912606
            },
            "location_type" : "GEOMETRIC_CENTER",
            "viewport" : {
               "northeast" : {
                  "lat" : 46.0497409,
                  "lng" : -123.9101292
               },
               "southwest" : {
                  "lat" : 46.0113202,
                  "lng" : -123.9140462
               }
            }
         },
         "partial_match" : true,
         "types" : [ "route" ]
      },
      {
         "address_components" : [
            {
               "long_name" : "Park Avenue",
               "short_name" : "Park Ave",
               "types" : [ "route" ]
            },
            {
               "long_name" : "Richland Springs",
               "short_name" : "Richland Springs",
               "types" : [ "locality", "political" ]
            },
            {
               "long_name" : "San Saba County",
               "short_name" : "San Saba County",
               "types" : [ "administrative_area_level_2", "political" ]
            },
            {
               "long_name" : "Texas",
               "short_name" : "TX",
               "types" : [ "administrative_area_level_1", "political" ]
            },
            {
               "long_name" : "United States",
               "short_name" : "US",
               "types" : [ "country", "political" ]
            },
            {
               "long_name" : "76871",
               "short_name" : "76871",
               "types" : [ "postal_code" ]
            }
         ],
         "formatted_address" : "Park Avenue, Richland Springs, TX 76871, USA",
         "geometry" : {
            "bounds" : {
               "northeast" : {
                  "lat" : 31.2699016,
                  "lng" : -98.90522949999999
               },
               "southwest" : {
                  "lat" : 31.2434022,
                  "lng" : -98.9464727
               }
            },
            "location" : {
               "lat" : 31.2569604,
               "lng" : -98.9259886
            },
            "location_type" : "GEOMETRIC_CENTER",
            "viewport" : {
               "northeast" : {
                  "lat" : 31.2699016,
                  "lng" : -98.90522949999999
               },
               "southwest" : {
                  "lat" : 31.2434022,
                  "lng" : -98.9464727
               }
            }
         },
         "partial_match" : true,
         "types" : [ "route" ]
      },
      {
         "address_components" : [
            {
               "long_name" : "Park Avenue",
               "short_name" : "Park Ave",
               "types" : [ "route" ]
            },
            {
               "long_name" : "Kremmling",
               "short_name" : "Kremmling",
               "types" : [ "locality", "political" ]
            },
            {
               "long_name" : "Grand County",
               "short_name" : "Grand County",
               "types" : [ "administrative_area_level_2", "political" ]
            },
            {
               "long_name" : "Colorado",
               "short_name" : "CO",
               "types" : [ "administrative_area_level_1", "political" ]
            },
            {
               "long_name" : "United States",
               "short_name" : "US",
               "types" : [ "country", "political" ]
            },
            {
               "long_name" : "80459",
               "short_name" : "80459",
               "types" : [ "postal_code" ]
            }
         ],
         "formatted_address" : "Park Avenue, Kremmling, CO 80459, USA",
         "geometry" : {
            "bounds" : {
               "northeast" : {
                  "lat" : 40.0648959,
                  "lng" : -106.3666194
               },
               "southwest" : {
                  "lat" : 40.0558967,
                  "lng" : -106.4023289
               }
            },
            "location" : {
               "lat" : 40.0587156,
               "lng" : -106.3853608
            },
            "location_type" : "GEOMETRIC_CENTER",
            "viewport" : {
               "northeast" : {
                  "lat" : 40.0648959,
                  "lng" : -106.3666194
               },
               "southwest" : {
                  "lat" : 40.0558967,
                  "lng" : -106.4023289
               }
            }
         },
         "partial_match" : true,
         "types" : [ "route" ]
      },
      {
         "address_components" : [
            {
               "long_name" : "Park Boulevard North",
               "short_name" : "Park Blvd N",
               "types" : [ "route" ]
            },
            {
               "long_name" : "Pinellas County",
               "short_name" : "Pinellas County",
               "types" : [ "administrative_area_level_2", "political" ]
            },
            {
               "long_name" : "Florida",
               "short_name" : "FL",
               "types" : [ "administrative_area_level_1", "political" ]
            },
            {
               "long_name" : "United States",
               "short_name" : "US",
               "types" : [ "country", "political" ]
            }
         ],
         "formatted_address" : "Park Boulevard North, Florida, USA",
         "geometry" : {
            "bounds" : {
               "northeast" : {
                  "lat" : 27.844977,
                  "lng" : -82.6806711
               },
               "southwest" : {
                  "lat" : 27.837161,
                  "lng" : -82.84098569999999
               }
            },
            "location" : {
               "lat" : 27.839398,
               "lng" : -82.76071069999999
            },
            "location_type" : "GEOMETRIC_CENTER",
            "viewport" : {
               "northeast" : {
                  "lat" : 27.844977,
                  "lng" : -82.6806711
               },
               "southwest" : {
                  "lat" : 27.837161,
                  "lng" : -82.84098569999999
               }
            }
         },
         "partial_match" : true,
         "types" : [ "route" ]
      },
      {
         "address_components" : [
            {
               "long_name" : "Park Street",
               "short_name" : "Park St",
               "types" : [ "route" ]
            },
            {
               "long_name" : "Orono",
               "short_name" : "Orono",
               "types" : [ "locality", "political" ]
            },
            {
               "long_name" : "Penobscot County",
               "short_name" : "Penobscot County",
               "types" : [ "administrative_area_level_2", "political" ]
            },
            {
               "long_name" : "Maine",
               "short_name" : "ME",
               "types" : [ "administrative_area_level_1", "political" ]
            },
            {
               "long_name" : "United States",
               "short_name" : "US",
               "types" : [ "country", "political" ]
            },
            {
               "long_name" : "04473",
               "short_name" : "04473",
               "types" : [ "postal_code" ]
            }
         ],
         "formatted_address" : "Park Street, Orono, ME 04473, USA",
         "geometry" : {
            "bounds" : {
               "northeast" : {
                  "lat" : 44.94183,
                  "lng" : -68.6421512
               },
               "southwest" : {
                  "lat" : 44.8877719,
                  "lng" : -68.6695952
               }
            },
            "location" : {
               "lat" : 44.9246832,
               "lng" : -68.6471652
            },
            "location_type" : "GEOMETRIC_CENTER",
            "viewport" : {
               "northeast" : {
                  "lat" : 44.94183,
                  "lng" : -68.6421512
               },
               "southwest" : {
                  "lat" : 44.8877719,
                  "lng" : -68.6695952
               }
            }
         },
         "partial_match" : true,
         "types" : [ "route" ]
      },
      {
         "address_components" : [
            {
               "long_name" : "Park Street",
               "short_name" : "Park St",
               "types" : [ "route" ]
            },
            {
               "long_name" : "Kentville",
               "short_name" : "Kentville",
               "types" : [ "locality", "political" ]
            },
            {
               "long_name" : "Kings County",
               "short_name" : "Kings County",
               "types" : [ "administrative_area_level_2", "political" ]
            },
            {
               "long_name" : "Nova Scotia",
               "short_name" : "NS",
               "types" : [ "administrative_area_level_1", "political" ]
            },
            {
               "long_name" : "Canada",
               "short_name" : "CA",
               "types" : [ "country", "political" ]
            },
            {
               "long_name" : "B4N",
               "short_name" : "B4N",
               "types" : [ "postal_code_prefix", "postal_code" ]
            }
         ],
         "formatted_address" : "Park Street, Kentville, NS B4N, Canada",
         "geometry" : {
            "bounds" : {
               "northeast" : {
                  "lat" : 45.0779792,
                  "lng" : -64.47903959999999
               },
               "southwest" : {
                  "lat" : 45.0695037,
                  "lng" : -64.5551912
               }
            },
            "location" : {
               "lat" : 45.0766598,
               "lng" : -64.5167891
            },
            "location_type" : "GEOMETRIC_CENTER",
            "viewport" : {
               "northeast" : {
                  "lat" : 45.0779792,
                  "lng" : -64.47903959999999
               },
               "southwest" : {
                  "lat" : 45.0695037,
                  "lng" : -64.5551912
               }
            }
         },
         "partial_match" : true,
         "types" : [ "route" ]
      },
      {
         "address_components" : [
            {
               "long_name" : "Park Street",
               "short_name" : "Park St",
               "types" : [ "route" ]
            },
            {
               "long_name" : "Rockland",
               "short_name" : "Rockland",
               "types" : [ "locality", "political" ]
            },
            {
               "long_name" : "Knox County",
               "short_name" : "Knox County",
               "types" : [ "administrative_area_level_2", "political" ]
            },
            {
               "long_name" : "Maine",
               "short_name" : "ME",
               "types" : [ "administrative_area_level_1", "political" ]
            },
            {
               "long_name" : "United States",
               "short_name" : "US",
               "types" : [ "country", "political" ]
            },
            {
               "long_name" : "04841",
               "short_name" : "04841",
               "types" : [ "postal_code" ]
            }
         ],
         "formatted_address" : "Park Street, Rockland, ME 04841, USA",
         "geometry" : {
            "bounds" : {
               "northeast" : {
                  "lat" : 44.1023089,
                  "lng" : -69.1090473
               },
               "southwest" : {
                  "lat" : 44.1011771,
                  "lng" : -69.1365199
               }
            },
            "location" : {
               "lat" : 44.10153589999999,
               "lng" : -69.12238889999999
            },
            "location_type" : "GEOMETRIC_CENTER",
            "viewport" : {
               "northeast" : {
                  "lat" : 44.1030919802915,
                  "lng" : -69.1090473
               },
               "southwest" : {
                  "lat" : 44.1003940197085,
                  "lng" : -69.1365199
               }
            }
         },
         "partial_match" : true,
         "types" : [ "route" ]
      },
      {
         "address_components" : [
            {
               "long_name" : "Park Avenue",
               "short_name" : "Park Ave",
               "types" : [ "route" ]
            },
            {
               "long_name" : "Park Rapids",
               "short_name" : "Park Rapids",
               "types" : [ "locality", "political" ]
            },
            {
               "long_name" : "Hubbard County",
               "short_name" : "Hubbard County",
               "types" : [ "administrative_area_level_2", "political" ]
            },
            {
               "long_name" : "Minnesota",
               "short_name" : "MN",
               "types" : [ "administrative_area_level_1", "political" ]
            },
            {
               "long_name" : "United States",
               "short_name" : "US",
               "types" : [ "country", "political" ]
            },
            {
               "long_name" : "56470",
               "short_name" : "56470",
               "types" : [ "postal_code" ]
            }
         ],
         "formatted_address" : "Park Avenue, Park Rapids, MN 56470, USA",
         "geometry" : {
            "bounds" : {
               "northeast" : {
                  "lat" : 46.9221523,
                  "lng" : -95.05821449999999
               },
               "southwest" : {
                  "lat" : 46.9073983,
                  "lng" : -95.0585248
               }
            },
            "location" : {
               "lat" : 46.91485900000001,
               "lng" : -95.0583539
            },
            "location_type" : "GEOMETRIC_CENTER",
            "viewport" : {
               "northeast" : {
                  "lat" : 46.9221523,
                  "lng" : -95.05702066970848
               },
               "southwest" : {
                  "lat" : 46.9073983,
                  "lng" : -95.0597186302915
               }
            }
         },
         "partial_match" : true,
         "types" : [ "route" ]
      },
      {
         "address_components" : [
            {
               "long_name" : "West Park Avenue",
               "short_name" : "W Park Ave",
               "types" : [ "route" ]
            },
            {
               "long_name" : "Terrebonne Parish",
               "short_name" : "Terrebonne Parish",
               "types" : [ "administrative_area_level_2", "political" ]
            },
            {
               "long_name" : "Louisiana",
               "short_name" : "LA",
               "types" : [ "administrative_area_level_1", "political" ]
            },
            {
               "long_name" : "United States",
               "short_name" : "US",
               "types" : [ "country", "political" ]
            }
         ],
         "formatted_address" : "West Park Avenue, Louisiana, USA",
         "geometry" : {
            "bounds" : {
               "northeast" : {
                  "lat" : 29.7772232,
                  "lng" : -90.7133973
               },
               "southwest" : {
                  "lat" : 29.5977686,
                  "lng" : -90.8176684
               }
            },
            "location" : {
               "lat" : 29.6846108,
               "lng" : -90.7843398
            },
            "location_type" : "GEOMETRIC_CENTER",
            "viewport" : {
               "northeast" : {
                  "lat" : 29.7772232,
                  "lng" : -90.7133973
               },
               "southwest" : {
                  "lat" : 29.5977686,
                  "lng" : -90.8176684
               }
            }
         },
         "partial_match" : true,
         "types" : [ "route" ]
      },
      {
         "address_components" : [
            {
               "long_name" : "Park Road",
               "short_name" : "Park Rd",
               "types" : [ "route" ]
            },
            {
               "long_name" : "Springfield",
               "short_name" : "Springfield",
               "types" : [ "locality", "political" ]
            },
            {
               "long_name" : "Clark County",
               "short_name" : "Clark County",
               "types" : [ "administrative_area_level_2", "political" ]
            },
            {
               "long_name" : "Ohio",
               "short_name" : "OH",
               "types" : [ "administrative_area_level_1", "political" ]
            },
            {
               "long_name" : "United States",
               "short_name" : "US",
               "types" : [ "country", "political" ]
            },
            {
               "long_name" : "45504",
               "short_name" : "45504",
               "types" : [ "postal_code" ]
            }
         ],
         "formatted_address" : "Park Road, Springfield, OH 45504, USA",
         "geometry" : {
            "bounds" : {
               "northeast" : {
                  "lat" : 39.928969,
                  "lng" : -83.8412455
               },
               "southwest" : {
                  "lat" : 39.9260416,
                  "lng" : -83.8465681
               }
            },
            "location" : {
               "lat" : 39.9273321,
               "lng" : -83.84404339999999
            },
            "location_type" : "GEOMETRIC_CENTER",
            "viewport" : {
               "northeast" : {
                  "lat" : 39.928969,
                  "lng" : -83.8412455
               },
               "southwest" : {
                  "lat" : 39.9260416,
                  "lng" : -83.8465681
               }
            }
         },
         "partial_match" : true,
         "types" : [ "route" ]
      },
      {
         "address_components" : [
            {
               "long_name" : "Park Street",
               "short_name" : "Park St",
               "types" : [ "route" ]
            },
            {
               "long_name" : "Shelby",
               "short_name" : "Shelby",
               "types" : [ "locality", "political" ]
            },
            {
               "long_name" : "South Canada",
               "short_name" : "South Canada",
               "types" : [ "administrative_area_level_3", "political" ]
            },
            {
               "long_name" : "Polk County",
               "short_name" : "Polk County",
               "types" : [ "administrative_area_level_2", "political" ]
            },
            {
               "long_name" : "Nebraska",
               "short_name" : "NE",
               "types" : [ "administrative_area_level_1", "political" ]
            },
            {
               "long_name" : "United States",
               "short_name" : "US",
               "types" : [ "country", "political" ]
            },
            {
               "long_name" : "68662",
               "short_name" : "68662",
               "types" : [ "postal_code" ]
            }
         ],
         "formatted_address" : "Park Street, Shelby, NE 68662, USA",
         "geometry" : {
            "bounds" : {
               "northeast" : {
                  "lat" : 41.1920154,
                  "lng" : -97.4211339
               },
               "southwest" : {
                  "lat" : 41.1918562,
                  "lng" : -97.43566939999999
               }
            },
            "location" : {
               "lat" : 41.191989,
               "lng" : -97.428736
            },
            "location_type" : "GEOMETRIC_CENTER",
            "viewport" : {
               "northeast" : {
                  "lat" : 41.19328478029149,
                  "lng" : -97.4211339
               },
               "southwest" : {
                  "lat" : 41.1905868197085,
                  "lng" : -97.43566939999999
               }
            }
         },
         "partial_match" : true,
         "types" : [ "route" ]
      },
      {
         "address_components" : [
            {
               "long_name" : "Park Street",
               "short_name" : "Park St",
               "types" : [ "route" ]
            },
            {
               "long_name" : "Lebanon",
               "short_name" : "Lebanon",
               "types" : [ "locality", "political" ]
            },
            {
               "long_name" : "Linn County",
               "short_name" : "Linn County",
               "types" : [ "administrative_area_level_2", "political" ]
            },
            {
               "long_name" : "Oregon",
               "short_name" : "OR",
               "types" : [ "administrative_area_level_1", "political" ]
            },
            {
               "long_name" : "United States",
               "short_name" : "US",
               "types" : [ "country", "political" ]
            },
            {
               "long_name" : "97355",
               "short_name" : "97355",
               "types" : [ "postal_code" ]
            }
         ],
         "formatted_address" : "Park Street, Lebanon, OR 97355, USA",
         "geometry" : {
            "bounds" : {
               "northeast" : {
                  "lat" : 44.545976,
                  "lng" : -122.904952
               },
               "southwest" : {
                  "lat" : 44.531732,
                  "lng" : -122.908513
               }
            },
            "location" : {
               "lat" : 44.5391419,
               "lng" : -122.9055601
            },
            "location_type" : "GEOMETRIC_CENTER",
            "viewport" : {
               "northeast" : {
                  "lat" : 44.545976,
                  "lng" : -122.904952
               },
               "southwest" : {
                  "lat" : 44.531732,
                  "lng" : -122.908513
               }
            }
         },
         "partial_match" : true,
         "types" : [ "route" ]
      },
      {
         "address_components" : [
            {
               "long_name" : "Park Street",
               "short_name" : "Park St",
               "types" : [ "route" ]
            },
            {
               "long_name" : "Canton",
               "short_name" : "Canton",
               "types" : [ "locality", "political" ]
            },
            {
               "long_name" : "Beaverdam",
               "short_name" : "Beaverdam",
               "types" : [ "administrative_area_level_3", "political" ]
            },
            {
               "long_name" : "Haywood County",
               "short_name" : "Haywood County",
               "types" : [ "administrative_area_level_2", "political" ]
            },
            {
               "long_name" : "North Carolina",
               "short_name" : "NC",
               "types" : [ "administrative_area_level_1", "political" ]
            },
            {
               "long_name" : "United States",
               "short_name" : "US",
               "types" : [ "country", "political" ]
            },
            {
               "long_name" : "28716",
               "short_name" : "28716",
               "types" : [ "postal_code" ]
            }
         ],
         "formatted_address" : "Park Street, Canton, NC 28716, USA",
         "geometry" : {
            "bounds" : {
               "northeast" : {
                  "lat" : 35.533079,
                  "lng" : -82.83729529999999
               },
               "southwest" : {
                  "lat" : 35.52982100000001,
                  "lng" : -82.84819209999999
               }
            },
            "location" : {
               "lat" : 35.531569,
               "lng" : -82.84260739999999
            },
            "location_type" : "GEOMETRIC_CENTER",
            "viewport" : {
               "northeast" : {
                  "lat" : 35.533079,
                  "lng" : -82.83729529999999
               },
               "southwest" : {
                  "lat" : 35.52982100000001,
                  "lng" : -82.84819209999999
               }
            }
         },
         "partial_match" : true,
         "types" : [ "route" ]
      },
      {
         "address_components" : [
            {
               "long_name" : "Park Avenue",
               "short_name" : "Park Ave",
               "types" : [ "route" ]
            },
            {
               "long_name" : "Broadus",
               "short_name" : "Broadus",
               "types" : [ "locality", "political" ]
            },
            {
               "long_name" : "Powder River County",
               "short_name" : "Powder River County",
               "types" : [ "administrative_area_level_2", "political" ]
            },
            {
               "long_name" : "Montana",
               "short_name" : "MT",
               "types" : [ "administrative_area_level_1", "political" ]
            },
            {
               "long_name" : "United States",
               "short_name" : "US",
               "types" : [ "country", "political" ]
            },
            {
               "long_name" : "59317",
               "short_name" : "59317",
               "types" : [ "postal_code" ]
            }
         ],
         "formatted_address" : "Park Avenue, Broadus, MT 59317, USA",
         "geometry" : {
            "bounds" : {
               "northeast" : {
                  "lat" : 45.4468953,
                  "lng" : -105.4080718
               },
               "southwest" : {
                  "lat" : 45.43525899999999,
                  "lng" : -105.4083165
               }
            },
            "location" : {
               "lat" : 45.4411543,
               "lng" : -105.4083079
            },
            "location_type" : "GEOMETRIC_CENTER",
            "viewport" : {
               "northeast" : {
                  "lat" : 45.4468953,
                  "lng" : -105.4068451697085
               },
               "southwest" : {
                  "lat" : 45.43525899999999,
                  "lng" : -105.4095431302915
               }
            }
         },
         "partial_match" : true,
         "types" : [ "route" ]
      },
      {
         "address_components" : [
            {
               "long_name" : "Park Avenue",
               "short_name" : "Park Ave",
               "types" : [ "route" ]
            },
            {
               "long_name" : "Garland County",
               "short_name" : "Garland County",
               "types" : [ "administrative_area_level_2", "political" ]
            },
            {
               "long_name" : "Arkansas",
               "short_name" : "AR",
               "types" : [ "administrative_area_level_1", "political" ]
            },
            {
               "long_name" : "United States",
               "short_name" : "US",
               "types" : [ "country", "political" ]
            }
         ],
         "formatted_address" : "Park Avenue, Arkansas, USA",
         "geometry" : {
            "bounds" : {
               "northeast" : {
                  "lat" : 34.6203563,
                  "lng" : -92.876035
               },
               "southwest" : {
                  "lat" : 34.5186803,
                  "lng" : -93.056613
               }
            },
            "location" : {
               "lat" : 34.5822467,
               "lng" : -92.97569190000002
            },
            "location_type" : "GEOMETRIC_CENTER",
            "viewport" : {
               "northeast" : {
                  "lat" : 34.6203563,
                  "lng" : -92.876035
               },
               "southwest" : {
                  "lat" : 34.5186803,
                  "lng" : -93.056613
               }
            }
         },
         "partial_match" : true,
         "types" : [ "route" ]
      },
      {
         "address_components" : [
            {
               "long_name" : "Park Avenue",
               "short_name" : "Park Ave",
               "types" : [ "route" ]
            },
            {
               "long_name" : "Stroudsburg",
               "short_name" : "Stroudsburg",
               "types" : [ "locality", "political" ]
            },
            {
               "long_name" : "Monroe County",
               "short_name" : "Monroe County",
               "types" : [ "administrative_area_level_2", "political" ]
            },
            {
               "long_name" : "Pennsylvania",
               "short_name" : "PA",
               "types" : [ "administrative_area_level_1", "political" ]
            },
            {
               "long_name" : "United States",
               "short_name" : "US",
               "types" : [ "country", "political" ]
            },
            {
               "long_name" : "18360",
               "short_name" : "18360",
               "types" : [ "postal_code" ]
            }
         ],
         "formatted_address" : "Park Avenue, Stroudsburg, PA 18360, USA",
         "geometry" : {
            "bounds" : {
               "northeast" : {
                  "lat" : 40.9841889,
                  "lng" : -75.18760279999999
               },
               "southwest" : {
                  "lat" : 40.978307,
                  "lng" : -75.1935196
               }
            },
            "location" : {
               "lat" : 40.9811345,
               "lng" : -75.1910002
            },
            "location_type" : "GEOMETRIC_CENTER",
            "viewport" : {
               "northeast" : {
                  "lat" : 40.9841889,
                  "lng" : -75.18760279999999
               },
               "southwest" : {
                  "lat" : 40.978307,
                  "lng" : -75.1935196
               }
            }
         },
         "partial_match" : true,
         "types" : [ "route" ]
      },
      {
         "address_components" : [
            {
               "long_name" : "Parklaan",
               "short_name" : "Parklaan",
               "types" : [ "route" ]
            },
            {
               "long_name" : "Turnhout",
               "short_name" : "Turnhout",
               "types" : [ "sublocality_level_1", "sublocality", "political" ]
            },
            {
               "long_name" : "Turnhout",
               "short_name" : "Turnhout",
               "types" : [ "locality", "political" ]
            },
            {
               "long_name" : "Antwerpen",
               "short_name" : "AN",
               "types" : [ "administrative_area_level_2", "political" ]
            },
            {
               "long_name" : "Vlaams Gewest",
               "short_name" : "Vlaams Gewest",
               "types" : [ "administrative_area_level_1", "political" ]
            },
            {
               "long_name" : "Belgium",
               "short_name" : "BE",
               "types" : [ "country", "political" ]
            },
            {
               "long_name" : "2300",
               "short_name" : "2300",
               "types" : [ "postal_code" ]
            }
         ],
         "formatted_address" : "Parklaan, 2300 Turnhout, Belgium",
         "geometry" : {
            "bounds" : {
               "northeast" : {
                  "lat" : 51.3213131,
                  "lng" : 4.9675907
               },
               "southwest" : {
                  "lat" : 51.311542,
                  "lng" : 4.9258161
               }
            },
            "location" : {
               "lat" : 51.31258589999999,
               "lng" : 4.9454041
            },
            "location_type" : "GEOMETRIC_CENTER",
            "viewport" : {
               "northeast" : {
                  "lat" : 51.3213131,
                  "lng" : 4.9675907
               },
               "southwest" : {
                  "lat" : 51.311542,
                  "lng" : 4.9258161
               }
            }
         },
         "partial_match" : true,
         "types" : [ "route" ]
      },
      {
         "address_components" : [
            {
               "long_name" : "Park Way",
               "short_name" : "Park Way",
               "types" : [ "route" ]
            },
            {
               "long_name" : "Fairfield",
               "short_name" : "Fairfield",
               "types" : [ "locality", "political" ]
            },
            {
               "long_name" : "Teton County",
               "short_name" : "Teton County",
               "types" : [ "administrative_area_level_2", "political" ]
            },
            {
               "long_name" : "Montana",
               "short_name" : "MT",
               "types" : [ "administrative_area_level_1", "political" ]
            },
            {
               "long_name" : "United States",
               "short_name" : "US",
               "types" : [ "country", "political" ]
            },
            {
               "long_name" : "59436",
               "short_name" : "59436",
               "types" : [ "postal_code" ]
            }
         ],
         "formatted_address" : "Park Way, Fairfield, MT 59436, USA",
         "geometry" : {
            "bounds" : {
               "northeast" : {
                  "lat" : 47.6186452,
                  "lng" : -111.9819135
               },
               "southwest" : {
                  "lat" : 47.6117827,
                  "lng" : -111.9866691
               }
            },
            "location" : {
               "lat" : 47.6156192,
               "lng" : -111.9845755
            },
            "location_type" : "GEOMETRIC_CENTER",
            "viewport" : {
               "northeast" : {
                  "lat" : 47.6186452,
                  "lng" : -111.9819135
               },
               "southwest" : {
                  "lat" : 47.6117827,
                  "lng" : -111.9866691
               }
            }
         },
         "partial_match" : true,
         "types" : [ "route" ]
      },
      {
         "address_components" : [
            {
               "long_name" : "Park Avenue",
               "short_name" : "Park Ave",
               "types" : [ "route" ]
            },
            {
               "long_name" : "Monte Vista",
               "short_name" : "Monte Vista",
               "types" : [ "locality", "political" ]
            },
            {
               "long_name" : "Rio Grande County",
               "short_name" : "Rio Grande County",
               "types" : [ "administrative_area_level_2", "political" ]
            },
            {
               "long_name" : "Colorado",
               "short_name" : "CO",
               "types" : [ "administrative_area_level_1", "political" ]
            },
            {
               "long_name" : "United States",
               "short_name" : "US",
               "types" : [ "country", "political" ]
            },
            {
               "long_name" : "81144",
               "short_name" : "81144",
               "types" : [ "postal_code" ]
            }
         ],
         "formatted_address" : "Park Avenue, Monte Vista, CO 81144, USA",
         "geometry" : {
            "bounds" : {
               "northeast" : {
                  "lat" : 37.5804802,
                  "lng" : -106.1383397
               },
               "southwest" : {
                  "lat" : 37.5780723,
                  "lng" : -106.1452896
               }
            },
            "location" : {
               "lat" : 37.5793465,
               "lng" : -106.1418672
            },
            "location_type" : "GEOMETRIC_CENTER",
            "viewport" : {
               "northeast" : {
                  "lat" : 37.5806252302915,
                  "lng" : -106.1383397
               },
               "southwest" : {
                  "lat" : 37.5779272697085,
                  "lng" : -106.1452896
               }
            }
         },
         "partial_match" : true,
         "types" : [ "route" ]
      },
      {
         "address_components" : [
            {
               "long_name" : "Park Terrace",
               "short_name" : "Park Terrace",
               "types" : [ "route" ]
            },
            {
               "long_name" : "Adelaide",
               "short_name" : "Adelaide",
               "types" : [ "colloquial_area", "locality", "political" ]
            },
            {
               "long_name" : "South Australia",
               "short_name" : "SA",
               "types" : [ "administrative_area_level_1", "political" ]
            },
            {
               "long_name" : "Australia",
               "short_name" : "AU",
               "types" : [ "country", "political" ]
            }
         ],
         "formatted_address" : "Park Terrace, Adelaide SA, Australia",
         "geometry" : {
            "bounds" : {
               "northeast" : {
                  "lat" : -34.899167,
                  "lng" : 138.5883344
               },
               "southwest" : {
                  "lat" : -34.9087183,
                  "lng" : 138.5766924
               }
            },
            "location" : {
               "lat" : -34.9041072,
               "lng" : 138.5825338
            },
            "location_type" : "GEOMETRIC_CENTER",
            "viewport" : {
               "northeast" : {
                  "lat" : -34.899167,
                  "lng" : 138.5883344
               },
               "southwest" : {
                  "lat" : -34.9087183,
                  "lng" : 138.5766924
               }
            }
         },
         "partial_match" : true,
         "types" : [ "route" ]
      },
      {
         "address_components" : [
            {
               "long_name" : "Park Avenue",
               "short_name" : "Park Ave",
               "types" : [ "route" ]
            },
            {
               "long_name" : "West Springfield",
               "short_name" : "West Springfield",
               "types" : [ "locality", "political" ]
            },
            {
               "long_name" : "Hampden County",
               "short_name" : "Hampden County",
               "types" : [ "administrative_area_level_2", "political" ]
            },
            {
               "long_name" : "Massachusetts",
               "short_name" : "MA",
               "types" : [ "administrative_area_level_1", "political" ]
            },
            {
               "long_name" : "United States",
               "short_name" : "US",
               "types" : [ "country", "political" ]
            },
            {
               "long_name" : "01089",
               "short_name" : "01089",
               "types" : [ "postal_code" ]
            }
         ],
         "formatted_address" : "Park Avenue, West Springfield, MA 01089, USA",
         "geometry" : {
            "bounds" : {
               "northeast" : {
                  "lat" : 42.1070874,
                  "lng" : -72.61585529999999
               },
               "southwest" : {
                  "lat" : 42.1035024,
                  "lng" : -72.62314789999999
               }
            },
            "location" : {
               "lat" : 42.1050038,
               "lng" : -72.620171
            },
            "location_type" : "GEOMETRIC_CENTER",
            "viewport" : {
               "northeast" : {
                  "lat" : 42.1070874,
                  "lng" : -72.61585529999999
               },
               "southwest" : {
                  "lat" : 42.1035024,
                  "lng" : -72.62314789999999
               }
            }
         },
         "partial_match" : true,
         "types" : [ "route" ]
      },
      {
         "address_components" : [
            {
               "long_name" : "Park Street",
               "short_name" : "Park St",
               "types" : [ "route" ]
            },
            {
               "long_name" : "Tupper Lake",
               "short_name" : "Tupper Lake",
               "types" : [ "locality", "political" ]
            },
            {
               "long_name" : "Tupper Lake",
               "short_name" : "Tupper Lake",
               "types" : [ "administrative_area_level_3", "political" ]
            },
            {
               "long_name" : "Franklin County",
               "short_name" : "Franklin County",
               "types" : [ "administrative_area_level_2", "political" ]
            },
            {
               "long_name" : "New York",
               "short_name" : "NY",
               "types" : [ "administrative_area_level_1", "political" ]
            },
            {
               "long_name" : "United States",
               "short_name" : "US",
               "types" : [ "country", "political" ]
            },
            {
               "long_name" : "12986",
               "short_name" : "12986",
               "types" : [ "postal_code" ]
            }
         ],
         "formatted_address" : "Park Street, Tupper Lake, NY 12986, USA",
         "geometry" : {
            "bounds" : {
               "northeast" : {
                  "lat" : 44.22565059999999,
                  "lng" : -74.44404829999999
               },
               "southwest" : {
                  "lat" : 44.223787,
                  "lng" : -74.4644
               }
            },
            "location" : {
               "lat" : 44.224826,
               "lng" : -74.45390399999999
            },
            "location_type" : "GEOMETRIC_CENTER",
            "viewport" : {
               "northeast" : {
                  "lat" : 44.22606778029149,
                  "lng" : -74.44404829999999
               },
               "southwest" : {
                  "lat" : 44.22336981970849,
                  "lng" : -74.4644
               }
            }
         },
         "partial_match" : true,
         "types" : [ "route" ]
      }
   ],
   "status" : "OK"
}
