{
   "results" : [
      {
         "address_components" : [
            {
               "long_name" : "Queens Way",
               "short_name" : "Queens Way",
               "types" : [ "route" ]
            },
            {
               "long_name" : "Long Beach",
               "short_name" : "Long Beach",
               "types" : [ "locality", "political" ]
            },
            {
               "long_name" : "Los Angeles County",
               "short_name" : "Los Angeles County",
               "types" : [ "administrative_area_level_2", "political" ]
            },
            {
               "long_name" : "California",
               "short_name" : "CA",
               "types" : [ "administrative_area_level_1", "political" ]
            },
            {
               "long_name" : "United States",
               "short_name" : "US",
               "types" : [ "country", "political" ]
            },
            {
               "long_name" : "90802",
               "short_name" : "90802",
               "types" : [ "postal_code" ]
            }
         ],
         "formatted_address" : "Queens Way, Long Beach, CA 90802, USA",
         "geometry" : {
            "bounds" : {
               "northeast" : {
                  "lat" : 33.7673881,
                  "lng" : -118.1976279
               },
               "southwest" : {
                  "lat" : 33.7585911,
                  "lng" : -118.2000815
               }
            },
            "location" : {
               "lat" : 33.7629809,
               "lng" : -118.1981385
            },
            "location_type" : "GEOMETRIC_CENTER",
            "viewport" : {
               "northeast" : {
                  "lat" : 33.7673881,
                  "lng" : -118.1975057197085
               },
               "southwest" : {
                  "lat" : 33.7585911,
                  "lng" : -118.2002036802915
               }
            }
         },
         "types" : [ "route" ]
      },
      {
         "address_components" : [
            {
               "long_name" : "Queen's Way",
               "short_name" : "Queen's Way",
               "types" : [ "route" ]
            },
            {
               "long_name" : "Katwe",
               "short_name" : "Katwe",
               "types" : [ "neighborhood", "political" ]
            },
            {
               "long_name" : "Makindye",
               "short_name" : "Makindye",
               "types" : [ "sublocality_level_1", "sublocality", "political" ]
            },
            {
               "long_name" : "Kampala",
               "short_name" : "Kampala",
               "types" : [ "locality", "political" ]
            },
            {
               "long_name" : "Kampala",
               "short_name" : "Kampala",
               "types" : [ "administrative_area_level_2", "political" ]
            },
            {
               "long_name" : "Central Region",
               "short_name" : "Central Region",
               "types" : [ "administrative_area_level_1", "political" ]
            },
            {
               "long_name" : "Uganda",
               "short_name" : "UG",
               "types" : [ "country", "political" ]
            }
         ],
         "formatted_address" : "Queen's Way, Kampala, Uganda",
         "geometry" : {
            "bounds" : {
               "northeast" : {
                  "lat" : 0.3028424,
                  "lng" : 32.5772043
               },
               "southwest" : {
                  "lat" : 0.2936996,
                  "lng" : 32.5731569
               }
            },
            "location" : {
               "lat" : 0.2979872,
               "lng" : 32.5769288
            },
            "location_type" : "GEOMETRIC_CENTER",
            "viewport" : {
               "northeast" : {
                  "lat" : 0.3028424,
                  "lng" : 32.5772043
               },
               "southwest" : {
                  "lat" : 0.2936996,
                  "lng" : 32.5731569
               }
            }
         },
         "types" : [ "route" ]
      },
      {
         "address_components" : [
            {
               "long_name" : "Queens Way",
               "short_name" : "Queens Way",
               "types" : [ "route" ]
            },
            {
               "long_name" : "Gladwin",
               "short_name" : "Gladwin",
               "types" : [ "locality", "political" ]
            },
            {
               "long_name" : "Butman",
               "short_name" : "Butman",
               "types" : [ "administrative_area_level_3", "political" ]
            },
            {
               "long_name" : "Gladwin County",
               "short_name" : "Gladwin County",
               "types" : [ "administrative_area_level_2", "political" ]
            },
            {
               "long_name" : "Michigan",
               "short_name" : "MI",
               "types" : [ "administrative_area_level_1", "political" ]
            },
            {
               "long_name" : "United States",
               "short_name" : "US",
               "types" : [ "country", "political" ]
            },
            {
               "long_name" : "48624",
               "short_name" : "48624",
               "types" : [ "postal_code" ]
            }
         ],
         "formatted_address" : "Queens Way, Gladwin, MI 48624, USA",
         "geometry" : {
            "bounds" : {
               "northeast" : {
                  "lat" : 44.1205572,
                  "lng" : -84.45191369999999
               },
               "southwest" : {
                  "lat" : 44.1095877,
                  "lng" : -84.4678759
               }
            },
            "location" : {
               "lat" : 44.1148083,
               "lng" : -84.4642934
            },
            "location_type" : "GEOMETRIC_CENTER",
            "viewport" : {
               "northeast" : {
                  "lat" : 44.1205572,
                  "lng" : -84.45191369999999
               },
               "southwest" : {
                  "lat" : 44.1095877,
                  "lng" : -84.4678759
               }
            }
         },
         "types" : [ "route" ]
      },
      {
         "address_components" : [
            {
               "long_name" : "Queens Way",
               "short_name" : "Queens Way",
               "types" : [ "route" ]
            },
            {
               "long_name" : "Melbourne",
               "short_name" : "Melbourne",
               "types" : [ "colloquial_area", "locality", "political" ]
            },
            {
               "long_name" : "Victoria",
               "short_name" : "VIC",
               "types" : [ "administrative_area_level_1", "political" ]
            },
            {
               "long_name" : "Australia",
               "short_name" : "AU",
               "types" : [ "country", "political" ]
            }
         ],
         "formatted_address" : "Queens Way, Melbourne VIC, Australia",
         "geometry" : {
            "bounds" : {
               "northeast" : {
                  "lat" : -37.8555569,
                  "lng" : 144.9922556
               },
               "southwest" : {
                  "lat" : -37.8577512,
                  "lng" : 144.9833543
               }
            },
            "location" : {
               "lat" : -37.8563491,
               "lng" : 144.9879186
            },
            "location_type" : "GEOMETRIC_CENTER",
            "viewport" : {
               "northeast" : {
                  "lat" : -37.8553050697085,
                  "lng" : 144.9922556
               },
               "southwest" : {
                  "lat" : -37.8580030302915,
                  "lng" : 144.9833543
               }
            }
         },
         "types" : [ "route" ]
      },
      {
         "address_components" : [
            {
               "long_name" : "Queen's Way",
               "short_name" : "Queen's Way",
               "types" : [ "route" ]
            },
            {
               "long_name" : "Warrenton",
               "short_name" : "Warrenton",
               "types" : [ "locality", "political" ]
            },
            {
               "long_name" : "Warren County",
               "short_name" : "Warren County",
               "types" : [ "administrative_area_level_2", "political" ]
            },
            {
               "long_name" : "Georgia",
               "short_name" : "GA",
               "types" : [ "administrative_area_level_1", "political" ]
            },
            {
               "long_name" : "United States",
               "short_name" : "US",
               "types" : [ "country", "political" ]
            },
            {
               "long_name" : "30828",
               "short_name" : "30828",
               "types" : [ "postal_code" ]
            }
         ],
         "formatted_address" : "Queen's Way, Warrenton, GA 30828, USA",
         "geometry" : {
            "bounds" : {
               "northeast" : {
                  "lat" : 33.4121698,
                  "lng" : -82.63443780000001
               },
               "southwest" : {
                  "lat" : 33.4064911,
                  "lng" : -82.63655279999999
               }
            },
            "location" : {
               "lat" : 33.4094812,
               "lng" : -82.63468570000001
            },
            "location_type" : "GEOMETRIC_CENTER",
            "viewport" : {
               "northeast" : {
                  "lat" : 33.4121698,
                  "lng" : -82.63414631970849
               },
               "southwest" : {
                  "lat" : 33.4064911,
                  "lng" : -82.63684428029151
               }
            }
         },
         "types" : [ "route" ]
      },
      {
         "address_components" : [
            {
               "long_name" : "Queen's Way",
               "short_name" : "Queen's Way",
               "types" : [ "route" ]
            },
            {
               "long_name" : "Newport",
               "short_name" : "Newport",
               "types" : [ "locality", "political" ]
            },
            {
               "long_name" : "Newport",
               "short_name" : "Newport",
               "types" : [ "postal_town" ]
            },
            {
               "long_name" : "Newport",
               "short_name" : "Newport",
               "types" : [ "administrative_area_level_2", "political" ]
            },
            {
               "long_name" : "United Kingdom",
               "short_name" : "GB",
               "types" : [ "country", "political" ]
            },
            {
               "long_name" : "NP19 4QZ",
               "short_name" : "NP19 4QZ",
               "types" : [ "postal_code" ]
            }
         ],
         "formatted_address" : "Queen's Way, Newport, Newport NP19 4QZ, UK",
         "geometry" : {
            "bounds" : {
               "northeast" : {
                  "lat" : 51.5739408,
                  "lng" : -2.8683266
               },
               "southwest" : {
                  "lat" : 51.57009100000001,
                  "lng" : -2.9410451
               }
            },
            "location" : {
               "lat" : 51.5716806,
               "lng" : -2.9045099
            },
            "location_type" : "GEOMETRIC_CENTER",
            "viewport" : {
               "northeast" : {
                  "lat" : 51.5739408,
                  "lng" : -2.8683266
               },
               "southwest" : {
                  "lat" : 51.57009100000001,
                  "lng" : -2.9410451
               }
            }
         },
         "types" : [ "route" ]
      },
      {
         "address_components" : [
            {
               "long_name" : "Queens Way",
               "short_name" : "Queens Way",
               "types" : [ "route" ]
            },
            {
               "long_name" : "North Royalton",
               "short_name" : "North Royalton",
               "types" : [ "locality", "political" ]
            },
            {
               "long_name" : "Cuyahoga County",
               "short_name" : "Cuyahoga County",
               "types" : [ "administrative_area_level_2", "political" ]
            },
            {
               "long_name" : "Ohio",
               "short_name" : "OH",
               "types" : [ "administrative_area_level_1", "political" ]
            },
            {
               "long_name" : "United States",
               "short_name" : "US",
               "types" : [ "country", "political" ]
            },
            {
               "long_name" : "44133",
               "short_name" : "44133",
               "types" : [ "postal_code" ]
            }
         ],
         "formatted_address" : "Queens Way, North Royalton, OH 44133, USA",
         "geometry" : {
            "bounds" : {
               "northeast" : {
                  "lat" : 41.335907,
                  "lng" : -81.726691
               },
               "southwest" : {
                  "lat" : 41.3323498,
                  "lng" : -81.73603589999999
               }
            },
            "location" : {
               "lat" : 41.335536,
               "lng" : -81.73190289999999
            },
            "location_type" : "GEOMETRIC_CENTER",
            "viewport" : {
               "northeast" : {
                  "lat" : 41.335907,
                  "lng" : -81.726691
               },
               "southwest" : {
                  "lat" : 41.3323498,
                  "lng" : -81.73603589999999
               }
            }
         },
         "types" : [ "route" ]
      },
      {
         "address_components" : [
            {
               "long_name" : "Queens Way",
               "short_name" : "Queens Way",
               "types" : [ "route" ]
            },
            {
               "long_name" : "Kunkletown",
               "short_name" : "Kunkletown",
               "types" : [ "locality", "political" ]
            },
            {
               "long_name" : "Polk",
               "short_name" : "Polk",
               "types" : [ "administrative_area_level_3", "political" ]
            },
            {
               "long_name" : "Monroe County",
               "short_name" : "Monroe County",
               "types" : [ "administrative_area_level_2", "political" ]
            },
            {
               "long_name" : "Pennsylvania",
               "short_name" : "PA",
               "types" : [ "administrative_area_level_1", "political" ]
            },
            {
               "long_name" : "United States",
               "short_name" : "US",
               "types" : [ "country", "political" ]
            },
            {
               "long_name" : "18058",
               "short_name" : "18058",
               "types" : [ "postal_code" ]
            }
         ],
         "formatted_address" : "Queens Way, Kunkletown, PA 18058, USA",
         "geometry" : {
            "bounds" : {
               "northeast" : {
                  "lat" : 40.9711969,
                  "lng" : -75.522784
               },
               "southwest" : {
                  "lat" : 40.9599886,
                  "lng" : -75.5238768
               }
            },
            "location" : {
               "lat" : 40.9674607,
               "lng" : -75.52302399999999
            },
            "location_type" : "GEOMETRIC_CENTER",
            "viewport" : {
               "northeast" : {
                  "lat" : 40.9711969,
                  "lng" : -75.5219814197085
               },
               "southwest" : {
                  "lat" : 40.9599886,
                  "lng" : -75.5246793802915
               }
            }
         },
         "types" : [ "route" ]
      },
      {
         "address_components" : [
            {
               "long_name" : "Queens Way",
               "short_name" : "Queens Way",
               "types" : [ "route" ]
            },
            {
               "long_name" : "Thousand Oaks",
               "short_name" : "Thousand Oaks",
               "types" : [ "locality", "political" ]
            },
            {
               "long_name" : "Ventura County",
               "short_name" : "Ventura County",
               "types" : [ "administrative_area_level_2", "political" ]
            },
            {
               "long_name" : "California",
               "short_name" : "CA",
               "types" : [ "administrative_area_level_1", "political" ]
            },
            {
               "long_name" : "United States",
               "short_name" : "US",
               "types" : [ "country", "political" ]
            },
            {
               "long_name" : "91362",
               "short_name" : "91362",
               "types" : [ "postal_code" ]
            }
         ],
         "formatted_address" : "Queens Way, Thousand Oaks, CA 91362, USA",
         "geometry" : {
            "bounds" : {
               "northeast" : {
                  "lat" : 34.219706,
                  "lng" : -118.828196
               },
               "southwest" : {
                  "lat" : 34.215883,
                  "lng" : -118.831856
               }
            },
            "location" : {
               "lat" : 34.217945,
               "lng" : -118.828973
            },
            "location_type" : "GEOMETRIC_CENTER",
            "viewport" : {
               "northeast" : {
                  "lat" : 34.219706,
                  "lng" : -118.828196
               },
               "southwest" : {
                  "lat" : 34.215883,
                  "lng" : -118.831856
               }
            }
         },
         "types" : [ "route" ]
      },
      {
         "address_components" : [
            {
               "long_name" : "Queens Way",
               "short_name" : "Queens Way",
               "types" : [ "route" ]
            },
            {
               "long_name" : "Mark Twain National Forest",
               "short_name" : "Mark Twain National Forest",
               "types" : [ "establishment" ]
            },
            {
               "long_name" : "Kimberling City",
               "short_name" : "Kimberling City",
               "types" : [ "locality", "political" ]
            },
            {
               "long_name" : "Ruth B Rural",
               "short_name" : "Ruth B Rural",
               "types" : [ "administrative_area_level_3", "political" ]
            },
            {
               "long_name" : "Stone County",
               "short_name" : "Stone County",
               "types" : [ "administrative_area_level_2", "political" ]
            },
            {
               "long_name" : "Missouri",
               "short_name" : "MO",
               "types" : [ "administrative_area_level_1", "political" ]
            },
            {
               "long_name" : "United States",
               "short_name" : "US",
               "types" : [ "country", "political" ]
            },
            {
               "long_name" : "65686",
               "short_name" : "65686",
               "types" : [ "postal_code" ]
            }
         ],
         "formatted_address" : "Mark Twain National Forest, Queens Way, Kimberling City, MO 65686, USA",
         "geometry" : {
            "bounds" : {
               "northeast" : {
                  "lat" : 36.632494,
                  "lng" : -93.454697
               },
               "southwest" : {
                  "lat" : 36.6276391,
                  "lng" : -93.4561355
               }
            },
            "location" : {
               "lat" : 36.6301307,
               "lng" : -93.455489
            },
            "location_type" : "GEOMETRIC_CENTER",
            "viewport" : {
               "northeast" : {
                  "lat" : 36.632494,
                  "lng" : -93.45406726970849
               },
               "southwest" : {
                  "lat" : 36.6276391,
                  "lng" : -93.45676523029151
               }
            }
         },
         "types" : [ "route" ]
      },
      {
         "address_components" : [
            {
               "long_name" : "Queens Way",
               "short_name" : "Queens Way",
               "types" : [ "route" ]
            },
            {
               "long_name" : "Milton",
               "short_name" : "Milton",
               "types" : [ "locality", "political" ]
            },
            {
               "long_name" : "Pierce County",
               "short_name" : "Pierce County",
               "types" : [ "administrative_area_level_2", "political" ]
            },
            {
               "long_name" : "Washington",
               "short_name" : "WA",
               "types" : [ "administrative_area_level_1", "political" ]
            },
            {
               "long_name" : "United States",
               "short_name" : "US",
               "types" : [ "country", "political" ]
            },
            {
               "long_name" : "98354",
               "short_name" : "98354",
               "types" : [ "postal_code" ]
            }
         ],
         "formatted_address" : "Queens Way, Milton, WA 98354, USA",
         "geometry" : {
            "bounds" : {
               "northeast" : {
                  "lat" : 47.2455611,
                  "lng" : -122.2939004
               },
               "southwest" : {
                  "lat" : 47.24278,
                  "lng" : -122.3028946
               }
            },
            "location" : {
               "lat" : 47.2440642,
               "lng" : -122.2983359
            },
            "location_type" : "GEOMETRIC_CENTER",
            "viewport" : {
               "northeast" : {
                  "lat" : 47.2455611,
                  "lng" : -122.2939004
               },
               "southwest" : {
                  "lat" : 47.24278,
                  "lng" : -122.3028946
               }
            }
         },
         "types" : [ "route" ]
      },
      {
         "address_components" : [
            {
               "long_name" : "Queens Way",
               "short_name" : "Queens Way",
               "types" : [ "route" ]
            },
            {
               "long_name" : "Plattsmouth",
               "short_name" : "Plattsmouth",
               "types" : [ "locality", "political" ]
            },
            {
               "long_name" : "Cass County",
               "short_name" : "Cass County",
               "types" : [ "administrative_area_level_2", "political" ]
            },
            {
               "long_name" : "Nebraska",
               "short_name" : "NE",
               "types" : [ "administrative_area_level_1", "political" ]
            },
            {
               "long_name" : "United States",
               "short_name" : "US",
               "types" : [ "country", "political" ]
            },
            {
               "long_name" : "68048",
               "short_name" : "68048",
               "types" : [ "postal_code" ]
            }
         ],
         "formatted_address" : "Queens Way, Plattsmouth, NE 68048, USA",
         "geometry" : {
            "bounds" : {
               "northeast" : {
                  "lat" : 41.0256742,
                  "lng" : -95.8845592
               },
               "southwest" : {
                  "lat" : 41.0198547,
                  "lng" : -95.886563
               }
            },
            "location" : {
               "lat" : 41.0226352,
               "lng" : -95.8852059
            },
            "location_type" : "GEOMETRIC_CENTER",
            "viewport" : {
               "northeast" : {
                  "lat" : 41.0256742,
                  "lng" : -95.88421211970849
               },
               "southwest" : {
                  "lat" : 41.0198547,
                  "lng" : -95.8869100802915
               }
            }
         },
         "types" : [ "route" ]
      },
      {
         "address_components" : [
            {
               "long_name" : "Queens Way",
               "short_name" : "Queens Way",
               "types" : [ "route" ]
            },
            {
               "long_name" : "Ellabell",
               "short_name" : "Ellabell",
               "types" : [ "locality", "political" ]
            },
            {
               "long_name" : "Bryan County",
               "short_name" : "Bryan County",
               "types" : [ "administrative_area_level_2", "political" ]
            },
            {
               "long_name" : "Georgia",
               "short_name" : "GA",
               "types" : [ "administrative_area_level_1", "political" ]
            },
            {
               "long_name" : "United States",
               "short_name" : "US",
               "types" : [ "country", "political" ]
            },
            {
               "long_name" : "31308",
               "short_name" : "31308",
               "types" : [ "postal_code" ]
            }
         ],
         "formatted_address" : "Queens Way, Ellabell, GA 31308, USA",
         "geometry" : {
            "bounds" : {
               "northeast" : {
                  "lat" : 32.2013729,
                  "lng" : -81.42673300000001
               },
               "southwest" : {
                  "lat" : 32.1942976,
                  "lng" : -81.42979099999999
               }
            },
            "location" : {
               "lat" : 32.19744980000001,
               "lng" : -81.4281898
            },
            "location_type" : "GEOMETRIC_CENTER",
            "viewport" : {
               "northeast" : {
                  "lat" : 32.2013729,
                  "lng" : -81.42673300000001
               },
               "southwest" : {
                  "lat" : 32.1942976,
                  "lng" : -81.42979099999999
               }
            }
         },
         "types" : [ "route" ]
      },
      {
         "address_components" : [
            {
               "long_name" : "Queens Way",
               "short_name" : "Queens Way",
               "types" : [ "route" ]
            },
            {
               "long_name" : "East Naples",
               "short_name" : "East Naples",
               "types" : [ "neighborhood", "political" ]
            },
            {
               "long_name" : "Naples",
               "short_name" : "Naples",
               "types" : [ "locality", "political" ]
            },
            {
               "long_name" : "Collier County",
               "short_name" : "Collier County",
               "types" : [ "administrative_area_level_2", "political" ]
            },
            {
               "long_name" : "Florida",
               "short_name" : "FL",
               "types" : [ "administrative_area_level_1", "political" ]
            },
            {
               "long_name" : "United States",
               "short_name" : "US",
               "types" : [ "country", "political" ]
            },
            {
               "long_name" : "34112",
               "short_name" : "34112",
               "types" : [ "postal_code" ]
            }
         ],
         "formatted_address" : "Queens Way, Naples, FL 34112, USA",
         "geometry" : {
            "bounds" : {
               "northeast" : {
                  "lat" : 26.130189,
                  "lng" : -81.74285709999999
               },
               "southwest" : {
                  "lat" : 26.1245016,
                  "lng" : -81.747998
               }
            },
            "location" : {
               "lat" : 26.1271406,
               "lng" : -81.74497789999999
            },
            "location_type" : "GEOMETRIC_CENTER",
            "viewport" : {
               "northeast" : {
                  "lat" : 26.130189,
                  "lng" : -81.74285709999999
               },
               "southwest" : {
                  "lat" : 26.1245016,
                  "lng" : -81.747998
               }
            }
         },
         "types" : [ "route" ]
      },
      {
         "address_components" : [
            {
               "long_name" : "Queens Way",
               "short_name" : "Queens Way",
               "types" : [ "route" ]
            },
            {
               "long_name" : "Bedford",
               "short_name" : "Bedford",
               "types" : [ "locality", "political" ]
            },
            {
               "long_name" : "Tarrant County",
               "short_name" : "Tarrant County",
               "types" : [ "administrative_area_level_2", "political" ]
            },
            {
               "long_name" : "Texas",
               "short_name" : "TX",
               "types" : [ "administrative_area_level_1", "political" ]
            },
            {
               "long_name" : "United States",
               "short_name" : "US",
               "types" : [ "country", "political" ]
            },
            {
               "long_name" : "76021",
               "short_name" : "76021",
               "types" : [ "postal_code" ]
            }
         ],
         "formatted_address" : "Queens Way, Bedford, TX 76021, USA",
         "geometry" : {
            "bounds" : {
               "northeast" : {
                  "lat" : 32.842025,
                  "lng" : -97.15348299999999
               },
               "southwest" : {
                  "lat" : 32.840743,
                  "lng" : -97.1597584
               }
            },
            "location" : {
               "lat" : 32.8414701,
               "lng" : -97.15647179999999
            },
            "location_type" : "GEOMETRIC_CENTER",
            "viewport" : {
               "northeast" : {
                  "lat" : 32.84273298029149,
                  "lng" : -97.15348299999999
               },
               "southwest" : {
                  "lat" : 32.84003501970849,
                  "lng" : -97.1597584
               }
            }
         },
         "types" : [ "route" ]
      },
      {
         "address_components" : [
            {
               "long_name" : "Queens Way",
               "short_name" : "Queens Way",
               "types" : [ "route" ]
            },
            {
               "long_name" : "Necedah",
               "short_name" : "Necedah",
               "types" : [ "locality", "political" ]
            },
            {
               "long_name" : "Necedah",
               "short_name" : "Necedah",
               "types" : [ "administrative_area_level_3", "political" ]
            },
            {
               "long_name" : "Juneau County",
               "short_name" : "Juneau County",
               "types" : [ "administrative_area_level_2", "political" ]
            },
            {
               "long_name" : "Wisconsin",
               "short_name" : "WI",
               "types" : [ "administrative_area_level_1", "political" ]
            },
            {
               "long_name" : "United States",
               "short_name" : "US",
               "types" : [ "country", "political" ]
            },
            {
               "long_name" : "54646",
               "short_name" : "54646",
               "types" : [ "postal_code" ]
            }
         ],
         "formatted_address" : "Queens Way, Necedah, WI 54646, USA",
         "geometry" : {
            "bounds" : {
               "northeast" : {
                  "lat" : 44.0246442,
                  "lng" : -90.04592100000001
               },
               "southwest" : {
                  "lat" : 44.018696,
                  "lng" : -90.049809
               }
            },
            "location" : {
               "lat" : 44.02121,
               "lng" : -90.04663499999999
            },
            "location_type" : "GEOMETRIC_CENTER",
            "viewport" : {
               "northeast" : {
                  "lat" : 44.0246442,
                  "lng" : -90.04592100000001
               },
               "southwest" : {
                  "lat" : 44.018696,
                  "lng" : -90.049809
               }
            }
         },
         "types" : [ "route" ]
      },
      {
         "address_components" : [
            {
               "long_name" : "Queens Way",
               "short_name" : "Queens Way",
               "types" : [ "route" ]
            },
            {
               "long_name" : "Newark",
               "short_name" : "Newark",
               "types" : [ "locality", "political" ]
            },
            {
               "long_name" : "New Castle County",
               "short_name" : "New Castle County",
               "types" : [ "administrative_area_level_2", "political" ]
            },
            {
               "long_name" : "Delaware",
               "short_name" : "DE",
               "types" : [ "administrative_area_level_1", "political" ]
            },
            {
               "long_name" : "United States",
               "short_name" : "US",
               "types" : [ "country", "political" ]
            },
            {
               "long_name" : "19713",
               "short_name" : "19713",
               "types" : [ "postal_code" ]
            }
         ],
         "formatted_address" : "Queens Way, Newark, DE 19713, USA",
         "geometry" : {
            "bounds" : {
               "northeast" : {
                  "lat" : 39.683356,
                  "lng" : -75.6821499
               },
               "southwest" : {
                  "lat" : 39.680983,
                  "lng" : -75.686949
               }
            },
            "location" : {
               "lat" : 39.6815117,
               "lng" : -75.6846752
            },
            "location_type" : "GEOMETRIC_CENTER",
            "viewport" : {
               "northeast" : {
                  "lat" : 39.6835184802915,
                  "lng" : -75.6821499
               },
               "southwest" : {
                  "lat" : 39.6808205197085,
                  "lng" : -75.686949
               }
            }
         },
         "types" : [ "route" ]
      },
      {
         "address_components" : [
            {
               "long_name" : "Queens Way",
               "short_name" : "Queens Way",
               "types" : [ "route" ]
            },
            {
               "long_name" : "Grand Prairie",
               "short_name" : "Grand Prairie",
               "types" : [ "locality", "political" ]
            },
            {
               "long_name" : "Dallas County",
               "short_name" : "Dallas County",
               "types" : [ "administrative_area_level_2", "political" ]
            },
            {
               "long_name" : "Texas",
               "short_name" : "TX",
               "types" : [ "administrative_area_level_1", "political" ]
            },
            {
               "long_name" : "United States",
               "short_name" : "US",
               "types" : [ "country", "political" ]
            },
            {
               "long_name" : "75052",
               "short_name" : "75052",
               "types" : [ "postal_code" ]
            }
         ],
         "formatted_address" : "Queens Way, Grand Prairie, TX 75052, USA",
         "geometry" : {
            "bounds" : {
               "northeast" : {
                  "lat" : 32.661562,
                  "lng" : -96.99744199999999
               },
               "southwest" : {
                  "lat" : 32.660649,
                  "lng" : -97.0030539
               }
            },
            "location" : {
               "lat" : 32.6608171,
               "lng" : -97.0006923
            },
            "location_type" : "GEOMETRIC_CENTER",
            "viewport" : {
               "northeast" : {
                  "lat" : 32.6624544802915,
                  "lng" : -96.99744199999999
               },
               "southwest" : {
                  "lat" : 32.6597565197085,
                  "lng" : -97.0030539
               }
            }
         },
         "types" : [ "route" ]
      },
      {
         "address_components" : [
            {
               "long_name" : "Queens Way",
               "short_name" : "Queens Way",
               "types" : [ "route" ]
            },
            {
               "long_name" : "Oshtemo",
               "short_name" : "Oshtemo",
               "types" : [ "administrative_area_level_3", "political" ]
            },
            {
               "long_name" : "Kalamazoo County",
               "short_name" : "Kalamazoo County",
               "types" : [ "administrative_area_level_2", "political" ]
            },
            {
               "long_name" : "Michigan",
               "short_name" : "MI",
               "types" : [ "administrative_area_level_1", "political" ]
            },
            {
               "long_name" : "United States",
               "short_name" : "US",
               "types" : [ "country", "political" ]
            },
            {
               "long_name" : "49009",
               "short_name" : "49009",
               "types" : [ "postal_code" ]
            }
         ],
         "formatted_address" : "Queens Way, Oshtemo, MI 49009, USA",
         "geometry" : {
            "bounds" : {
               "northeast" : {
                  "lat" : 42.38028389999999,
                  "lng" : -85.67302169999999
               },
               "southwest" : {
                  "lat" : 42.3798864,
                  "lng" : -85.6788651
               }
            },
            "location" : {
               "lat" : 42.3801876,
               "lng" : -85.6759563
            },
            "location_type" : "GEOMETRIC_CENTER",
            "viewport" : {
               "northeast" : {
                  "lat" : 42.3814341302915,
                  "lng" : -85.67302169999999
               },
               "southwest" : {
                  "lat" : 42.3787361697085,
                  "lng" : -85.6788651
               }
            }
         },
         "types" : [ "route" ]
      },
      {
         "address_components" : [
            {
               "long_name" : "Queens Way",
               "short_name" : "Queens Way",
               "types" : [ "route" ]
            },
            {
               "long_name" : "Canton",
               "short_name" : "Canton",
               "types" : [ "locality", "political" ]
            },
            {
               "long_name" : "Wayne County",
               "short_name" : "Wayne County",
               "types" : [ "administrative_area_level_2", "political" ]
            },
            {
               "long_name" : "Michigan",
               "short_name" : "MI",
               "types" : [ "administrative_area_level_1", "political" ]
            },
            {
               "long_name" : "United States",
               "short_name" : "US",
               "types" : [ "country", "political" ]
            },
            {
               "long_name" : "48188",
               "short_name" : "48188",
               "types" : [ "postal_code" ]
            }
         ],
         "formatted_address" : "Queens Way, Canton, MI 48188, USA",
         "geometry" : {
            "bounds" : {
               "northeast" : {
                  "lat" : 42.3080034,
                  "lng" : -83.460707
               },
               "southwest" : {
                  "lat" : 42.3015331,
                  "lng" : -83.46213
               }
            },
            "location" : {
               "lat" : 42.3046662,
               "lng" : -83.46155209999999
            },
            "location_type" : "GEOMETRIC_CENTER",
            "viewport" : {
               "northeast" : {
                  "lat" : 42.3080034,
                  "lng" : -83.4600695197085
               },
               "southwest" : {
                  "lat" : 42.3015331,
                  "lng" : -83.4627674802915
               }
            }
         },
         "types" : [ "route" ]
      },
      {
         "address_components" : [
            {
               "long_name" : "Queens Way",
               "short_name" : "Queens Way",
               "types" : [ "route" ]
            },
            {
               "long_name" : "Owensboro",
               "short_name" : "Owensboro",
               "types" : [ "locality", "political" ]
            },
            {
               "long_name" : "Daviess County",
               "short_name" : "Daviess County",
               "types" : [ "administrative_area_level_2", "political" ]
            },
            {
               "long_name" : "Kentucky",
               "short_name" : "KY",
               "types" : [ "administrative_area_level_1", "political" ]
            },
            {
               "long_name" : "United States",
               "short_name" : "US",
               "types" : [ "country", "political" ]
            },
            {
               "long_name" : "42301",
               "short_name" : "42301",
               "types" : [ "postal_code" ]
            }
         ],
         "formatted_address" : "Queens Way, Owensboro, KY 42301, USA",
         "geometry" : {
            "bounds" : {
               "northeast" : {
                  "lat" : 37.7410862,
                  "lng" : -87.12899849999999
               },
               "southwest" : {
                  "lat" : 37.736299,
                  "lng" : -87.131281
               }
            },
            "location" : {
               "lat" : 37.7384037,
               "lng" : -87.1306536
            },
            "location_type" : "GEOMETRIC_CENTER",
            "viewport" : {
               "northeast" : {
                  "lat" : 37.7410862,
                  "lng" : -87.12879076970849
               },
               "southwest" : {
                  "lat" : 37.736299,
                  "lng" : -87.13148873029151
               }
            }
         },
         "types" : [ "route" ]
      },
      {
         "address_components" : [
            {
               "long_name" : "Queens Way",
               "short_name" : "Queens Way",
               "types" : [ "route" ]
            },
            {
               "long_name" : "Champaign",
               "short_name" : "Champaign",
               "types" : [ "locality", "political" ]
            },
            {
               "long_name" : "Champaign County",
               "short_name" : "Champaign County",
               "types" : [ "administrative_area_level_2", "political" ]
            },
            {
               "long_name" : "Illinois",
               "short_name" : "IL",
               "types" : [ "administrative_area_level_1", "political" ]
            },
            {
               "long_name" : "United States",
               "short_name" : "US",
               "types" : [ "country", "political" ]
            },
            {
               "long_name" : "61821",
               "short_name" : "61821",
               "types" : [ "postal_code" ]
            }
         ],
         "formatted_address" : "Queens Way, Champaign, IL 61821, USA",
         "geometry" : {
            "bounds" : {
               "northeast" : {
                  "lat" : 40.14499,
                  "lng" : -88.26888799999999
               },
               "southwest" : {
                  "lat" : 40.143633,
                  "lng" : -88.27447300000001
               }
            },
            "location" : {
               "lat" : 40.14416,
               "lng" : -88.2716839
            },
            "location_type" : "GEOMETRIC_CENTER",
            "viewport" : {
               "northeast" : {
                  "lat" : 40.1456604802915,
                  "lng" : -88.26888799999999
               },
               "southwest" : {
                  "lat" : 40.1429625197085,
                  "lng" : -88.27447300000001
               }
            }
         },
         "types" : [ "route" ]
      },
      {
         "address_components" : [
            {
               "long_name" : "Queens Way",
               "short_name" : "Queens Way",
               "types" : [ "route" ]
            },
            {
               "long_name" : "Hamilton",
               "short_name" : "Hamilton",
               "types" : [ "locality", "political" ]
            },
            {
               "long_name" : "Ravalli County",
               "short_name" : "Ravalli County",
               "types" : [ "administrative_area_level_2", "political" ]
            },
            {
               "long_name" : "Montana",
               "short_name" : "MT",
               "types" : [ "administrative_area_level_1", "political" ]
            },
            {
               "long_name" : "United States",
               "short_name" : "US",
               "types" : [ "country", "political" ]
            },
            {
               "long_name" : "59840",
               "short_name" : "59840",
               "types" : [ "postal_code" ]
            }
         ],
         "formatted_address" : "Queens Way, Hamilton, MT 59840, USA",
         "geometry" : {
            "bounds" : {
               "northeast" : {
                  "lat" : 46.324845,
                  "lng" : -114.192089
               },
               "southwest" : {
                  "lat" : 46.32339,
                  "lng" : -114.203543
               }
            },
            "location" : {
               "lat" : 46.3238681,
               "lng" : -114.1984547
            },
            "location_type" : "GEOMETRIC_CENTER",
            "viewport" : {
               "northeast" : {
                  "lat" : 46.3254664802915,
                  "lng" : -114.192089
               },
               "southwest" : {
                  "lat" : 46.3227685197085,
                  "lng" : -114.203543
               }
            }
         },
         "types" : [ "route" ]
      },
      {
         "address_components" : [
            {
               "long_name" : "Queens Way",
               "short_name" : "Queens Way",
               "types" : [ "route" ]
            },
            {
               "long_name" : "Fairbanks",
               "short_name" : "Fairbanks",
               "types" : [ "locality", "political" ]
            },
            {
               "long_name" : "Fairbanks North Star",
               "short_name" : "Fairbanks North Star",
               "types" : [ "administrative_area_level_2", "political" ]
            },
            {
               "long_name" : "Alaska",
               "short_name" : "AK",
               "types" : [ "administrative_area_level_1", "political" ]
            },
            {
               "long_name" : "United States",
               "short_name" : "US",
               "types" : [ "country", "political" ]
            },
            {
               "long_name" : "99701",
               "short_name" : "99701",
               "types" : [ "postal_code" ]
            }
         ],
         "formatted_address" : "Queens Way, Fairbanks, AK 99701, USA",
         "geometry" : {
            "bounds" : {
               "northeast" : {
                  "lat" : 64.810723,
                  "lng" : -147.7310007
               },
               "southwest" : {
                  "lat" : 64.808937,
                  "lng" : -147.7445965
               }
            },
            "location" : {
               "lat" : 64.8094133,
               "lng" : -147.7406274
            },
            "location_type" : "GEOMETRIC_CENTER",
            "viewport" : {
               "northeast" : {
                  "lat" : 64.81117898029152,
                  "lng" : -147.7310007
               },
               "southwest" : {
                  "lat" : 64.80848101970849,
                  "lng" : -147.7445965
               }
            }
         },
         "types" : [ "route" ]
      },
      {
         "address_components" : [
            {
               "long_name" : "Queens Way",
               "short_name" : "Queens Way",
               "types" : [ "route" ]
            },
            {
               "long_name" : "Barrington Oaks",
               "short_name" : "Barrington Oaks",
               "types" : [ "neighborhood", "political" ]
            },
            {
               "long_name" : "Austin",
               "short_name" : "Austin",
               "types" : [ "locality", "political" ]
            },
            {
               "long_name" : "Texas",
               "short_name" : "TX",
               "types" : [ "administrative_area_level_1", "political" ]
            },
            {
               "long_name" : "United States",
               "short_name" : "US",
               "types" : [ "country", "political" ]
            },
            {
               "long_name" : "78759",
               "short_name" : "78759",
               "types" : [ "postal_code" ]
            }
         ],
         "formatted_address" : "Queens Way, Austin, TX 78759, USA",
         "geometry" : {
            "bounds" : {
               "northeast" : {
                  "lat" : 30.4322015,
                  "lng" : -97.7745956
               },
               "southwest" : {
                  "lat" : 30.42936419999999,
                  "lng" : -97.776605
               }
            },
            "location" : {
               "lat" : 30.4307988,
               "lng" : -97.77586459999999
            },
            "location_type" : "GEOMETRIC_CENTER",
            "viewport" : {
               "northeast" : {
                  "lat" : 30.4322015,
                  "lng" : -97.7742513197085
               },
               "southwest" : {
                  "lat" : 30.42936419999999,
                  "lng" : -97.7769492802915
               }
            }
         },
         "types" : [ "route" ]
      },
      {
         "address_components" : [
            {
               "long_name" : "Queens Way",
               "short_name" : "Queens Way",
               "types" : [ "route" ]
            },
            {
               "long_name" : "Monona",
               "short_name" : "Monona",
               "types" : [ "locality", "political" ]
            },
            {
               "long_name" : "Dane County",
               "short_name" : "Dane County",
               "types" : [ "administrative_area_level_2", "political" ]
            },
            {
               "long_name" : "Wisconsin",
               "short_name" : "WI",
               "types" : [ "administrative_area_level_1", "political" ]
            },
            {
               "long_name" : "United States",
               "short_name" : "US",
               "types" : [ "country", "political" ]
            },
            {
               "long_name" : "53716",
               "short_name" : "53716",
               "types" : [ "postal_code" ]
            }
         ],
         "formatted_address" : "Queens Way, Monona, WI 53716, USA",
         "geometry" : {
            "bounds" : {
               "northeast" : {
                  "lat" : 43.05469069999999,
                  "lng" : -89.326376
               },
               "southwest" : {
                  "lat" : 43.050839,
                  "lng" : -89.32795089999999
               }
            },
            "location" : {
               "lat" : 43.05283559999999,
               "lng" : -89.3268087
            },
            "location_type" : "GEOMETRIC_CENTER",
            "viewport" : {
               "northeast" : {
                  "lat" : 43.05469069999999,
                  "lng" : -89.32581446970849
               },
               "southwest" : {
                  "lat" : 43.050839,
                  "lng" : -89.3285124302915
               }
            }
         },
         "types" : [ "route" ]
      },
      {
         "address_components" : [
            {
               "long_name" : "Queens Way",
               "short_name" : "Queens Way",
               "types" : [ "route" ]
            },
            {
               "long_name" : "Fruitland Park",
               "short_name" : "Fruitland Park",
               "types" : [ "locality", "political" ]
            },
            {
               "long_name" : "Lake County",
               "short_name" : "Lake County",
               "types" : [ "administrative_area_level_2", "political" ]
            },
            {
               "long_name" : "Florida",
               "short_name" : "FL",
               "types" : [ "administrative_area_level_1", "political" ]
            },
            {
               "long_name" : "United States",
               "short_name" : "US",
               "types" : [ "country", "political" ]
            },
            {
               "long_name" : "34731",
               "short_name" : "34731",
               "types" : [ "postal_code" ]
            }
         ],
         "formatted_address" : "Queens Way, Fruitland Park, FL 34731, USA",
         "geometry" : {
            "bounds" : {
               "northeast" : {
                  "lat" : 28.861406,
                  "lng" : -81.86833799999999
               },
               "southwest" : {
                  "lat" : 28.858856,
                  "lng" : -81.87057399999999
               }
            },
            "location" : {
               "lat" : 28.85999,
               "lng" : -81.869891
            },
            "location_type" : "GEOMETRIC_CENTER",
            "viewport" : {
               "northeast" : {
                  "lat" : 28.8614799802915,
                  "lng" : -81.86810701970848
               },
               "southwest" : {
                  "lat" : 28.8587820197085,
                  "lng" : -81.87080498029148
               }
            }
         },
         "types" : [ "route" ]
      },
      {
         "address_components" : [
            {
               "long_name" : "Queens Way",
               "short_name" : "Queens Way",
               "types" : [ "route" ]
            },
            {
               "long_name" : "Bloomfield Hills",
               "short_name" : "Bloomfield Hills",
               "types" : [ "locality", "political" ]
            },
            {
               "long_name" : "Oakland County",
               "short_name" : "Oakland County",
               "types" : [ "administrative_area_level_2", "political" ]
            },
            {
               "long_name" : "Michigan",
               "short_name" : "MI",
               "types" : [ "administrative_area_level_1", "political" ]
            },
            {
               "long_name" : "United States",
               "short_name" : "US",
               "types" : [ "country", "political" ]
            },
            {
               "long_name" : "48304",
               "short_name" : "48304",
               "types" : [ "postal_code" ]
            }
         ],
         "formatted_address" : "Queens Way, Bloomfield Hills, MI 48304, USA",
         "geometry" : {
            "bounds" : {
               "northeast" : {
                  "lat" : 42.578106,
                  "lng" : -83.2212869
               },
               "southwest" : {
                  "lat" : 42.575717,
                  "lng" : -83.22563
               }
            },
            "location" : {
               "lat" : 42.5760753,
               "lng" : -83.2238249
            },
            "location_type" : "GEOMETRIC_CENTER",
            "viewport" : {
               "northeast" : {
                  "lat" : 42.5782604802915,
                  "lng" : -83.2212869
               },
               "southwest" : {
                  "lat" : 42.5755625197085,
                  "lng" : -83.22563
               }
            }
         },
         "types" : [ "route" ]
      },
      {
         "address_components" : [
            {
               "long_name" : "Queens Way",
               "short_name" : "Queens Way",
               "types" : [ "route" ]
            },
            {
               "long_name" : "Merrimack",
               "short_name" : "Merrimack",
               "types" : [ "locality", "political" ]
            },
            {
               "long_name" : "Hillsborough County",
               "short_name" : "Hillsborough County",
               "types" : [ "administrative_area_level_2", "political" ]
            },
            {
               "long_name" : "New Hampshire",
               "short_name" : "NH",
               "types" : [ "administrative_area_level_1", "political" ]
            },
            {
               "long_name" : "United States",
               "short_name" : "US",
               "types" : [ "country", "political" ]
            },
            {
               "long_name" : "03054",
               "short_name" : "03054",
               "types" : [ "postal_code" ]
            }
         ],
         "formatted_address" : "Queens Way, Merrimack, NH 03054, USA",
         "geometry" : {
            "bounds" : {
               "northeast" : {
                  "lat" : 42.8310097,
                  "lng" : -71.53439999999999
               },
               "southwest" : {
                  "lat" : 42.8277476,
                  "lng" : -71.5383389
               }
            },
            "location" : {
               "lat" : 42.8296483,
               "lng" : -71.53761970000001
            },
            "location_type" : "GEOMETRIC_CENTER",
            "viewport" : {
               "northeast" : {
                  "lat" : 42.8310097,
                  "lng" : -71.53439999999999
               },
               "southwest" : {
                  "lat" : 42.8277476,
                  "lng" : -71.5383389
               }
            }
         },
         "types" : [ "route" ]
      },
      {
         "address_components" : [
            {
               "long_name" : "Queens Way",
               "short_name" : "Queens Way",
               "types" : [ "route" ]
            },
            {
               "long_name" : "Chagrin Falls",
               "short_name" : "Chagrin Falls",
               "types" : [ "locality", "political" ]
            },
            {
               "long_name" : "Auburn",
               "short_name" : "Auburn",
               "types" : [ "administrative_area_level_3", "political" ]
            },
            {
               "long_name" : "Geauga County",
               "short_name" : "Geauga County",
               "types" : [ "administrative_area_level_2", "political" ]
            },
            {
               "long_name" : "Ohio",
               "short_name" : "OH",
               "types" : [ "administrative_area_level_1", "political" ]
            },
            {
               "long_name" : "United States",
               "short_name" : "US",
               "types" : [ "country", "political" ]
            },
            {
               "long_name" : "44023",
               "short_name" : "44023",
               "types" : [ "postal_code" ]
            }
         ],
         "formatted_address" : "Queens Way, Chagrin Falls, OH 44023, USA",
         "geometry" : {
            "bounds" : {
               "northeast" : {
                  "lat" : 41.398847,
                  "lng" : -81.2745422
               },
               "southwest" : {
                  "lat" : 41.39701,
                  "lng" : -81.2814932
               }
            },
            "location" : {
               "lat" : 41.397889,
               "lng" : -81.28054
            },
            "location_type" : "GEOMETRIC_CENTER",
            "viewport" : {
               "northeast" : {
                  "lat" : 41.3992774802915,
                  "lng" : -81.2745422
               },
               "southwest" : {
                  "lat" : 41.3965795197085,
                  "lng" : -81.2814932
               }
            }
         },
         "types" : [ "route" ]
      }
   ],
   "status" : "OK"
}
