{
   "results" : [
      {
         "address_components" : [
            {
               "long_name" : "Kidwai Road",
               "short_name" : "Kidwai Rd",
               "types" : [ "route" ]
            },
            {
               "long_name" : "Soosgadi",
               "short_name" : "Soosgadi",
               "types" : [ "sublocality_level_1", "sublocality", "political" ]
            },
            {
               "long_name" : "Bhatkal",
               "short_name" : "Bhatkal",
               "types" : [ "locality", "political" ]
            },
            {
               "long_name" : "Uttara Kannada",
               "short_name" : "Uttara Kannada",
               "types" : [ "administrative_area_level_2", "political" ]
            },
            {
               "long_name" : "Karnataka",
               "short_name" : "KA",
               "types" : [ "administrative_area_level_1", "political" ]
            },
            {
               "long_name" : "India",
               "short_name" : "IN",
               "types" : [ "country", "political" ]
            },
            {
               "long_name" : "581320",
               "short_name" : "581320",
               "types" : [ "postal_code" ]
            }
         ],
         "formatted_address" : "Kidwai Road, Soosgadi, Bhatkal, Karnataka 581320, India",
         "geometry" : {
            "bounds" : {
               "northeast" : {
                  "lat" : 13.9921604,
                  "lng" : 74.557059
               },
               "southwest" : {
                  "lat" : 13.9880884,
                  "lng" : 74.5539493
               }
            },
            "location" : {
               "lat" : 13.9907701,
               "lng" : 74.5554113
            },
            "location_type" : "GEOMETRIC_CENTER",
            "viewport" : {
               "northeast" : {
                  "lat" : 13.9921604,
                  "lng" : 74.557059
               },
               "southwest" : {
                  "lat" : 13.9880884,
                  "lng" : 74.5539493
               }
            }
         },
         "partial_match" : true,
         "types" : [ "route" ]
      },
      {
         "address_components" : [
            {
               "long_name" : "Kidwai Road",
               "short_name" : "Kidwai Rd",
               "types" : [ "route" ]
            },
            {
               "long_name" : "Nayapura",
               "short_name" : "Nayapura",
               "types" : [ "sublocality_level_1", "sublocality", "political" ]
            },
            {
               "long_name" : "Malegaon",
               "short_name" : "Malegaon",
               "types" : [ "locality", "political" ]
            },
            {
               "long_name" : "Nashik",
               "short_name" : "Nashik",
               "types" : [ "administrative_area_level_2", "political" ]
            },
            {
               "long_name" : "Maharashtra",
               "short_name" : "MH",
               "types" : [ "administrative_area_level_1", "political" ]
            },
            {
               "long_name" : "India",
               "short_name" : "IN",
               "types" : [ "country", "political" ]
            },
            {
               "long_name" : "423203",
               "short_name" : "423203",
               "types" : [ "postal_code" ]
            }
         ],
         "formatted_address" : "Kidwai Road, Nayapura, Malegaon, Maharashtra 423203, India",
         "geometry" : {
            "bounds" : {
               "northeast" : {
                  "lat" : 20.55264,
                  "lng" : 74.53276760000001
               },
               "southwest" : {
                  "lat" : 20.5494122,
                  "lng" : 74.531744
               }
            },
            "location" : {
               "lat" : 20.5508627,
               "lng" : 74.5323933
            },
            "location_type" : "GEOMETRIC_CENTER",
            "viewport" : {
               "northeast" : {
                  "lat" : 20.55264,
                  "lng" : 74.53360478029153
               },
               "southwest" : {
                  "lat" : 20.5494122,
                  "lng" : 74.53090681970851
               }
            }
         },
         "partial_match" : true,
         "types" : [ "route" ]
      }
   ],
   "status" : "OK"
}
