{
   "results" : [
      {
         "address_components" : [
            {
               "long_name" : "SN Banerjee Road",
               "short_name" : "SN Banerjee Rd",
               "types" : [ "route" ]
            },
            {
               "long_name" : "Barrackpore",
               "short_name" : "Barrackpore",
               "types" : [ "locality", "political" ]
            },
            {
               "long_name" : "North 24 Parganas",
               "short_name" : "North 24 Parganas",
               "types" : [ "administrative_area_level_2", "political" ]
            },
            {
               "long_name" : "West Bengal",
               "short_name" : "WB",
               "types" : [ "administrative_area_level_1", "political" ]
            },
            {
               "long_name" : "India",
               "short_name" : "IN",
               "types" : [ "country", "political" ]
            }
         ],
         "formatted_address" : "SN Banerjee Road, Barrackpore, West Bengal, India",
         "geometry" : {
            "bounds" : {
               "northeast" : {
                  "lat" : 22.7873884,
                  "lng" : 88.37020299999999
               },
               "southwest" : {
                  "lat" : 22.7604488,
                  "lng" : 88.3362451
               }
            },
            "location" : {
               "lat" : 22.766114,
               "lng" : 88.3515996
            },
            "location_type" : "GEOMETRIC_CENTER",
            "viewport" : {
               "northeast" : {
                  "lat" : 22.7873884,
                  "lng" : 88.37020299999999
               },
               "southwest" : {
                  "lat" : 22.7604488,
                  "lng" : 88.3362451
               }
            }
         },
         "types" : [ "route" ]
      },
      {
         "address_components" : [
            {
               "long_name" : "SN Banerjee Road",
               "short_name" : "SN Banerjee Rd",
               "types" : [ "route" ]
            },
            {
               "long_name" : "Durgapur",
               "short_name" : "Durgapur",
               "types" : [ "locality", "political" ]
            },
            {
               "long_name" : "Bardhaman",
               "short_name" : "Bardhaman",
               "types" : [ "administrative_area_level_2", "political" ]
            },
            {
               "long_name" : "West Bengal",
               "short_name" : "WB",
               "types" : [ "administrative_area_level_1", "political" ]
            },
            {
               "long_name" : "India",
               "short_name" : "IN",
               "types" : [ "country", "political" ]
            }
         ],
         "formatted_address" : "SN Banerjee Road, Durgapur, West Bengal, India",
         "geometry" : {
            "bounds" : {
               "northeast" : {
                  "lat" : 23.5908575,
                  "lng" : 87.28432239999999
               },
               "southwest" : {
                  "lat" : 23.57181,
                  "lng" : 87.2734809
               }
            },
            "location" : {
               "lat" : 23.5831587,
               "lng" : 87.2765687
            },
            "location_type" : "GEOMETRIC_CENTER",
            "viewport" : {
               "northeast" : {
                  "lat" : 23.5908575,
                  "lng" : 87.28432239999999
               },
               "southwest" : {
                  "lat" : 23.57181,
                  "lng" : 87.2734809
               }
            }
         },
         "types" : [ "route" ]
      },
      {
         "address_components" : [
            {
               "long_name" : "SN Banerjee Road",
               "short_name" : "SN Banerjee Rd",
               "types" : [ "route" ]
            },
            {
               "long_name" : "Uttarpara",
               "short_name" : "Uttarpara",
               "types" : [ "sublocality_level_1", "sublocality", "political" ]
            },
            {
               "long_name" : "Uttarpara Kotrung",
               "short_name" : "Uttarpara Kotrung",
               "types" : [ "locality", "political" ]
            },
            {
               "long_name" : "Hooghly",
               "short_name" : "Hooghly",
               "types" : [ "administrative_area_level_2", "political" ]
            },
            {
               "long_name" : "West Bengal",
               "short_name" : "WB",
               "types" : [ "administrative_area_level_1", "political" ]
            },
            {
               "long_name" : "India",
               "short_name" : "IN",
               "types" : [ "country", "political" ]
            }
         ],
         "formatted_address" : "SN Banerjee Road, Uttarpara, Uttarpara Kotrung, West Bengal, India",
         "geometry" : {
            "bounds" : {
               "northeast" : {
                  "lat" : 22.672814,
                  "lng" : 88.34782269999999
               },
               "southwest" : {
                  "lat" : 22.669021,
                  "lng" : 88.34615699999999
               }
            },
            "location" : {
               "lat" : 22.6707437,
               "lng" : 88.3473913
            },
            "location_type" : "GEOMETRIC_CENTER",
            "viewport" : {
               "northeast" : {
                  "lat" : 22.672814,
                  "lng" : 88.3483388302915
               },
               "southwest" : {
                  "lat" : 22.669021,
                  "lng" : 88.34564086970849
               }
            }
         },
         "types" : [ "route" ]
      },
      {
         "address_components" : [
            {
               "long_name" : "South North Banerjee Road",
               "short_name" : "S N Banerjee Rd",
               "types" : [ "route" ]
            },
            {
               "long_name" : "Chandra Pally",
               "short_name" : "Chandra Pally",
               "types" : [ "sublocality_level_2", "sublocality", "political" ]
            },
            {
               "long_name" : "New Barrakpur",
               "short_name" : "New Barrakpur",
               "types" : [ "sublocality_level_1", "sublocality", "political" ]
            },
            {
               "long_name" : "Kolkata",
               "short_name" : "Kolkata",
               "types" : [ "locality", "political" ]
            },
            {
               "long_name" : "North 24 Parganas",
               "short_name" : "North 24 Parganas",
               "types" : [ "administrative_area_level_2", "political" ]
            },
            {
               "long_name" : "West Bengal",
               "short_name" : "WB",
               "types" : [ "administrative_area_level_1", "political" ]
            },
            {
               "long_name" : "India",
               "short_name" : "IN",
               "types" : [ "country", "political" ]
            },
            {
               "long_name" : "700133",
               "short_name" : "700133",
               "types" : [ "postal_code" ]
            }
         ],
         "formatted_address" : "South North Banerjee Road, Chandra Pally, New Barrakpur, Kolkata, West Bengal 700133, India",
         "geometry" : {
            "bounds" : {
               "northeast" : {
                  "lat" : 22.6911817,
                  "lng" : 88.45058879999999
               },
               "southwest" : {
                  "lat" : 22.6909279,
                  "lng" : 88.44959449999999
               }
            },
            "location" : {
               "lat" : 22.6910129,
               "lng" : 88.4501202
            },
            "location_type" : "GEOMETRIC_CENTER",
            "viewport" : {
               "northeast" : {
                  "lat" : 22.6924037802915,
                  "lng" : 88.45144063029149
               },
               "southwest" : {
                  "lat" : 22.6897058197085,
                  "lng" : 88.44874266970848
               }
            }
         },
         "types" : [ "route" ]
      },
      {
         "address_components" : [
            {
               "long_name" : "SN Banerjee Road",
               "short_name" : "SN Banerjee Rd",
               "types" : [ "route" ]
            },
            {
               "long_name" : "A-Zone",
               "short_name" : "A-Zone",
               "types" : [ "sublocality_level_1", "sublocality", "political" ]
            },
            {
               "long_name" : "Durgapur",
               "short_name" : "Durgapur",
               "types" : [ "locality", "political" ]
            },
            {
               "long_name" : "Bardhaman",
               "short_name" : "Bardhaman",
               "types" : [ "administrative_area_level_2", "political" ]
            },
            {
               "long_name" : "West Bengal",
               "short_name" : "WB",
               "types" : [ "administrative_area_level_1", "political" ]
            },
            {
               "long_name" : "India",
               "short_name" : "IN",
               "types" : [ "country", "political" ]
            },
            {
               "long_name" : "713204",
               "short_name" : "713204",
               "types" : [ "postal_code" ]
            }
         ],
         "formatted_address" : "SN Banerjee Road, A-Zone, Durgapur, West Bengal 713204",
         "geometry" : {
            "location" : {
               "lat" : 23.5825847,
               "lng" : 87.27638569999999
            },
            "location_type" : "GEOMETRIC_CENTER",
            "viewport" : {
               "northeast" : {
                  "lat" : 23.5839336802915,
                  "lng" : 87.2777346802915
               },
               "southwest" : {
                  "lat" : 23.58123571970849,
                  "lng" : 87.2750367197085
               }
            }
         },
         "types" : [ "route" ]
      },
      {
         "address_components" : [
            {
               "long_name" : "Surendra Nath Banerjee Road",
               "short_name" : "Surendra Nath Banerjee Rd",
               "types" : [ "route" ]
            },
            {
               "long_name" : "Dharmatala",
               "short_name" : "Dharmatala",
               "types" : [ "sublocality_level_2", "sublocality", "political" ]
            },
            {
               "long_name" : "Kolkata",
               "short_name" : "Kolkata",
               "types" : [ "locality", "political" ]
            },
            {
               "long_name" : "Kolkata",
               "short_name" : "Kolkata",
               "types" : [ "administrative_area_level_2", "political" ]
            },
            {
               "long_name" : "West Bengal",
               "short_name" : "WB",
               "types" : [ "administrative_area_level_1", "political" ]
            },
            {
               "long_name" : "India",
               "short_name" : "IN",
               "types" : [ "country", "political" ]
            },
            {
               "long_name" : "700013",
               "short_name" : "700013",
               "types" : [ "postal_code" ]
            }
         ],
         "formatted_address" : "Surendra Nath Banerjee Road, Dharmatala, Kolkata, West Bengal 700013",
         "geometry" : {
            "location" : {
               "lat" : 22.5635827,
               "lng" : 88.35157819999999
            },
            "location_type" : "GEOMETRIC_CENTER",
            "viewport" : {
               "northeast" : {
                  "lat" : 22.5649316802915,
                  "lng" : 88.35292718029149
               },
               "southwest" : {
                  "lat" : 22.56223371970849,
                  "lng" : 88.35022921970848
               }
            }
         },
         "types" : [ "route" ]
      },
      {
         "address_components" : [
            {
               "long_name" : "Surendra Nath Banerjee Road",
               "short_name" : "Surendra Nath Banerjee Rd",
               "types" : [ "route" ]
            },
            {
               "long_name" : "Taltala",
               "short_name" : "Taltala",
               "types" : [ "sublocality_level_1", "sublocality", "political" ]
            },
            {
               "long_name" : "Kolkata",
               "short_name" : "Kolkata",
               "types" : [ "locality", "political" ]
            },
            {
               "long_name" : "Kolkata",
               "short_name" : "Kolkata",
               "types" : [ "administrative_area_level_2", "political" ]
            },
            {
               "long_name" : "West Bengal",
               "short_name" : "WB",
               "types" : [ "administrative_area_level_1", "political" ]
            },
            {
               "long_name" : "India",
               "short_name" : "IN",
               "types" : [ "country", "political" ]
            }
         ],
         "formatted_address" : "Surendra Nath Banerjee Road, Taltala, Kolkata, West Bengal, India",
         "geometry" : {
            "bounds" : {
               "northeast" : {
                  "lat" : 22.5615891,
                  "lng" : 88.36532199999999
               },
               "southwest" : {
                  "lat" : 22.5605777,
                  "lng" : 88.35707719999999
               }
            },
            "location" : {
               "lat" : 22.5605777,
               "lng" : 88.36532199999999
            },
            "location_type" : "GEOMETRIC_CENTER",
            "viewport" : {
               "northeast" : {
                  "lat" : 22.5624323802915,
                  "lng" : 88.36532199999999
               },
               "southwest" : {
                  "lat" : 22.5597344197085,
                  "lng" : 88.35707719999999
               }
            }
         },
         "types" : [ "route" ]
      }
   ],
   "status" : "OK"
}
