{
   "results" : [
      {
         "address_components" : [
            {
               "long_name" : "SPM Road",
               "short_name" : "SPM Rd",
               "types" : [ "route" ]
            },
            {
               "long_name" : "Shahapur",
               "short_name" : "Shahapur",
               "types" : [ "sublocality_level_1", "sublocality", "political" ]
            },
            {
               "long_name" : "Belagam",
               "short_name" : "Belagam",
               "types" : [ "locality", "political" ]
            },
            {
               "long_name" : "Belagavi",
               "short_name" : "Belagavi",
               "types" : [ "administrative_area_level_2", "political" ]
            },
            {
               "long_name" : "Karnataka",
               "short_name" : "KA",
               "types" : [ "administrative_area_level_1", "political" ]
            },
            {
               "long_name" : "India",
               "short_name" : "IN",
               "types" : [ "country", "political" ]
            }
         ],
         "formatted_address" : "SPM Road, Shahapur, Belgaum, Karnataka, India",
         "geometry" : {
            "bounds" : {
               "northeast" : {
                  "lat" : 15.852021,
                  "lng" : 74.51676399999999
               },
               "southwest" : {
                  "lat" : 15.8460949,
                  "lng" : 74.5160607
               }
            },
            "location" : {
               "lat" : 15.84908,
               "lng" : 74.51643869999999
            },
            "location_type" : "GEOMETRIC_CENTER",
            "viewport" : {
               "northeast" : {
                  "lat" : 15.852021,
                  "lng" : 74.51776133029151
               },
               "southwest" : {
                  "lat" : 15.8460949,
                  "lng" : 74.5150633697085
               }
            }
         },
         "types" : [ "route" ]
      },
      {
         "address_components" : [
            {
               "long_name" : "South M Road",
               "short_name" : "S M Rd",
               "types" : [ "route" ]
            },
            {
               "long_name" : "Hamilton County",
               "short_name" : "Hamilton County",
               "types" : [ "administrative_area_level_2", "political" ]
            },
            {
               "long_name" : "Nebraska",
               "short_name" : "NE",
               "types" : [ "administrative_area_level_1", "political" ]
            },
            {
               "long_name" : "United States",
               "short_name" : "US",
               "types" : [ "country", "political" ]
            }
         ],
         "formatted_address" : "South M Road, Nebraska, USA",
         "geometry" : {
            "bounds" : {
               "northeast" : {
                  "lat" : 40.8721645,
                  "lng" : -98.07304619999999
               },
               "southwest" : {
                  "lat" : 40.698431,
                  "lng" : -98.0764559
               }
            },
            "location" : {
               "lat" : 40.785336,
               "lng" : -98.073123
            },
            "location_type" : "GEOMETRIC_CENTER",
            "viewport" : {
               "northeast" : {
                  "lat" : 40.8721645,
                  "lng" : -98.07304619999999
               },
               "southwest" : {
                  "lat" : 40.698431,
                  "lng" : -98.0764559
               }
            }
         },
         "partial_match" : true,
         "types" : [ "route" ]
      },
      {
         "address_components" : [
            {
               "long_name" : "South P Road",
               "short_name" : "S P Rd",
               "types" : [ "route" ]
            },
            {
               "long_name" : "Aurora",
               "short_name" : "Aurora",
               "types" : [ "locality", "political" ]
            },
            {
               "long_name" : "Hamilton County",
               "short_name" : "Hamilton County",
               "types" : [ "administrative_area_level_2", "political" ]
            },
            {
               "long_name" : "Nebraska",
               "short_name" : "NE",
               "types" : [ "administrative_area_level_1", "political" ]
            },
            {
               "long_name" : "United States",
               "short_name" : "US",
               "types" : [ "country", "political" ]
            },
            {
               "long_name" : "68818",
               "short_name" : "68818",
               "types" : [ "postal_code" ]
            }
         ],
         "formatted_address" : "South P Road, Aurora, NE 68818, USA",
         "geometry" : {
            "bounds" : {
               "northeast" : {
                  "lat" : 40.8578009,
                  "lng" : -98.0155908
               },
               "southwest" : {
                  "lat" : 40.698448,
                  "lng" : -98.0173784
               }
            },
            "location" : {
               "lat" : 40.7775109,
               "lng" : -98.016031
            },
            "location_type" : "GEOMETRIC_CENTER",
            "viewport" : {
               "northeast" : {
                  "lat" : 40.8578009,
                  "lng" : -98.01513561970849
               },
               "southwest" : {
                  "lat" : 40.698448,
                  "lng" : -98.01783358029151
               }
            }
         },
         "partial_match" : true,
         "types" : [ "route" ]
      },
      {
         "address_components" : [
            {
               "long_name" : "Subroto Mukherjee Road",
               "short_name" : "S M Road",
               "types" : [ "route" ]
            },
            {
               "long_name" : "Bengaluru",
               "short_name" : "Bengaluru",
               "types" : [ "locality", "political" ]
            },
            {
               "long_name" : "Bangalore Urban",
               "short_name" : "Bangalore Urban",
               "types" : [ "administrative_area_level_2", "political" ]
            },
            {
               "long_name" : "Karnataka",
               "short_name" : "KA",
               "types" : [ "administrative_area_level_1", "political" ]
            },
            {
               "long_name" : "India",
               "short_name" : "IN",
               "types" : [ "country", "political" ]
            }
         ],
         "formatted_address" : "Subroto Mukherjee Road, Bengaluru, Karnataka, India",
         "geometry" : {
            "bounds" : {
               "northeast" : {
                  "lat" : 13.0567432,
                  "lng" : 77.5467381
               },
               "southwest" : {
                  "lat" : 13.0396979,
                  "lng" : 77.51815809999999
               }
            },
            "location" : {
               "lat" : 13.0519318,
               "lng" : 77.5288034
            },
            "location_type" : "GEOMETRIC_CENTER",
            "viewport" : {
               "northeast" : {
                  "lat" : 13.0567432,
                  "lng" : 77.5467381
               },
               "southwest" : {
                  "lat" : 13.0396979,
                  "lng" : 77.51815809999999
               }
            }
         },
         "partial_match" : true,
         "types" : [ "route" ]
      },
      {
         "address_components" : [
            {
               "long_name" : "Southwest Road",
               "short_name" : "S West Rd",
               "types" : [ "route" ]
            },
            {
               "long_name" : "Kansas",
               "short_name" : "KS",
               "types" : [ "administrative_area_level_1", "political" ]
            },
            {
               "long_name" : "United States",
               "short_name" : "US",
               "types" : [ "country", "political" ]
            }
         ],
         "formatted_address" : "Southwest Road, Kansas, USA",
         "geometry" : {
            "bounds" : {
               "northeast" : {
                  "lat" : 38.0429432,
                  "lng" : -97.38793899999999
               },
               "southwest" : {
                  "lat" : 37.9122217,
                  "lng" : -97.39929789999999
               }
            },
            "location" : {
               "lat" : 37.970454,
               "lng" : -97.3897829
            },
            "location_type" : "GEOMETRIC_CENTER",
            "viewport" : {
               "northeast" : {
                  "lat" : 38.0429432,
                  "lng" : -97.38793899999999
               },
               "southwest" : {
                  "lat" : 37.9122217,
                  "lng" : -97.39929789999999
               }
            }
         },
         "partial_match" : true,
         "types" : [ "route" ]
      },
      {
         "address_components" : [
            {
               "long_name" : "Road South",
               "short_name" : "Road S",
               "types" : [ "route" ]
            },
            {
               "long_name" : "Nebraska",
               "short_name" : "NE",
               "types" : [ "administrative_area_level_1", "political" ]
            },
            {
               "long_name" : "United States",
               "short_name" : "US",
               "types" : [ "country", "political" ]
            }
         ],
         "formatted_address" : "Road South, Nebraska, USA",
         "geometry" : {
            "bounds" : {
               "northeast" : {
                  "lat" : 40.6984919,
                  "lng" : -97.95695049999999
               },
               "southwest" : {
                  "lat" : 40.3505283,
                  "lng" : -97.9575114
               }
            },
            "location" : {
               "lat" : 40.5246264,
               "lng" : -97.95722219999999
            },
            "location_type" : "GEOMETRIC_CENTER",
            "viewport" : {
               "northeast" : {
                  "lat" : 40.6984919,
                  "lng" : -97.95588196970849
               },
               "southwest" : {
                  "lat" : 40.3505283,
                  "lng" : -97.95857993029151
               }
            }
         },
         "partial_match" : true,
         "types" : [ "route" ]
      },
      {
         "address_components" : [
            {
               "long_name" : "Aziz Ahmed Taki Road",
               "short_name" : "Aziz Ahmed Taki Road",
               "types" : [ "route" ]
            },
            {
               "long_name" : "Bogra",
               "short_name" : "Bogra",
               "types" : [ "locality", "political" ]
            },
            {
               "long_name" : "Bogra",
               "short_name" : "Bogra",
               "types" : [ "administrative_area_level_2", "political" ]
            },
            {
               "long_name" : "Rajshahi Division",
               "short_name" : "Rajshahi Division",
               "types" : [ "administrative_area_level_1", "political" ]
            },
            {
               "long_name" : "Bangladesh",
               "short_name" : "BD",
               "types" : [ "country", "political" ]
            },
            {
               "long_name" : "5800",
               "short_name" : "5800",
               "types" : [ "postal_code" ]
            }
         ],
         "formatted_address" : "Aziz Ahmed Taki Road, Bogra 5800, Bangladesh",
         "geometry" : {
            "bounds" : {
               "northeast" : {
                  "lat" : 24.8493899,
                  "lng" : 89.3850674
               },
               "southwest" : {
                  "lat" : 24.8425858,
                  "lng" : 89.3794455
               }
            },
            "location" : {
               "lat" : 24.8449103,
               "lng" : 89.3828881
            },
            "location_type" : "GEOMETRIC_CENTER",
            "viewport" : {
               "northeast" : {
                  "lat" : 24.8493899,
                  "lng" : 89.3850674
               },
               "southwest" : {
                  "lat" : 24.8425858,
                  "lng" : 89.3794455
               }
            }
         },
         "partial_match" : true,
         "types" : [ "route" ]
      },
      {
         "address_components" : [
            {
               "long_name" : "M Road",
               "short_name" : "M Rd",
               "types" : [ "route" ]
            },
            {
               "long_name" : "Otoe County",
               "short_name" : "Otoe County",
               "types" : [ "administrative_area_level_2", "political" ]
            },
            {
               "long_name" : "Nebraska",
               "short_name" : "NE",
               "types" : [ "administrative_area_level_1", "political" ]
            },
            {
               "long_name" : "United States",
               "short_name" : "US",
               "types" : [ "country", "political" ]
            }
         ],
         "formatted_address" : "M Road, Nebraska, USA",
         "geometry" : {
            "bounds" : {
               "northeast" : {
                  "lat" : 40.6103733,
                  "lng" : -95.8061857
               },
               "southwest" : {
                  "lat" : 40.6089179,
                  "lng" : -96.46373
               }
            },
            "location" : {
               "lat" : 40.6101955,
               "lng" : -96.14127979999999
            },
            "location_type" : "GEOMETRIC_CENTER",
            "viewport" : {
               "northeast" : {
                  "lat" : 40.6109945802915,
                  "lng" : -95.8061857
               },
               "southwest" : {
                  "lat" : 40.6082966197085,
                  "lng" : -96.46373
               }
            }
         },
         "partial_match" : true,
         "types" : [ "route" ]
      },
      {
         "address_components" : [
            {
               "long_name" : "Road South",
               "short_name" : "Road S",
               "types" : [ "route" ]
            },
            {
               "long_name" : "Montezuma County",
               "short_name" : "Montezuma County",
               "types" : [ "administrative_area_level_2", "political" ]
            },
            {
               "long_name" : "Colorado",
               "short_name" : "CO",
               "types" : [ "administrative_area_level_1", "political" ]
            },
            {
               "long_name" : "United States",
               "short_name" : "US",
               "types" : [ "country", "political" ]
            }
         ],
         "formatted_address" : "Road South, Colorado, USA",
         "geometry" : {
            "bounds" : {
               "northeast" : {
                  "lat" : 37.4429822,
                  "lng" : -108.5897024
               },
               "southwest" : {
                  "lat" : 37.4418975,
                  "lng" : -108.741654
               }
            },
            "location" : {
               "lat" : 37.4424005,
               "lng" : -108.6657502
            },
            "location_type" : "GEOMETRIC_CENTER",
            "viewport" : {
               "northeast" : {
                  "lat" : 37.4437888302915,
                  "lng" : -108.5897024
               },
               "southwest" : {
                  "lat" : 37.4410908697085,
                  "lng" : -108.741654
               }
            }
         },
         "partial_match" : true,
         "types" : [ "route" ]
      },
      {
         "address_components" : [
            {
               "long_name" : "M Road",
               "short_name" : "M Rd",
               "types" : [ "route" ]
            },
            {
               "long_name" : "Hooker",
               "short_name" : "Hooker",
               "types" : [ "locality", "political" ]
            },
            {
               "long_name" : "Texas County",
               "short_name" : "Texas County",
               "types" : [ "administrative_area_level_2", "political" ]
            },
            {
               "long_name" : "Oklahoma",
               "short_name" : "OK",
               "types" : [ "administrative_area_level_1", "political" ]
            },
            {
               "long_name" : "United States",
               "short_name" : "US",
               "types" : [ "country", "political" ]
            },
            {
               "long_name" : "73945",
               "short_name" : "73945",
               "types" : [ "postal_code" ]
            }
         ],
         "formatted_address" : "M Road, Hooker, OK 73945, USA",
         "geometry" : {
            "bounds" : {
               "northeast" : {
                  "lat" : 36.820062,
                  "lng" : -100.9539573
               },
               "southwest" : {
                  "lat" : 36.8179579,
                  "lng" : -101.420582
               }
            },
            "location" : {
               "lat" : 36.8198979,
               "lng" : -101.187753
            },
            "location_type" : "GEOMETRIC_CENTER",
            "viewport" : {
               "northeast" : {
                  "lat" : 36.8203589302915,
                  "lng" : -100.9539573
               },
               "southwest" : {
                  "lat" : 36.8176609697085,
                  "lng" : -101.420582
               }
            }
         },
         "partial_match" : true,
         "types" : [ "route" ]
      },
      {
         "address_components" : [
            {
               "long_name" : "Road",
               "short_name" : "Rd",
               "types" : [ "route" ]
            },
            {
               "long_name" : "Cooper County",
               "short_name" : "Cooper County",
               "types" : [ "administrative_area_level_2", "political" ]
            },
            {
               "long_name" : "Missouri",
               "short_name" : "MO",
               "types" : [ "administrative_area_level_1", "political" ]
            },
            {
               "long_name" : "United States",
               "short_name" : "US",
               "types" : [ "country", "political" ]
            }
         ],
         "formatted_address" : "Road, Missouri, USA",
         "geometry" : {
            "bounds" : {
               "northeast" : {
                  "lat" : 38.8024274,
                  "lng" : -92.92971109999999
               },
               "southwest" : {
                  "lat" : 38.7736114,
                  "lng" : -92.9324651
               }
            },
            "location" : {
               "lat" : 38.7881801,
               "lng" : -92.9301265
            },
            "location_type" : "GEOMETRIC_CENTER",
            "viewport" : {
               "northeast" : {
                  "lat" : 38.8024274,
                  "lng" : -92.92971109999999
               },
               "southwest" : {
                  "lat" : 38.7736114,
                  "lng" : -92.9324651
               }
            }
         },
         "partial_match" : true,
         "types" : [ "route" ]
      },
      {
         "address_components" : [
            {
               "long_name" : "M Road",
               "short_name" : "M Rd",
               "types" : [ "route" ]
            },
            {
               "long_name" : "Holdrege",
               "short_name" : "Holdrege",
               "types" : [ "locality", "political" ]
            },
            {
               "long_name" : "Phelps County",
               "short_name" : "Phelps County",
               "types" : [ "administrative_area_level_2", "political" ]
            },
            {
               "long_name" : "Nebraska",
               "short_name" : "NE",
               "types" : [ "administrative_area_level_1", "political" ]
            },
            {
               "long_name" : "United States",
               "short_name" : "US",
               "types" : [ "country", "political" ]
            },
            {
               "long_name" : "68949",
               "short_name" : "68949",
               "types" : [ "postal_code" ]
            }
         ],
         "formatted_address" : "M Road, Holdrege, NE 68949, USA",
         "geometry" : {
            "bounds" : {
               "northeast" : {
                  "lat" : 40.6574993,
                  "lng" : -99.39794649999999
               },
               "southwest" : {
                  "lat" : 40.3877876,
                  "lng" : -99.4003384
               }
            },
            "location" : {
               "lat" : 40.5217658,
               "lng" : -99.39929739999999
            },
            "location_type" : "GEOMETRIC_CENTER",
            "viewport" : {
               "northeast" : {
                  "lat" : 40.6574993,
                  "lng" : -99.39779346970847
               },
               "southwest" : {
                  "lat" : 40.3877876,
                  "lng" : -99.40049143029148
               }
            }
         },
         "partial_match" : true,
         "types" : [ "route" ]
      },
      {
         "address_components" : [
            {
               "long_name" : "Road South",
               "short_name" : "Road S",
               "types" : [ "route" ]
            },
            {
               "long_name" : "Atwood",
               "short_name" : "Atwood",
               "types" : [ "locality", "political" ]
            },
            {
               "long_name" : "Rawlins County",
               "short_name" : "Rawlins County",
               "types" : [ "administrative_area_level_2", "political" ]
            },
            {
               "long_name" : "Kansas",
               "short_name" : "KS",
               "types" : [ "administrative_area_level_1", "political" ]
            },
            {
               "long_name" : "United States",
               "short_name" : "US",
               "types" : [ "country", "political" ]
            },
            {
               "long_name" : "67730",
               "short_name" : "67730",
               "types" : [ "postal_code" ]
            }
         ],
         "formatted_address" : "Road South, Atwood, KS 67730, USA",
         "geometry" : {
            "bounds" : {
               "northeast" : {
                  "lat" : 39.8317268,
                  "lng" : -101.0467371
               },
               "southwest" : {
                  "lat" : 39.8280502,
                  "lng" : -101.1298747
               }
            },
            "location" : {
               "lat" : 39.8280769,
               "lng" : -101.0935654
            },
            "location_type" : "GEOMETRIC_CENTER",
            "viewport" : {
               "northeast" : {
                  "lat" : 39.8317268,
                  "lng" : -101.0467371
               },
               "southwest" : {
                  "lat" : 39.8280502,
                  "lng" : -101.1298747
               }
            }
         },
         "partial_match" : true,
         "types" : [ "route" ]
      },
      {
         "address_components" : [
            {
               "long_name" : "M Road",
               "short_name" : "M Rd",
               "types" : [ "route" ]
            },
            {
               "long_name" : "Kansas",
               "short_name" : "KS",
               "types" : [ "administrative_area_level_1", "political" ]
            },
            {
               "long_name" : "United States",
               "short_name" : "US",
               "types" : [ "country", "political" ]
            }
         ],
         "formatted_address" : "M Road, Kansas, USA",
         "geometry" : {
            "bounds" : {
               "northeast" : {
                  "lat" : 37.8424287,
                  "lng" : -100.2146476
               },
               "southwest" : {
                  "lat" : 37.8216896,
                  "lng" : -100.5195091
               }
            },
            "location" : {
               "lat" : 37.8274068,
               "lng" : -100.3691208
            },
            "location_type" : "GEOMETRIC_CENTER",
            "viewport" : {
               "northeast" : {
                  "lat" : 37.8424287,
                  "lng" : -100.2146476
               },
               "southwest" : {
                  "lat" : 37.8216896,
                  "lng" : -100.5195091
               }
            }
         },
         "partial_match" : true,
         "types" : [ "route" ]
      },
      {
         "address_components" : [
            {
               "long_name" : "M Road",
               "short_name" : "M Road",
               "types" : [ "route" ]
            },
            {
               "long_name" : "WaKeeney",
               "short_name" : "WaKeeney",
               "types" : [ "locality", "political" ]
            },
            {
               "long_name" : "Kansas",
               "short_name" : "KS",
               "types" : [ "administrative_area_level_1", "political" ]
            },
            {
               "long_name" : "United States",
               "short_name" : "US",
               "types" : [ "country", "political" ]
            },
            {
               "long_name" : "67672",
               "short_name" : "67672",
               "types" : [ "postal_code" ]
            }
         ],
         "formatted_address" : "M Road, WaKeeney, KS 67672, USA",
         "geometry" : {
            "bounds" : {
               "northeast" : {
                  "lat" : 38.9583789,
                  "lng" : -99.83543379999999
               },
               "southwest" : {
                  "lat" : 38.95754609999999,
                  "lng" : -100.1501249
               }
            },
            "location" : {
               "lat" : 38.9576838,
               "lng" : -99.99104229999999
            },
            "location_type" : "GEOMETRIC_CENTER",
            "viewport" : {
               "northeast" : {
                  "lat" : 38.9593114802915,
                  "lng" : -99.83543379999999
               },
               "southwest" : {
                  "lat" : 38.9566135197085,
                  "lng" : -100.1501249
               }
            }
         },
         "partial_match" : true,
         "types" : [ "route" ]
      },
      {
         "address_components" : [
            {
               "long_name" : "Road South",
               "short_name" : "Road S",
               "types" : [ "route" ]
            },
            {
               "long_name" : "Nelson",
               "short_name" : "Nelson",
               "types" : [ "locality", "political" ]
            },
            {
               "long_name" : "Nelson",
               "short_name" : "Nelson",
               "types" : [ "administrative_area_level_3", "political" ]
            },
            {
               "long_name" : "Nuckolls County",
               "short_name" : "Nuckolls County",
               "types" : [ "administrative_area_level_2", "political" ]
            },
            {
               "long_name" : "Nebraska",
               "short_name" : "NE",
               "types" : [ "administrative_area_level_1", "political" ]
            },
            {
               "long_name" : "United States",
               "short_name" : "US",
               "types" : [ "country", "political" ]
            },
            {
               "long_name" : "68961",
               "short_name" : "68961",
               "types" : [ "postal_code" ]
            }
         ],
         "formatted_address" : "Road South, Nelson, NE 68961, USA",
         "geometry" : {
            "bounds" : {
               "northeast" : {
                  "lat" : 40.2347619,
                  "lng" : -98.0861173
               },
               "southwest" : {
                  "lat" : 40.234566,
                  "lng" : -98.16110200000001
               }
            },
            "location" : {
               "lat" : 40.23469800000001,
               "lng" : -98.1239459
            },
            "location_type" : "GEOMETRIC_CENTER",
            "viewport" : {
               "northeast" : {
                  "lat" : 40.2360129302915,
                  "lng" : -98.0861173
               },
               "southwest" : {
                  "lat" : 40.2333149697085,
                  "lng" : -98.16110200000001
               }
            }
         },
         "partial_match" : true,
         "types" : [ "route" ]
      },
      {
         "address_components" : [
            {
               "long_name" : "Road South",
               "short_name" : "Road S",
               "types" : [ "route" ]
            },
            {
               "long_name" : "Oak",
               "short_name" : "Oak",
               "types" : [ "locality", "political" ]
            },
            {
               "long_name" : "Elk",
               "short_name" : "Elk",
               "types" : [ "administrative_area_level_3", "political" ]
            },
            {
               "long_name" : "Nuckolls County",
               "short_name" : "Nuckolls County",
               "types" : [ "administrative_area_level_2", "political" ]
            },
            {
               "long_name" : "Nebraska",
               "short_name" : "NE",
               "types" : [ "administrative_area_level_1", "political" ]
            },
            {
               "long_name" : "United States",
               "short_name" : "US",
               "types" : [ "country", "political" ]
            },
            {
               "long_name" : "68964",
               "short_name" : "68964",
               "types" : [ "postal_code" ]
            }
         ],
         "formatted_address" : "Road South, Oak, NE 68964, USA",
         "geometry" : {
            "bounds" : {
               "northeast" : {
                  "lat" : 40.2346373,
                  "lng" : -97.90555119999999
               },
               "southwest" : {
                  "lat" : 40.2343354,
                  "lng" : -97.9327067
               }
            },
            "location" : {
               "lat" : 40.2343386,
               "lng" : -97.9189009
            },
            "location_type" : "GEOMETRIC_CENTER",
            "viewport" : {
               "northeast" : {
                  "lat" : 40.2358353302915,
                  "lng" : -97.90555119999999
               },
               "southwest" : {
                  "lat" : 40.2331373697085,
                  "lng" : -97.9327067
               }
            }
         },
         "partial_match" : true,
         "types" : [ "route" ]
      },
      {
         "address_components" : [
            {
               "long_name" : "M Road",
               "short_name" : "M Rd",
               "types" : [ "route" ]
            },
            {
               "long_name" : "Mesa County",
               "short_name" : "Mesa County",
               "types" : [ "administrative_area_level_2", "political" ]
            },
            {
               "long_name" : "Colorado",
               "short_name" : "CO",
               "types" : [ "administrative_area_level_1", "political" ]
            },
            {
               "long_name" : "United States",
               "short_name" : "US",
               "types" : [ "country", "political" ]
            }
         ],
         "formatted_address" : "M Road, Colorado, USA",
         "geometry" : {
            "bounds" : {
               "northeast" : {
                  "lat" : 39.197363,
                  "lng" : -108.642772
               },
               "southwest" : {
                  "lat" : 39.1887427,
                  "lng" : -108.838638
               }
            },
            "location" : {
               "lat" : 39.1932312,
               "lng" : -108.7383952
            },
            "location_type" : "GEOMETRIC_CENTER",
            "viewport" : {
               "northeast" : {
                  "lat" : 39.197363,
                  "lng" : -108.642772
               },
               "southwest" : {
                  "lat" : 39.1887427,
                  "lng" : -108.838638
               }
            }
         },
         "partial_match" : true,
         "types" : [ "route" ]
      },
      {
         "address_components" : [
            {
               "long_name" : "Road",
               "short_name" : "Road",
               "types" : [ "route" ]
            },
            {
               "long_name" : "Mogolhat",
               "short_name" : "Mogolhat",
               "types" : [ "locality", "political" ]
            },
            {
               "long_name" : "Lalmonirhat",
               "short_name" : "Lalmonirhat",
               "types" : [ "administrative_area_level_2", "political" ]
            },
            {
               "long_name" : "Rangpur Division",
               "short_name" : "Rangpur Division",
               "types" : [ "administrative_area_level_1", "political" ]
            },
            {
               "long_name" : "Bangladesh",
               "short_name" : "BD",
               "types" : [ "country", "political" ]
            }
         ],
         "formatted_address" : "Road, Mogolhat, Bangladesh",
         "geometry" : {
            "bounds" : {
               "northeast" : {
                  "lat" : 25.9883644,
                  "lng" : 89.443506
               },
               "southwest" : {
                  "lat" : 25.9803452,
                  "lng" : 89.4412476
               }
            },
            "location" : {
               "lat" : 25.9848298,
               "lng" : 89.44126370000001
            },
            "location_type" : "GEOMETRIC_CENTER",
            "viewport" : {
               "northeast" : {
                  "lat" : 25.9883644,
                  "lng" : 89.4437257802915
               },
               "southwest" : {
                  "lat" : 25.9803452,
                  "lng" : 89.44102781970849
               }
            }
         },
         "partial_match" : true,
         "types" : [ "route" ]
      },
      {
         "address_components" : [
            {
               "long_name" : "Road",
               "short_name" : "Road",
               "types" : [ "route" ]
            },
            {
               "long_name" : "Mah'shahr",
               "short_name" : "Mah'shahr",
               "types" : [ "administrative_area_level_2", "political" ]
            },
            {
               "long_name" : "Khuzestan",
               "short_name" : "Khuzestan",
               "types" : [ "administrative_area_level_1", "political" ]
            },
            {
               "long_name" : "Iran",
               "short_name" : "IR",
               "types" : [ "country", "political" ]
            }
         ],
         "formatted_address" : "Khuzestan, Road, Iran",
         "geometry" : {
            "bounds" : {
               "northeast" : {
                  "lat" : 30.6903192,
                  "lng" : 49.1628554
               },
               "southwest" : {
                  "lat" : 30.6075576,
                  "lng" : 49.1569555
               }
            },
            "location" : {
               "lat" : 30.6501564,
               "lng" : 49.1597092
            },
            "location_type" : "GEOMETRIC_CENTER",
            "viewport" : {
               "northeast" : {
                  "lat" : 30.6903192,
                  "lng" : 49.1628554
               },
               "southwest" : {
                  "lat" : 30.6075576,
                  "lng" : 49.1569555
               }
            }
         },
         "partial_match" : true,
         "types" : [ "route" ]
      },
      {
         "address_components" : [
            {
               "long_name" : "M Road",
               "short_name" : "M Rd",
               "types" : [ "route" ]
            },
            {
               "long_name" : "Gaylord",
               "short_name" : "Gaylord",
               "types" : [ "locality", "political" ]
            },
            {
               "long_name" : "Smith County",
               "short_name" : "Smith County",
               "types" : [ "administrative_area_level_2", "political" ]
            },
            {
               "long_name" : "Kansas",
               "short_name" : "KS",
               "types" : [ "administrative_area_level_1", "political" ]
            },
            {
               "long_name" : "United States",
               "short_name" : "US",
               "types" : [ "country", "political" ]
            },
            {
               "long_name" : "67638",
               "short_name" : "67638",
               "types" : [ "postal_code" ]
            }
         ],
         "formatted_address" : "M Road, Gaylord, KS 67638, USA",
         "geometry" : {
            "bounds" : {
               "northeast" : {
                  "lat" : 39.6692488,
                  "lng" : -98.8405283
               },
               "southwest" : {
                  "lat" : 39.5678829,
                  "lng" : -98.84172939999999
               }
            },
            "location" : {
               "lat" : 39.6170515,
               "lng" : -98.84169089999999
            },
            "location_type" : "GEOMETRIC_CENTER",
            "viewport" : {
               "northeast" : {
                  "lat" : 39.6692488,
                  "lng" : -98.83977986970849
               },
               "southwest" : {
                  "lat" : 39.5678829,
                  "lng" : -98.8424778302915
               }
            }
         },
         "partial_match" : true,
         "types" : [ "route" ]
      },
      {
         "address_components" : [
            {
               "long_name" : "Road",
               "short_name" : "Road",
               "types" : [ "route" ]
            },
            {
               "long_name" : "6th of October City",
               "short_name" : "6th of October City",
               "types" : [ "locality", "political" ]
            },
            {
               "long_name" : "Giza Governorate",
               "short_name" : "Giza Governorate",
               "types" : [ "administrative_area_level_1", "political" ]
            },
            {
               "long_name" : "Egypt",
               "short_name" : "EG",
               "types" : [ "country", "political" ]
            }
         ],
         "formatted_address" : "Road, Giza Governorate, Egypt",
         "geometry" : {
            "bounds" : {
               "northeast" : {
                  "lat" : 29.9724008,
                  "lng" : 30.9225438
               },
               "southwest" : {
                  "lat" : 29.9697066,
                  "lng" : 30.9198883
               }
            },
            "location" : {
               "lat" : 29.9710383,
               "lng" : 30.9212546
            },
            "location_type" : "GEOMETRIC_CENTER",
            "viewport" : {
               "northeast" : {
                  "lat" : 29.9724026802915,
                  "lng" : 30.92256503029149
               },
               "southwest" : {
                  "lat" : 29.9697047197085,
                  "lng" : 30.91986706970849
               }
            }
         },
         "partial_match" : true,
         "types" : [ "route" ]
      },
      {
         "address_components" : [
            {
               "long_name" : "Road",
               "short_name" : "Road",
               "types" : [ "route" ]
            },
            {
               "long_name" : "Rangbhang",
               "short_name" : "Rangbhang",
               "types" : [ "neighborhood", "political" ]
            },
            {
               "long_name" : "Putalibazar",
               "short_name" : "Putalibazar",
               "types" : [ "locality", "political" ]
            },
            {
               "long_name" : "Gandaki",
               "short_name" : "Gandaki",
               "types" : [ "administrative_area_level_2", "political" ]
            },
            {
               "long_name" : "Western Region",
               "short_name" : "Western Region",
               "types" : [ "administrative_area_level_1", "political" ]
            },
            {
               "long_name" : "Nepal",
               "short_name" : "NP",
               "types" : [ "country", "political" ]
            },
            {
               "long_name" : "33800",
               "short_name" : "33800",
               "types" : [ "postal_code" ]
            }
         ],
         "formatted_address" : "Road, Putalibazar 33800, Nepal",
         "geometry" : {
            "bounds" : {
               "northeast" : {
                  "lat" : 28.092786,
                  "lng" : 83.8804114
               },
               "southwest" : {
                  "lat" : 28.0723022,
                  "lng" : 83.86887709999999
               }
            },
            "location" : {
               "lat" : 28.0822038,
               "lng" : 83.8737488
            },
            "location_type" : "GEOMETRIC_CENTER",
            "viewport" : {
               "northeast" : {
                  "lat" : 28.092786,
                  "lng" : 83.8804114
               },
               "southwest" : {
                  "lat" : 28.0723022,
                  "lng" : 83.86887709999999
               }
            }
         },
         "partial_match" : true,
         "types" : [ "route" ]
      },
      {
         "address_components" : [
            {
               "long_name" : "Road",
               "short_name" : "Road",
               "types" : [ "route" ]
            },
            {
               "long_name" : "Gadhinglaj",
               "short_name" : "Gadhinglaj",
               "types" : [ "locality", "political" ]
            },
            {
               "long_name" : "Kolhapur",
               "short_name" : "Kolhapur",
               "types" : [ "administrative_area_level_2", "political" ]
            },
            {
               "long_name" : "Maharashtra",
               "short_name" : "MH",
               "types" : [ "administrative_area_level_1", "political" ]
            },
            {
               "long_name" : "India",
               "short_name" : "IN",
               "types" : [ "country", "political" ]
            },
            {
               "long_name" : "416502",
               "short_name" : "416502",
               "types" : [ "postal_code" ]
            }
         ],
         "formatted_address" : "Road, Gadhinglaj, Maharashtra 416502, India",
         "geometry" : {
            "bounds" : {
               "northeast" : {
                  "lat" : 16.2360159,
                  "lng" : 74.3722272
               },
               "southwest" : {
                  "lat" : 16.2221345,
                  "lng" : 74.35688499999999
               }
            },
            "location" : {
               "lat" : 16.2294264,
               "lng" : 74.36372999999999
            },
            "location_type" : "GEOMETRIC_CENTER",
            "viewport" : {
               "northeast" : {
                  "lat" : 16.2360159,
                  "lng" : 74.3722272
               },
               "southwest" : {
                  "lat" : 16.2221345,
                  "lng" : 74.35688499999999
               }
            }
         },
         "partial_match" : true,
         "types" : [ "route" ]
      },
      {
         "address_components" : [
            {
               "long_name" : "Road",
               "short_name" : "Road",
               "types" : [ "route" ]
            },
            {
               "long_name" : "Pabna",
               "short_name" : "Pabna",
               "types" : [ "administrative_area_level_2", "political" ]
            },
            {
               "long_name" : "Rajshahi Division",
               "short_name" : "Rajshahi Division",
               "types" : [ "administrative_area_level_1", "political" ]
            },
            {
               "long_name" : "Bangladesh",
               "short_name" : "BD",
               "types" : [ "country", "political" ]
            }
         ],
         "formatted_address" : "Road, Bangladesh",
         "geometry" : {
            "bounds" : {
               "northeast" : {
                  "lat" : 23.9671464,
                  "lng" : 89.58166659999999
               },
               "southwest" : {
                  "lat" : 23.963019,
                  "lng" : 89.5621374
               }
            },
            "location" : {
               "lat" : 23.964644,
               "lng" : 89.5716405
            },
            "location_type" : "GEOMETRIC_CENTER",
            "viewport" : {
               "northeast" : {
                  "lat" : 23.9671464,
                  "lng" : 89.58166659999999
               },
               "southwest" : {
                  "lat" : 23.963019,
                  "lng" : 89.5621374
               }
            }
         },
         "partial_match" : true,
         "types" : [ "route" ]
      },
      {
         "address_components" : [
            {
               "long_name" : "Road",
               "short_name" : "Road",
               "types" : [ "route" ]
            },
            {
               "long_name" : "Abhar",
               "short_name" : "Abhar",
               "types" : [ "locality", "political" ]
            },
            {
               "long_name" : "Zanjan",
               "short_name" : "Zanjan",
               "types" : [ "administrative_area_level_1", "political" ]
            },
            {
               "long_name" : "Iran",
               "short_name" : "IR",
               "types" : [ "country", "political" ]
            }
         ],
         "formatted_address" : "Zanjan, Abhar, Road, Iran",
         "geometry" : {
            "bounds" : {
               "northeast" : {
                  "lat" : 36.1870105,
                  "lng" : 49.2453485
               },
               "southwest" : {
                  "lat" : 36.1701326,
                  "lng" : 49.220767
               }
            },
            "location" : {
               "lat" : 36.1795594,
               "lng" : 49.23455569999999
            },
            "location_type" : "GEOMETRIC_CENTER",
            "viewport" : {
               "northeast" : {
                  "lat" : 36.1870105,
                  "lng" : 49.2453485
               },
               "southwest" : {
                  "lat" : 36.1701326,
                  "lng" : 49.220767
               }
            }
         },
         "partial_match" : true,
         "types" : [ "route" ]
      },
      {
         "address_components" : [
            {
               "long_name" : "Road",
               "short_name" : "Road",
               "types" : [ "route" ]
            },
            {
               "long_name" : "Taungoo",
               "short_name" : "Taungoo",
               "types" : [ "administrative_area_level_2", "political" ]
            },
            {
               "long_name" : "Bago Region",
               "short_name" : "Bago Region",
               "types" : [ "administrative_area_level_1", "political" ]
            },
            {
               "long_name" : "Republic of the Union of Myanmar",
               "short_name" : "MM",
               "types" : [ "country", "political" ]
            }
         ],
         "formatted_address" : "Road, Republic of the Union of Myanmar",
         "geometry" : {
            "bounds" : {
               "northeast" : {
                  "lat" : 18.8760773,
                  "lng" : 96.51511789999999
               },
               "southwest" : {
                  "lat" : 18.8738845,
                  "lng" : 96.50080559999999
               }
            },
            "location" : {
               "lat" : 18.8750881,
               "lng" : 96.50821099999999
            },
            "location_type" : "GEOMETRIC_CENTER",
            "viewport" : {
               "northeast" : {
                  "lat" : 18.8763298802915,
                  "lng" : 96.51511789999999
               },
               "southwest" : {
                  "lat" : 18.8736319197085,
                  "lng" : 96.50080559999999
               }
            }
         },
         "partial_match" : true,
         "types" : [ "route" ]
      }
   ],
   "status" : "OK"
}
