{
   "results" : [
      {
         "address_components" : [
            {
               "long_name" : "South Road",
               "short_name" : "South Rd",
               "types" : [ "route" ]
            },
            {
               "long_name" : "Poughkeepsie",
               "short_name" : "Poughkeepsie",
               "types" : [ "locality", "political" ]
            },
            {
               "long_name" : "Dutchess County",
               "short_name" : "Dutchess County",
               "types" : [ "administrative_area_level_2", "political" ]
            },
            {
               "long_name" : "New York",
               "short_name" : "NY",
               "types" : [ "administrative_area_level_1", "political" ]
            },
            {
               "long_name" : "United States",
               "short_name" : "US",
               "types" : [ "country", "political" ]
            }
         ],
         "formatted_address" : "South Road, Poughkeepsie, NY, USA",
         "geometry" : {
            "bounds" : {
               "northeast" : {
                  "lat" : 41.6878483,
                  "lng" : -73.90933
               },
               "southwest" : {
                  "lat" : 41.60688,
                  "lng" : -73.936261
               }
            },
            "location" : {
               "lat" : 41.6465537,
               "lng" : -73.92427619999999
            },
            "location_type" : "GEOMETRIC_CENTER",
            "viewport" : {
               "northeast" : {
                  "lat" : 41.6878483,
                  "lng" : -73.90933
               },
               "southwest" : {
                  "lat" : 41.60688,
                  "lng" : -73.936261
               }
            }
         },
         "types" : [ "route" ]
      },
      {
         "address_components" : [
            {
               "long_name" : "South Road",
               "short_name" : "South Road",
               "types" : [ "route" ]
            },
            {
               "long_name" : "Adelaide",
               "short_name" : "Adelaide",
               "types" : [ "colloquial_area", "locality", "political" ]
            },
            {
               "long_name" : "South Australia",
               "short_name" : "SA",
               "types" : [ "administrative_area_level_1", "political" ]
            },
            {
               "long_name" : "Australia",
               "short_name" : "AU",
               "types" : [ "country", "political" ]
            }
         ],
         "formatted_address" : "South Road, Adelaide SA, Australia",
         "geometry" : {
            "bounds" : {
               "northeast" : {
                  "lat" : -34.8333436,
                  "lng" : 138.577228
               },
               "southwest" : {
                  "lat" : -35.0231666,
                  "lng" : 138.562401
               }
            },
            "location" : {
               "lat" : -34.9285599,
               "lng" : 138.5700274
            },
            "location_type" : "GEOMETRIC_CENTER",
            "viewport" : {
               "northeast" : {
                  "lat" : -34.8333436,
                  "lng" : 138.577228
               },
               "southwest" : {
                  "lat" : -35.0231666,
                  "lng" : 138.562401
               }
            }
         },
         "types" : [ "route" ]
      },
      {
         "address_components" : [
            {
               "long_name" : "South Road",
               "short_name" : "S Rd",
               "types" : [ "route" ]
            },
            {
               "long_name" : "Rhinebeck",
               "short_name" : "Rhinebeck",
               "types" : [ "locality", "political" ]
            },
            {
               "long_name" : "Rhinebeck",
               "short_name" : "Rhinebeck",
               "types" : [ "administrative_area_level_3", "political" ]
            },
            {
               "long_name" : "Dutchess County",
               "short_name" : "Dutchess County",
               "types" : [ "administrative_area_level_2", "political" ]
            },
            {
               "long_name" : "New York",
               "short_name" : "NY",
               "types" : [ "administrative_area_level_1", "political" ]
            },
            {
               "long_name" : "United States",
               "short_name" : "US",
               "types" : [ "country", "political" ]
            },
            {
               "long_name" : "12572",
               "short_name" : "12572",
               "types" : [ "postal_code" ]
            }
         ],
         "formatted_address" : "South Road, Rhinebeck, NY 12572, USA",
         "geometry" : {
            "bounds" : {
               "northeast" : {
                  "lat" : 41.9206239,
                  "lng" : -73.90536770000001
               },
               "southwest" : {
                  "lat" : 41.8830976,
                  "lng" : -73.91184079999999
               }
            },
            "location" : {
               "lat" : 41.9019095,
               "lng" : -73.9106268
            },
            "location_type" : "GEOMETRIC_CENTER",
            "viewport" : {
               "northeast" : {
                  "lat" : 41.9206239,
                  "lng" : -73.90536770000001
               },
               "southwest" : {
                  "lat" : 41.8830976,
                  "lng" : -73.91184079999999
               }
            }
         },
         "types" : [ "route" ]
      },
      {
         "address_components" : [
            {
               "long_name" : "South Road",
               "short_name" : "S Rd",
               "types" : [ "route" ]
            },
            {
               "long_name" : "Nebraska",
               "short_name" : "NE",
               "types" : [ "administrative_area_level_1", "political" ]
            },
            {
               "long_name" : "United States",
               "short_name" : "US",
               "types" : [ "country", "political" ]
            }
         ],
         "formatted_address" : "South Road, Nebraska, USA",
         "geometry" : {
            "bounds" : {
               "northeast" : {
                  "lat" : 42.0099539,
                  "lng" : -96.55522950000001
               },
               "southwest" : {
                  "lat" : 42.0001747,
                  "lng" : -97.01952229999999
               }
            },
            "location" : {
               "lat" : 42.0033609,
               "lng" : -96.7874966
            },
            "location_type" : "GEOMETRIC_CENTER",
            "viewport" : {
               "northeast" : {
                  "lat" : 42.0099539,
                  "lng" : -96.55522950000001
               },
               "southwest" : {
                  "lat" : 42.0001747,
                  "lng" : -97.01952229999999
               }
            }
         },
         "types" : [ "route" ]
      },
      {
         "address_components" : [
            {
               "long_name" : "South Road",
               "short_name" : "S Rd",
               "types" : [ "route" ]
            },
            {
               "long_name" : "Cadiz",
               "short_name" : "Cadiz",
               "types" : [ "locality", "political" ]
            },
            {
               "long_name" : "Kentucky",
               "short_name" : "KY",
               "types" : [ "administrative_area_level_1", "political" ]
            },
            {
               "long_name" : "United States",
               "short_name" : "US",
               "types" : [ "country", "political" ]
            },
            {
               "long_name" : "42211",
               "short_name" : "42211",
               "types" : [ "postal_code" ]
            }
         ],
         "formatted_address" : "South Road, Cadiz, KY 42211, USA",
         "geometry" : {
            "bounds" : {
               "northeast" : {
                  "lat" : 36.8601111,
                  "lng" : -87.7978344
               },
               "southwest" : {
                  "lat" : 36.6290936,
                  "lng" : -87.8395407
               }
            },
            "location" : {
               "lat" : 36.7513732,
               "lng" : -87.80214219999999
            },
            "location_type" : "GEOMETRIC_CENTER",
            "viewport" : {
               "northeast" : {
                  "lat" : 36.8601111,
                  "lng" : -87.7978344
               },
               "southwest" : {
                  "lat" : 36.6290936,
                  "lng" : -87.8395407
               }
            }
         },
         "types" : [ "route" ]
      },
      {
         "address_components" : [
            {
               "long_name" : "South Road",
               "short_name" : "South Rd",
               "types" : [ "route" ]
            },
            {
               "long_name" : "Topsfield",
               "short_name" : "Topsfield",
               "types" : [ "locality", "political" ]
            },
            {
               "long_name" : "Washington County",
               "short_name" : "Washington County",
               "types" : [ "administrative_area_level_2", "political" ]
            },
            {
               "long_name" : "Maine",
               "short_name" : "ME",
               "types" : [ "administrative_area_level_1", "political" ]
            },
            {
               "long_name" : "United States",
               "short_name" : "US",
               "types" : [ "country", "political" ]
            },
            {
               "long_name" : "04490",
               "short_name" : "04490",
               "types" : [ "postal_code" ]
            }
         ],
         "formatted_address" : "South Road, Topsfield, ME 04490, USA",
         "geometry" : {
            "bounds" : {
               "northeast" : {
                  "lat" : 45.4189669,
                  "lng" : -67.7162151
               },
               "southwest" : {
                  "lat" : 45.3901821,
                  "lng" : -67.7358864
               }
            },
            "location" : {
               "lat" : 45.4040977,
               "lng" : -67.72827409999999
            },
            "location_type" : "GEOMETRIC_CENTER",
            "viewport" : {
               "northeast" : {
                  "lat" : 45.4189669,
                  "lng" : -67.7162151
               },
               "southwest" : {
                  "lat" : 45.3901821,
                  "lng" : -67.7358864
               }
            }
         },
         "types" : [ "route" ]
      },
      {
         "address_components" : [
            {
               "long_name" : "South Road",
               "short_name" : "South Road",
               "types" : [ "route" ]
            },
            {
               "long_name" : "Melbourne",
               "short_name" : "Melbourne",
               "types" : [ "colloquial_area", "locality", "political" ]
            },
            {
               "long_name" : "Victoria",
               "short_name" : "VIC",
               "types" : [ "administrative_area_level_1", "political" ]
            },
            {
               "long_name" : "Australia",
               "short_name" : "AU",
               "types" : [ "country", "political" ]
            }
         ],
         "formatted_address" : "South Road, Melbourne VIC, Australia",
         "geometry" : {
            "bounds" : {
               "northeast" : {
                  "lat" : -37.92534500000001,
                  "lng" : 145.0797556
               },
               "southwest" : {
                  "lat" : -37.939233,
                  "lng" : 144.9887219
               }
            },
            "location" : {
               "lat" : -37.9328734,
               "lng" : 145.0340788
            },
            "location_type" : "GEOMETRIC_CENTER",
            "viewport" : {
               "northeast" : {
                  "lat" : -37.92534500000001,
                  "lng" : 145.0797556
               },
               "southwest" : {
                  "lat" : -37.939233,
                  "lng" : 144.9887219
               }
            }
         },
         "types" : [ "route" ]
      },
      {
         "address_components" : [
            {
               "long_name" : "South Road",
               "short_name" : "S Rd",
               "types" : [ "route" ]
            },
            {
               "long_name" : "Woodstock",
               "short_name" : "Woodstock",
               "types" : [ "locality", "political" ]
            },
            {
               "long_name" : "Windsor County",
               "short_name" : "Windsor County",
               "types" : [ "administrative_area_level_2", "political" ]
            },
            {
               "long_name" : "Vermont",
               "short_name" : "VT",
               "types" : [ "administrative_area_level_1", "political" ]
            },
            {
               "long_name" : "United States",
               "short_name" : "US",
               "types" : [ "country", "political" ]
            },
            {
               "long_name" : "05091",
               "short_name" : "05091",
               "types" : [ "postal_code" ]
            }
         ],
         "formatted_address" : "South Road, Woodstock, VT 05091, USA",
         "geometry" : {
            "bounds" : {
               "northeast" : {
                  "lat" : 43.6142688,
                  "lng" : -72.5137778
               },
               "southwest" : {
                  "lat" : 43.5396353,
                  "lng" : -72.5547201
               }
            },
            "location" : {
               "lat" : 43.5654507,
               "lng" : -72.53248499999999
            },
            "location_type" : "GEOMETRIC_CENTER",
            "viewport" : {
               "northeast" : {
                  "lat" : 43.6142688,
                  "lng" : -72.5137778
               },
               "southwest" : {
                  "lat" : 43.5396353,
                  "lng" : -72.5547201
               }
            }
         },
         "types" : [ "route" ]
      },
      {
         "address_components" : [
            {
               "long_name" : "South Road",
               "short_name" : "S Rd",
               "types" : [ "route" ]
            },
            {
               "long_name" : "Denmark",
               "short_name" : "Denmark",
               "types" : [ "locality", "political" ]
            },
            {
               "long_name" : "Oxford County",
               "short_name" : "Oxford County",
               "types" : [ "administrative_area_level_2", "political" ]
            },
            {
               "long_name" : "Maine",
               "short_name" : "ME",
               "types" : [ "administrative_area_level_1", "political" ]
            },
            {
               "long_name" : "United States",
               "short_name" : "US",
               "types" : [ "country", "political" ]
            }
         ],
         "formatted_address" : "South Road, Denmark, ME, USA",
         "geometry" : {
            "bounds" : {
               "northeast" : {
                  "lat" : 43.9709191,
                  "lng" : -70.7901224
               },
               "southwest" : {
                  "lat" : 43.8841331,
                  "lng" : -70.80414189999999
               }
            },
            "location" : {
               "lat" : 43.9279488,
               "lng" : -70.79600959999999
            },
            "location_type" : "GEOMETRIC_CENTER",
            "viewport" : {
               "northeast" : {
                  "lat" : 43.9709191,
                  "lng" : -70.7901224
               },
               "southwest" : {
                  "lat" : 43.8841331,
                  "lng" : -70.80414189999999
               }
            }
         },
         "types" : [ "route" ]
      },
      {
         "address_components" : [
            {
               "long_name" : "South Road",
               "short_name" : "South Rd",
               "types" : [ "route" ]
            },
            {
               "long_name" : "Pepperell",
               "short_name" : "Pepperell",
               "types" : [ "locality", "political" ]
            },
            {
               "long_name" : "Middlesex County",
               "short_name" : "Middlesex County",
               "types" : [ "administrative_area_level_2", "political" ]
            },
            {
               "long_name" : "Massachusetts",
               "short_name" : "MA",
               "types" : [ "administrative_area_level_1", "political" ]
            },
            {
               "long_name" : "United States",
               "short_name" : "US",
               "types" : [ "country", "political" ]
            },
            {
               "long_name" : "01463",
               "short_name" : "01463",
               "types" : [ "postal_code" ]
            }
         ],
         "formatted_address" : "South Road, Pepperell, MA 01463, USA",
         "geometry" : {
            "bounds" : {
               "northeast" : {
                  "lat" : 42.649663,
                  "lng" : -71.592432
               },
               "southwest" : {
                  "lat" : 42.626188,
                  "lng" : -71.65790129999999
               }
            },
            "location" : {
               "lat" : 42.6389975,
               "lng" : -71.624061
            },
            "location_type" : "GEOMETRIC_CENTER",
            "viewport" : {
               "northeast" : {
                  "lat" : 42.649663,
                  "lng" : -71.592432
               },
               "southwest" : {
                  "lat" : 42.626188,
                  "lng" : -71.65790129999999
               }
            }
         },
         "types" : [ "route" ]
      },
      {
         "address_components" : [
            {
               "long_name" : "South Road",
               "short_name" : "South Rd",
               "types" : [ "route" ]
            },
            {
               "long_name" : "Taranaki",
               "short_name" : "Taranaki",
               "types" : [ "administrative_area_level_1", "political" ]
            },
            {
               "long_name" : "New Zealand",
               "short_name" : "NZ",
               "types" : [ "country", "political" ]
            }
         ],
         "formatted_address" : "South Road, Taranaki, New Zealand",
         "geometry" : {
            "bounds" : {
               "northeast" : {
                  "lat" : -39.4571117,
                  "lng" : 174.4487763
               },
               "southwest" : {
                  "lat" : -39.7095166,
                  "lng" : 173.8663065
               }
            },
            "location" : {
               "lat" : -39.5600411,
               "lng" : 174.1668891
            },
            "location_type" : "GEOMETRIC_CENTER",
            "viewport" : {
               "northeast" : {
                  "lat" : -39.4571117,
                  "lng" : 174.4487763
               },
               "southwest" : {
                  "lat" : -39.7095166,
                  "lng" : 173.8663065
               }
            }
         },
         "types" : [ "route" ]
      },
      {
         "address_components" : [
            {
               "long_name" : "South Road",
               "short_name" : "S Rd",
               "types" : [ "route" ]
            },
            {
               "long_name" : "Cherry Creek",
               "short_name" : "Cherry Creek",
               "types" : [ "locality", "political" ]
            },
            {
               "long_name" : "Chautauqua County",
               "short_name" : "Chautauqua County",
               "types" : [ "administrative_area_level_2", "political" ]
            },
            {
               "long_name" : "New York",
               "short_name" : "NY",
               "types" : [ "administrative_area_level_1", "political" ]
            },
            {
               "long_name" : "United States",
               "short_name" : "US",
               "types" : [ "country", "political" ]
            },
            {
               "long_name" : "14723",
               "short_name" : "14723",
               "types" : [ "postal_code" ]
            }
         ],
         "formatted_address" : "South Road, Cherry Creek, NY 14723, USA",
         "geometry" : {
            "bounds" : {
               "northeast" : {
                  "lat" : 42.2933177,
                  "lng" : -79.0622552
               },
               "southwest" : {
                  "lat" : 42.2420565,
                  "lng" : -79.1001251
               }
            },
            "location" : {
               "lat" : 42.2658236,
               "lng" : -79.08529810000002
            },
            "location_type" : "GEOMETRIC_CENTER",
            "viewport" : {
               "northeast" : {
                  "lat" : 42.2933177,
                  "lng" : -79.0622552
               },
               "southwest" : {
                  "lat" : 42.2420565,
                  "lng" : -79.1001251
               }
            }
         },
         "types" : [ "route" ]
      },
      {
         "address_components" : [
            {
               "long_name" : "South Road",
               "short_name" : "S Rd",
               "types" : [ "route" ]
            },
            {
               "long_name" : "Gray County",
               "short_name" : "Gray County",
               "types" : [ "administrative_area_level_2", "political" ]
            },
            {
               "long_name" : "Texas",
               "short_name" : "TX",
               "types" : [ "administrative_area_level_1", "political" ]
            },
            {
               "long_name" : "United States",
               "short_name" : "US",
               "types" : [ "country", "political" ]
            }
         ],
         "formatted_address" : "South Road, Texas, USA",
         "geometry" : {
            "bounds" : {
               "northeast" : {
                  "lat" : 35.3801098,
                  "lng" : -100.6096314
               },
               "southwest" : {
                  "lat" : 35.3403121,
                  "lng" : -100.8489655
               }
            },
            "location" : {
               "lat" : 35.342981,
               "lng" : -100.7254221
            },
            "location_type" : "GEOMETRIC_CENTER",
            "viewport" : {
               "northeast" : {
                  "lat" : 35.3801098,
                  "lng" : -100.6096314
               },
               "southwest" : {
                  "lat" : 35.3403121,
                  "lng" : -100.8489655
               }
            }
         },
         "types" : [ "route" ]
      },
      {
         "address_components" : [
            {
               "long_name" : "South Road",
               "short_name" : "S Rd",
               "types" : [ "route" ]
            },
            {
               "long_name" : "Rockingham County",
               "short_name" : "Rockingham County",
               "types" : [ "administrative_area_level_2", "political" ]
            },
            {
               "long_name" : "New Hampshire",
               "short_name" : "NH",
               "types" : [ "administrative_area_level_1", "political" ]
            },
            {
               "long_name" : "United States",
               "short_name" : "US",
               "types" : [ "country", "political" ]
            }
         ],
         "formatted_address" : "South Road, New Hampshire, USA",
         "geometry" : {
            "bounds" : {
               "northeast" : {
                  "lat" : 42.918066,
                  "lng" : -70.9180033
               },
               "southwest" : {
                  "lat" : 42.9057849,
                  "lng" : -70.97789349999999
               }
            },
            "location" : {
               "lat" : 42.9085561,
               "lng" : -70.9489954
            },
            "location_type" : "GEOMETRIC_CENTER",
            "viewport" : {
               "northeast" : {
                  "lat" : 42.918066,
                  "lng" : -70.9180033
               },
               "southwest" : {
                  "lat" : 42.9057849,
                  "lng" : -70.97789349999999
               }
            }
         },
         "types" : [ "route" ]
      },
      {
         "address_components" : [
            {
               "long_name" : "South Road",
               "short_name" : "South Rd",
               "types" : [ "route" ]
            },
            {
               "long_name" : "Farmington",
               "short_name" : "Farmington",
               "types" : [ "locality", "political" ]
            },
            {
               "long_name" : "Hartford County",
               "short_name" : "Hartford County",
               "types" : [ "administrative_area_level_2", "political" ]
            },
            {
               "long_name" : "Connecticut",
               "short_name" : "CT",
               "types" : [ "administrative_area_level_1", "political" ]
            },
            {
               "long_name" : "United States",
               "short_name" : "US",
               "types" : [ "country", "political" ]
            }
         ],
         "formatted_address" : "South Road, Farmington, CT, USA",
         "geometry" : {
            "bounds" : {
               "northeast" : {
                  "lat" : 41.7281499,
                  "lng" : -72.75939129999999
               },
               "southwest" : {
                  "lat" : 41.7221122,
                  "lng" : -72.8029631
               }
            },
            "location" : {
               "lat" : 41.7227681,
               "lng" : -72.77988879999999
            },
            "location_type" : "GEOMETRIC_CENTER",
            "viewport" : {
               "northeast" : {
                  "lat" : 41.7281499,
                  "lng" : -72.75939129999999
               },
               "southwest" : {
                  "lat" : 41.7221122,
                  "lng" : -72.8029631
               }
            }
         },
         "types" : [ "route" ]
      },
      {
         "address_components" : [
            {
               "long_name" : "738 Road",
               "short_name" : "738 Rd",
               "types" : [ "route" ]
            },
            {
               "long_name" : "Nebraska",
               "short_name" : "NE",
               "types" : [ "administrative_area_level_1", "political" ]
            },
            {
               "long_name" : "United States",
               "short_name" : "US",
               "types" : [ "country", "political" ]
            }
         ],
         "formatted_address" : "738 Road, Nebraska, USA",
         "geometry" : {
            "bounds" : {
               "northeast" : {
                  "lat" : 40.5238409,
                  "lng" : -95.754634
               },
               "southwest" : {
                  "lat" : 40.508457,
                  "lng" : -96.42575189999999
               }
            },
            "location" : {
               "lat" : 40.5231889,
               "lng" : -96.0929089
            },
            "location_type" : "GEOMETRIC_CENTER",
            "viewport" : {
               "northeast" : {
                  "lat" : 40.5238409,
                  "lng" : -95.754634
               },
               "southwest" : {
                  "lat" : 40.508457,
                  "lng" : -96.42575189999999
               }
            }
         },
         "types" : [ "route" ]
      },
      {
         "address_components" : [
            {
               "long_name" : "South Road",
               "short_name" : "S Rd",
               "types" : [ "route" ]
            },
            {
               "long_name" : "Salisbury",
               "short_name" : "Salisbury",
               "types" : [ "locality", "political" ]
            },
            {
               "long_name" : "Merrimack County",
               "short_name" : "Merrimack County",
               "types" : [ "administrative_area_level_2", "political" ]
            },
            {
               "long_name" : "New Hampshire",
               "short_name" : "NH",
               "types" : [ "administrative_area_level_1", "political" ]
            },
            {
               "long_name" : "United States",
               "short_name" : "US",
               "types" : [ "country", "political" ]
            },
            {
               "long_name" : "03268",
               "short_name" : "03268",
               "types" : [ "postal_code" ]
            }
         ],
         "formatted_address" : "South Road, Salisbury, NH 03268, USA",
         "geometry" : {
            "bounds" : {
               "northeast" : {
                  "lat" : 43.3789521,
                  "lng" : -71.71722339999999
               },
               "southwest" : {
                  "lat" : 43.3530636,
                  "lng" : -71.74177589999999
               }
            },
            "location" : {
               "lat" : 43.3724075,
               "lng" : -71.73441579999999
            },
            "location_type" : "GEOMETRIC_CENTER",
            "viewport" : {
               "northeast" : {
                  "lat" : 43.3789521,
                  "lng" : -71.71722339999999
               },
               "southwest" : {
                  "lat" : 43.3530636,
                  "lng" : -71.74177589999999
               }
            }
         },
         "types" : [ "route" ]
      },
      {
         "address_components" : [
            {
               "long_name" : "South Road",
               "short_name" : "S Rd",
               "types" : [ "route" ]
            },
            {
               "long_name" : "Somers",
               "short_name" : "Somers",
               "types" : [ "locality", "political" ]
            },
            {
               "long_name" : "Tolland County",
               "short_name" : "Tolland County",
               "types" : [ "administrative_area_level_2", "political" ]
            },
            {
               "long_name" : "Connecticut",
               "short_name" : "CT",
               "types" : [ "administrative_area_level_1", "political" ]
            },
            {
               "long_name" : "United States",
               "short_name" : "US",
               "types" : [ "country", "political" ]
            },
            {
               "long_name" : "06071",
               "short_name" : "06071",
               "types" : [ "postal_code" ]
            }
         ],
         "formatted_address" : "South Road, Somers, CT 06071, USA",
         "geometry" : {
            "bounds" : {
               "northeast" : {
                  "lat" : 41.9854969,
                  "lng" : -72.4405799
               },
               "southwest" : {
                  "lat" : 41.953075,
                  "lng" : -72.4480263
               }
            },
            "location" : {
               "lat" : 41.9701348,
               "lng" : -72.4432492
            },
            "location_type" : "GEOMETRIC_CENTER",
            "viewport" : {
               "northeast" : {
                  "lat" : 41.9854969,
                  "lng" : -72.4405799
               },
               "southwest" : {
                  "lat" : 41.953075,
                  "lng" : -72.4480263
               }
            }
         },
         "types" : [ "route" ]
      },
      {
         "address_components" : [
            {
               "long_name" : "South Road",
               "short_name" : "S Rd",
               "types" : [ "route" ]
            },
            {
               "long_name" : "Holden",
               "short_name" : "Holden",
               "types" : [ "locality", "political" ]
            },
            {
               "long_name" : "Worcester County",
               "short_name" : "Worcester County",
               "types" : [ "administrative_area_level_2", "political" ]
            },
            {
               "long_name" : "Massachusetts",
               "short_name" : "MA",
               "types" : [ "administrative_area_level_1", "political" ]
            },
            {
               "long_name" : "United States",
               "short_name" : "US",
               "types" : [ "country", "political" ]
            },
            {
               "long_name" : "01520",
               "short_name" : "01520",
               "types" : [ "postal_code" ]
            }
         ],
         "formatted_address" : "South Road, Holden, MA 01520, USA",
         "geometry" : {
            "bounds" : {
               "northeast" : {
                  "lat" : 42.3359913,
                  "lng" : -71.87403859999999
               },
               "southwest" : {
                  "lat" : 42.3165379,
                  "lng" : -71.8940351
               }
            },
            "location" : {
               "lat" : 42.3232363,
               "lng" : -71.8910281
            },
            "location_type" : "GEOMETRIC_CENTER",
            "viewport" : {
               "northeast" : {
                  "lat" : 42.3359913,
                  "lng" : -71.87403859999999
               },
               "southwest" : {
                  "lat" : 42.3165379,
                  "lng" : -71.8940351
               }
            }
         },
         "types" : [ "route" ]
      },
      {
         "address_components" : [
            {
               "long_name" : "South Road",
               "short_name" : "S Rd",
               "types" : [ "route" ]
            },
            {
               "long_name" : "East Hartland",
               "short_name" : "East Hartland",
               "types" : [ "neighborhood", "political" ]
            },
            {
               "long_name" : "Hartland",
               "short_name" : "Hartland",
               "types" : [ "locality", "political" ]
            },
            {
               "long_name" : "Hartford County",
               "short_name" : "Hartford County",
               "types" : [ "administrative_area_level_2", "political" ]
            },
            {
               "long_name" : "Connecticut",
               "short_name" : "CT",
               "types" : [ "administrative_area_level_1", "political" ]
            },
            {
               "long_name" : "United States",
               "short_name" : "US",
               "types" : [ "country", "political" ]
            },
            {
               "long_name" : "06027",
               "short_name" : "06027",
               "types" : [ "postal_code" ]
            }
         ],
         "formatted_address" : "South Road, East Hartland, CT 06027, USA",
         "geometry" : {
            "bounds" : {
               "northeast" : {
                  "lat" : 41.9988443,
                  "lng" : -72.90657050000002
               },
               "southwest" : {
                  "lat" : 41.9721473,
                  "lng" : -72.91678929999999
               }
            },
            "location" : {
               "lat" : 41.9854965,
               "lng" : -72.9119948
            },
            "location_type" : "GEOMETRIC_CENTER",
            "viewport" : {
               "northeast" : {
                  "lat" : 41.9988443,
                  "lng" : -72.90657050000002
               },
               "southwest" : {
                  "lat" : 41.9721473,
                  "lng" : -72.91678929999999
               }
            }
         },
         "types" : [ "route" ]
      },
      {
         "address_components" : [
            {
               "long_name" : "Nan Lu",
               "short_name" : "Nan Lu",
               "types" : [ "route" ]
            },
            {
               "long_name" : "Hechuan Qu",
               "short_name" : "Hechuan Qu",
               "types" : [ "sublocality_level_1", "sublocality", "political" ]
            },
            {
               "long_name" : "Chongqing",
               "short_name" : "Chongqing",
               "types" : [ "locality", "political" ]
            },
            {
               "long_name" : "Chongqing Shi",
               "short_name" : "Chongqing Shi",
               "types" : [ "administrative_area_level_1", "political" ]
            },
            {
               "long_name" : "China",
               "short_name" : "CN",
               "types" : [ "country", "political" ]
            }
         ],
         "formatted_address" : "Nan Lu, Hechuan Qu, Chongqing Shi, China",
         "geometry" : {
            "bounds" : {
               "northeast" : {
                  "lat" : 30.2244165,
                  "lng" : 106.1725912
               },
               "southwest" : {
                  "lat" : 30.2182336,
                  "lng" : 106.1693325
               }
            },
            "location" : {
               "lat" : 30.221188,
               "lng" : 106.1713185
            },
            "location_type" : "GEOMETRIC_CENTER",
            "viewport" : {
               "northeast" : {
                  "lat" : 30.2244165,
                  "lng" : 106.1725912
               },
               "southwest" : {
                  "lat" : 30.2182336,
                  "lng" : 106.1693325
               }
            }
         },
         "types" : [ "route" ]
      },
      {
         "address_components" : [
            {
               "long_name" : "South Road",
               "short_name" : "S Rd",
               "types" : [ "route" ]
            },
            {
               "long_name" : "Rooks County",
               "short_name" : "Rooks County",
               "types" : [ "administrative_area_level_2", "political" ]
            },
            {
               "long_name" : "Kansas",
               "short_name" : "KS",
               "types" : [ "administrative_area_level_1", "political" ]
            },
            {
               "long_name" : "United States",
               "short_name" : "US",
               "types" : [ "country", "political" ]
            }
         ],
         "formatted_address" : "South Road, Kansas, USA",
         "geometry" : {
            "bounds" : {
               "northeast" : {
                  "lat" : 39.3073312,
                  "lng" : -99.04865249999999
               },
               "southwest" : {
                  "lat" : 39.2926349,
                  "lng" : -99.3631073
               }
            },
            "location" : {
               "lat" : 39.3068714,
               "lng" : -99.2024823
            },
            "location_type" : "GEOMETRIC_CENTER",
            "viewport" : {
               "northeast" : {
                  "lat" : 39.3073312,
                  "lng" : -99.04865249999999
               },
               "southwest" : {
                  "lat" : 39.2926349,
                  "lng" : -99.3631073
               }
            }
         },
         "types" : [ "route" ]
      },
      {
         "address_components" : [
            {
               "long_name" : "South Road",
               "short_name" : "S Rd",
               "types" : [ "route" ]
            },
            {
               "long_name" : "Chilmark",
               "short_name" : "Chilmark",
               "types" : [ "locality", "political" ]
            },
            {
               "long_name" : "Dukes County",
               "short_name" : "Dukes County",
               "types" : [ "administrative_area_level_2", "political" ]
            },
            {
               "long_name" : "Massachusetts",
               "short_name" : "MA",
               "types" : [ "administrative_area_level_1", "political" ]
            },
            {
               "long_name" : "United States",
               "short_name" : "US",
               "types" : [ "country", "political" ]
            },
            {
               "long_name" : "02535",
               "short_name" : "02535",
               "types" : [ "postal_code" ]
            }
         ],
         "formatted_address" : "South Road, Chilmark, MA 02535, USA",
         "geometry" : {
            "bounds" : {
               "northeast" : {
                  "lat" : 41.376547,
                  "lng" : -70.67782500000001
               },
               "southwest" : {
                  "lat" : 41.339213,
                  "lng" : -70.744024
               }
            },
            "location" : {
               "lat" : 41.3519815,
               "lng" : -70.70158979999999
            },
            "location_type" : "GEOMETRIC_CENTER",
            "viewport" : {
               "northeast" : {
                  "lat" : 41.376547,
                  "lng" : -70.67782500000001
               },
               "southwest" : {
                  "lat" : 41.339213,
                  "lng" : -70.744024
               }
            }
         },
         "types" : [ "route" ]
      },
      {
         "address_components" : [
            {
               "long_name" : "South Road",
               "short_name" : "South Rd",
               "types" : [ "route" ]
            },
            {
               "long_name" : "Larned",
               "short_name" : "Larned",
               "types" : [ "locality", "political" ]
            },
            {
               "long_name" : "Pawnee County",
               "short_name" : "Pawnee County",
               "types" : [ "administrative_area_level_2", "political" ]
            },
            {
               "long_name" : "Kansas",
               "short_name" : "KS",
               "types" : [ "administrative_area_level_1", "political" ]
            },
            {
               "long_name" : "United States",
               "short_name" : "US",
               "types" : [ "country", "political" ]
            },
            {
               "long_name" : "67550",
               "short_name" : "67550",
               "types" : [ "postal_code" ]
            }
         ],
         "formatted_address" : "South Road, Larned, KS 67550, USA",
         "geometry" : {
            "bounds" : {
               "northeast" : {
                  "lat" : 38.247834,
                  "lng" : -99.03166400000001
               },
               "southwest" : {
                  "lat" : 38.246649,
                  "lng" : -99.35137899999999
               }
            },
            "location" : {
               "lat" : 38.246781,
               "lng" : -99.18756599999999
            },
            "location_type" : "GEOMETRIC_CENTER",
            "viewport" : {
               "northeast" : {
                  "lat" : 38.2485904802915,
                  "lng" : -99.03166400000001
               },
               "southwest" : {
                  "lat" : 38.2458925197085,
                  "lng" : -99.35137899999999
               }
            }
         },
         "types" : [ "route" ]
      },
      {
         "address_components" : [
            {
               "long_name" : "South Road",
               "short_name" : "South Rd",
               "types" : [ "route" ]
            },
            {
               "long_name" : "Bethaven",
               "short_name" : "Bethaven",
               "types" : [ "locality", "political" ]
            },
            {
               "long_name" : "Smith's",
               "short_name" : "Smith's",
               "types" : [ "administrative_area_level_2", "political" ]
            },
            {
               "long_name" : "Smiths",
               "short_name" : "Smiths",
               "types" : [ "administrative_area_level_1", "political" ]
            },
            {
               "long_name" : "Bermuda",
               "short_name" : "BM",
               "types" : [ "country", "political" ]
            }
         ],
         "formatted_address" : "South Road, Bethaven, Bermuda",
         "geometry" : {
            "bounds" : {
               "northeast" : {
                  "lat" : 32.3352088,
                  "lng" : -64.6917272
               },
               "southwest" : {
                  "lat" : 32.2884018,
                  "lng" : -64.7667943
               }
            },
            "location" : {
               "lat" : 32.3127494,
               "lng" : -64.72965359999999
            },
            "location_type" : "GEOMETRIC_CENTER",
            "viewport" : {
               "northeast" : {
                  "lat" : 32.3352088,
                  "lng" : -64.6917272
               },
               "southwest" : {
                  "lat" : 32.2884018,
                  "lng" : -64.7667943
               }
            }
         },
         "types" : [ "route" ]
      },
      {
         "address_components" : [
            {
               "long_name" : "South Road",
               "short_name" : "S Rd",
               "types" : [ "route" ]
            },
            {
               "long_name" : "Deerfield",
               "short_name" : "Deerfield",
               "types" : [ "locality", "political" ]
            },
            {
               "long_name" : "Rockingham County",
               "short_name" : "Rockingham County",
               "types" : [ "administrative_area_level_2", "political" ]
            },
            {
               "long_name" : "New Hampshire",
               "short_name" : "NH",
               "types" : [ "administrative_area_level_1", "political" ]
            },
            {
               "long_name" : "United States",
               "short_name" : "US",
               "types" : [ "country", "political" ]
            },
            {
               "long_name" : "03037",
               "short_name" : "03037",
               "types" : [ "postal_code" ]
            }
         ],
         "formatted_address" : "South Road, Deerfield, NH 03037, USA",
         "geometry" : {
            "bounds" : {
               "northeast" : {
                  "lat" : 43.1379525,
                  "lng" : -71.25202539999999
               },
               "southwest" : {
                  "lat" : 43.0576713,
                  "lng" : -71.3220424
               }
            },
            "location" : {
               "lat" : 43.10102940000001,
               "lng" : -71.2861564
            },
            "location_type" : "GEOMETRIC_CENTER",
            "viewport" : {
               "northeast" : {
                  "lat" : 43.1379525,
                  "lng" : -71.25202539999999
               },
               "southwest" : {
                  "lat" : 43.0576713,
                  "lng" : -71.3220424
               }
            }
         },
         "types" : [ "route" ]
      },
      {
         "address_components" : [
            {
               "long_name" : "South Road",
               "short_name" : "S Rd",
               "types" : [ "route" ]
            },
            {
               "long_name" : "Watertown",
               "short_name" : "Watertown",
               "types" : [ "locality", "political" ]
            },
            {
               "long_name" : "Watertown",
               "short_name" : "Watertown",
               "types" : [ "administrative_area_level_3", "political" ]
            },
            {
               "long_name" : "Jefferson County",
               "short_name" : "Jefferson County",
               "types" : [ "administrative_area_level_2", "political" ]
            },
            {
               "long_name" : "Wisconsin",
               "short_name" : "WI",
               "types" : [ "administrative_area_level_1", "political" ]
            },
            {
               "long_name" : "United States",
               "short_name" : "US",
               "types" : [ "country", "political" ]
            },
            {
               "long_name" : "53094",
               "short_name" : "53094",
               "types" : [ "postal_code" ]
            }
         ],
         "formatted_address" : "South Road, Watertown, WI 53094, USA",
         "geometry" : {
            "bounds" : {
               "northeast" : {
                  "lat" : 43.166128,
                  "lng" : -88.703333
               },
               "southwest" : {
                  "lat" : 43.1578338,
                  "lng" : -88.70648199999999
               }
            },
            "location" : {
               "lat" : 43.1623154,
               "lng" : -88.70442559999999
            },
            "location_type" : "GEOMETRIC_CENTER",
            "viewport" : {
               "northeast" : {
                  "lat" : 43.166128,
                  "lng" : -88.703333
               },
               "southwest" : {
                  "lat" : 43.1578338,
                  "lng" : -88.70648199999999
               }
            }
         },
         "types" : [ "route" ]
      },
      {
         "address_components" : [
            {
               "long_name" : "South Road",
               "short_name" : "South Rd",
               "types" : [ "route" ]
            },
            {
               "long_name" : "Tasmania",
               "short_name" : "TAS",
               "types" : [ "administrative_area_level_1", "political" ]
            },
            {
               "long_name" : "Australia",
               "short_name" : "AU",
               "types" : [ "country", "political" ]
            },
            {
               "long_name" : "7256",
               "short_name" : "7256",
               "types" : [ "postal_code" ]
            }
         ],
         "formatted_address" : "South Road, Tasmania 7256, Australia",
         "geometry" : {
            "bounds" : {
               "northeast" : {
                  "lat" : -39.944291,
                  "lng" : 143.93724
               },
               "southwest" : {
                  "lat" : -40.1183395,
                  "lng" : 143.8883536
               }
            },
            "location" : {
               "lat" : -40.0314592,
               "lng" : 143.9081526
            },
            "location_type" : "GEOMETRIC_CENTER",
            "viewport" : {
               "northeast" : {
                  "lat" : -39.944291,
                  "lng" : 143.93724
               },
               "southwest" : {
                  "lat" : -40.1183395,
                  "lng" : 143.8883536
               }
            }
         },
         "types" : [ "route" ]
      },
      {
         "address_components" : [
            {
               "long_name" : "South Road",
               "short_name" : "South Rd",
               "types" : [ "route" ]
            },
            {
               "long_name" : "Port Glasgow",
               "short_name" : "Port Glasgow",
               "types" : [ "locality", "political" ]
            },
            {
               "long_name" : "Port Glasgow",
               "short_name" : "Port Glasgow",
               "types" : [ "postal_town" ]
            },
            {
               "long_name" : "Inverclyde",
               "short_name" : "Inverclyde",
               "types" : [ "administrative_area_level_2", "political" ]
            },
            {
               "long_name" : "United Kingdom",
               "short_name" : "GB",
               "types" : [ "country", "political" ]
            },
            {
               "long_name" : "PA14",
               "short_name" : "PA14",
               "types" : [ "postal_code_prefix", "postal_code" ]
            }
         ],
         "formatted_address" : "South Road, Port Glasgow, Port Glasgow, Inverclyde PA14, UK",
         "geometry" : {
            "bounds" : {
               "northeast" : {
                  "lat" : 55.9275771,
                  "lng" : -4.6646687
               },
               "southwest" : {
                  "lat" : 55.9248645,
                  "lng" : -4.6698788
               }
            },
            "location" : {
               "lat" : 55.9266101,
               "lng" : -4.6670064
            },
            "location_type" : "GEOMETRIC_CENTER",
            "viewport" : {
               "northeast" : {
                  "lat" : 55.9275771,
                  "lng" : -4.6646687
               },
               "southwest" : {
                  "lat" : 55.9248645,
                  "lng" : -4.6698788
               }
            }
         },
         "types" : [ "route" ]
      }
   ],
   "status" : "OK"
}
