{
   "results" : [
      {
         "address_components" : [
            {
               "long_name" : "Eastern",
               "short_name" : "Eastern",
               "types" : [ "route" ]
            },
            {
               "long_name" : "Wichita",
               "short_name" : "Wichita",
               "types" : [ "locality", "political" ]
            },
            {
               "long_name" : "Sedgwick County",
               "short_name" : "Sedgwick County",
               "types" : [ "administrative_area_level_2", "political" ]
            },
            {
               "long_name" : "Kansas",
               "short_name" : "KS",
               "types" : [ "administrative_area_level_1", "political" ]
            },
            {
               "long_name" : "United States",
               "short_name" : "US",
               "types" : [ "country", "political" ]
            },
            {
               "long_name" : "67207",
               "short_name" : "67207",
               "types" : [ "postal_code" ]
            }
         ],
         "formatted_address" : "Eastern, Wichita, KS 67207, USA",
         "geometry" : {
            "bounds" : {
               "northeast" : {
                  "lat" : 37.6796963,
                  "lng" : -97.235855
               },
               "southwest" : {
                  "lat" : 37.6683105,
                  "lng" : -97.2396715
               }
            },
            "location" : {
               "lat" : 37.6738625,
               "lng" : -97.23768919999999
            },
            "location_type" : "GEOMETRIC_CENTER",
            "viewport" : {
               "northeast" : {
                  "lat" : 37.6796963,
                  "lng" : -97.235855
               },
               "southwest" : {
                  "lat" : 37.6683105,
                  "lng" : -97.2396715
               }
            }
         },
         "types" : [ "route" ]
      },
      {
         "address_components" : [
            {
               "long_name" : "South Eastern",
               "short_name" : "S Eastern",
               "types" : [ "route" ]
            },
            {
               "long_name" : "Elk City",
               "short_name" : "Elk City",
               "types" : [ "locality", "political" ]
            },
            {
               "long_name" : "Beckham County",
               "short_name" : "Beckham County",
               "types" : [ "administrative_area_level_2", "political" ]
            },
            {
               "long_name" : "Oklahoma",
               "short_name" : "OK",
               "types" : [ "administrative_area_level_1", "political" ]
            },
            {
               "long_name" : "United States",
               "short_name" : "US",
               "types" : [ "country", "political" ]
            },
            {
               "long_name" : "73644",
               "short_name" : "73644",
               "types" : [ "postal_code" ]
            }
         ],
         "formatted_address" : "South Eastern, Elk City, OK 73644, USA",
         "geometry" : {
            "bounds" : {
               "northeast" : {
                  "lat" : 35.399698,
                  "lng" : -99.38171299999999
               },
               "southwest" : {
                  "lat" : 35.392908,
                  "lng" : -99.38190229999999
               }
            },
            "location" : {
               "lat" : 35.3961418,
               "lng" : -99.3818831
            },
            "location_type" : "GEOMETRIC_CENTER",
            "viewport" : {
               "northeast" : {
                  "lat" : 35.399698,
                  "lng" : -99.38045866970849
               },
               "southwest" : {
                  "lat" : 35.392908,
                  "lng" : -99.3831566302915
               }
            }
         },
         "types" : [ "route" ]
      },
      {
         "address_components" : [
            {
               "long_name" : "Eastern District",
               "short_name" : "Eastern District",
               "types" : [ "administrative_area_level_2", "political" ]
            },
            {
               "long_name" : "Hong Kong Island",
               "short_name" : "Hong Kong Island",
               "types" : [ "administrative_area_level_1", "political" ]
            },
            {
               "long_name" : "Hong Kong",
               "short_name" : "HK",
               "types" : [ "country", "political" ]
            }
         ],
         "formatted_address" : "Eastern District, Hong Kong",
         "geometry" : {
            "bounds" : {
               "northeast" : {
                  "lat" : 22.294839,
                  "lng" : 114.2574509
               },
               "southwest" : {
                  "lat" : 22.2564131,
                  "lng" : 114.1895111
               }
            },
            "location" : {
               "lat" : 22.2733889,
               "lng" : 114.2360778
            },
            "location_type" : "APPROXIMATE",
            "viewport" : {
               "northeast" : {
                  "lat" : 22.294839,
                  "lng" : 114.2574509
               },
               "southwest" : {
                  "lat" : 22.2564131,
                  "lng" : 114.1895111
               }
            }
         },
         "partial_match" : true,
         "types" : [ "administrative_area_level_2", "political" ]
      },
      {
         "address_components" : [
            {
               "long_name" : "Eastern Province",
               "short_name" : "Eastern Province",
               "types" : [ "administrative_area_level_1", "political" ]
            },
            {
               "long_name" : "Sri Lanka",
               "short_name" : "LK",
               "types" : [ "country", "political" ]
            }
         ],
         "formatted_address" : "Eastern Province, Sri Lanka",
         "geometry" : {
            "bounds" : {
               "northeast" : {
                  "lat" : 8.980805799999999,
                  "lng" : 81.87870289999999
               },
               "southwest" : {
                  "lat" : 6.5076455,
                  "lng" : 80.75840989999999
               }
            },
            "location" : {
               "lat" : 7.7853051,
               "lng" : 81.42789839999999
            },
            "location_type" : "APPROXIMATE",
            "viewport" : {
               "northeast" : {
                  "lat" : 8.980805799999999,
                  "lng" : 81.87870289999999
               },
               "southwest" : {
                  "lat" : 6.5076455,
                  "lng" : 80.75840989999999
               }
            }
         },
         "partial_match" : true,
         "types" : [ "administrative_area_level_1", "political" ]
      },
      {
         "address_components" : [
            {
               "long_name" : "Eastern",
               "short_name" : "Eastern",
               "types" : [ "administrative_area_level_1", "political" ]
            },
            {
               "long_name" : "Zambia",
               "short_name" : "ZM",
               "types" : [ "country", "political" ]
            }
         ],
         "formatted_address" : "Eastern, Zambia",
         "geometry" : {
            "bounds" : {
               "northeast" : {
                  "lat" : -10.3251301,
                  "lng" : 33.6895011
               },
               "southwest" : {
                  "lat" : -14.997233,
                  "lng" : 29.98652989999999
               }
            },
            "location" : {
               "lat" : -13.8056187,
               "lng" : 31.99280779999999
            },
            "location_type" : "APPROXIMATE",
            "viewport" : {
               "northeast" : {
                  "lat" : -10.3251301,
                  "lng" : 33.6895011
               },
               "southwest" : {
                  "lat" : -14.997233,
                  "lng" : 29.98652989999999
               }
            }
         },
         "partial_match" : true,
         "types" : [ "administrative_area_level_1", "political" ]
      },
      {
         "address_components" : [
            {
               "long_name" : "Kassala",
               "short_name" : "Kassala",
               "types" : [ "administrative_area_level_1", "political" ]
            },
            {
               "long_name" : "Sudan",
               "short_name" : "SD",
               "types" : [ "country", "political" ]
            }
         ],
         "formatted_address" : "Kassala, Sudan",
         "geometry" : {
            "bounds" : {
               "northeast" : {
                  "lat" : 17.202768,
                  "lng" : 37.0301281
               },
               "southwest" : {
                  "lat" : 14.90453,
                  "lng" : 34.198224
               }
            },
            "location" : {
               "lat" : 15.8058472,
               "lng" : 35.5657862
            },
            "location_type" : "APPROXIMATE",
            "viewport" : {
               "northeast" : {
                  "lat" : 17.202768,
                  "lng" : 37.0301281
               },
               "southwest" : {
                  "lat" : 14.90453,
                  "lng" : 34.198224
               }
            }
         },
         "partial_match" : true,
         "types" : [ "administrative_area_level_1", "political" ]
      },
      {
         "address_components" : [
            {
               "long_name" : "Eastern Province",
               "short_name" : "Eastern Province",
               "types" : [ "administrative_area_level_1", "political" ]
            },
            {
               "long_name" : "Sierra Leone",
               "short_name" : "SL",
               "types" : [ "country", "political" ]
            }
         ],
         "formatted_address" : "Eastern Province, Sierra Leone",
         "geometry" : {
            "bounds" : {
               "northeast" : {
                  "lat" : 9.069967999999999,
                  "lng" : -10.2842381
               },
               "southwest" : {
                  "lat" : 7.341372000000001,
                  "lng" : -11.5805801
               }
            },
            "location" : {
               "lat" : 8.247377499999999,
               "lng" : -10.8903099
            },
            "location_type" : "APPROXIMATE",
            "viewport" : {
               "northeast" : {
                  "lat" : 9.069967999999999,
                  "lng" : -10.2842381
               },
               "southwest" : {
                  "lat" : 7.341372000000001,
                  "lng" : -11.5805801
               }
            }
         },
         "partial_match" : true,
         "types" : [ "administrative_area_level_1", "political" ]
      },
      {
         "address_components" : [
            {
               "long_name" : "Eastern Region",
               "short_name" : "Eastern Region",
               "types" : [ "administrative_area_level_1", "political" ]
            },
            {
               "long_name" : "Uganda",
               "short_name" : "UG",
               "types" : [ "country", "political" ]
            }
         ],
         "formatted_address" : "Eastern Region, Uganda",
         "geometry" : {
            "bounds" : {
               "northeast" : {
                  "lat" : 2.421396,
                  "lng" : 34.829762
               },
               "southwest" : {
                  "lat" : -0.1621748,
                  "lng" : 32.8465138
               }
            },
            "location" : {
               "lat" : 1.2692186,
               "lng" : 33.438353
            },
            "location_type" : "APPROXIMATE",
            "viewport" : {
               "northeast" : {
                  "lat" : 2.421396,
                  "lng" : 34.829762
               },
               "southwest" : {
                  "lat" : -0.1621748,
                  "lng" : 32.8465138
               }
            }
         },
         "partial_match" : true,
         "types" : [ "administrative_area_level_1", "political" ]
      },
      {
         "address_components" : [
            {
               "long_name" : "Eastern",
               "short_name" : "Eastern",
               "types" : [ "administrative_area_level_1", "political" ]
            },
            {
               "long_name" : "Ghana",
               "short_name" : "GH",
               "types" : [ "country", "political" ]
            }
         ],
         "formatted_address" : "Eastern, Ghana",
         "geometry" : {
            "bounds" : {
               "northeast" : {
                  "lat" : 7.186541000000001,
                  "lng" : 0.322644
               },
               "southwest" : {
                  "lat" : 5.729348,
                  "lng" : -1.2483401
               }
            },
            "location" : {
               "lat" : 6.237403599999999,
               "lng" : -0.4502368
            },
            "location_type" : "APPROXIMATE",
            "viewport" : {
               "northeast" : {
                  "lat" : 7.186541000000001,
                  "lng" : 0.322644
               },
               "southwest" : {
                  "lat" : 5.729348,
                  "lng" : -1.2483401
               }
            }
         },
         "partial_match" : true,
         "types" : [ "administrative_area_level_1", "political" ]
      },
      {
         "address_components" : [
            {
               "long_name" : "Dornod",
               "short_name" : "Dornod",
               "types" : [ "administrative_area_level_1", "political" ]
            },
            {
               "long_name" : "Mongolia",
               "short_name" : "MN",
               "types" : [ "country", "political" ]
            }
         ],
         "formatted_address" : "Dornod, Mongolia",
         "geometry" : {
            "bounds" : {
               "northeast" : {
                  "lat" : 50.28290879999999,
                  "lng" : 119.924301
               },
               "southwest" : {
                  "lat" : 46.23549999999999,
                  "lng" : 111.9632341
               }
            },
            "location" : {
               "lat" : 47.4658154,
               "lng" : 115.3927119
            },
            "location_type" : "APPROXIMATE",
            "viewport" : {
               "northeast" : {
                  "lat" : 50.28290879999999,
                  "lng" : 119.924301
               },
               "southwest" : {
                  "lat" : 46.23549999999999,
                  "lng" : 111.9632341
               }
            }
         },
         "partial_match" : true,
         "types" : [ "administrative_area_level_1", "political" ]
      },
      {
         "address_components" : [
            {
               "long_name" : "South Eastern Boulevard",
               "short_name" : "S Eastern Blvd",
               "types" : [ "route" ]
            },
            {
               "long_name" : "Fayetteville",
               "short_name" : "Fayetteville",
               "types" : [ "locality", "political" ]
            },
            {
               "long_name" : "Cumberland County",
               "short_name" : "Cumberland County",
               "types" : [ "administrative_area_level_2", "political" ]
            },
            {
               "long_name" : "North Carolina",
               "short_name" : "NC",
               "types" : [ "administrative_area_level_1", "political" ]
            },
            {
               "long_name" : "United States",
               "short_name" : "US",
               "types" : [ "country", "political" ]
            }
         ],
         "formatted_address" : "South Eastern Boulevard, Fayetteville, NC, USA",
         "geometry" : {
            "bounds" : {
               "northeast" : {
                  "lat" : 35.0480786,
                  "lng" : -78.8648572
               },
               "southwest" : {
                  "lat" : 35.0181911,
                  "lng" : -78.8955261
               }
            },
            "location" : {
               "lat" : 35.0317418,
               "lng" : -78.8789537
            },
            "location_type" : "GEOMETRIC_CENTER",
            "viewport" : {
               "northeast" : {
                  "lat" : 35.0480786,
                  "lng" : -78.8648572
               },
               "southwest" : {
                  "lat" : 35.0181911,
                  "lng" : -78.8955261
               }
            }
         },
         "partial_match" : true,
         "types" : [ "route" ]
      },
      {
         "address_components" : [
            {
               "long_name" : "South Eastern Avenue",
               "short_name" : "S Eastern Ave",
               "types" : [ "route" ]
            },
            {
               "long_name" : "Hominy",
               "short_name" : "Hominy",
               "types" : [ "locality", "political" ]
            },
            {
               "long_name" : "Osage County",
               "short_name" : "Osage County",
               "types" : [ "administrative_area_level_2", "political" ]
            },
            {
               "long_name" : "Oklahoma",
               "short_name" : "OK",
               "types" : [ "administrative_area_level_1", "political" ]
            },
            {
               "long_name" : "United States",
               "short_name" : "US",
               "types" : [ "country", "political" ]
            },
            {
               "long_name" : "74035",
               "short_name" : "74035",
               "types" : [ "postal_code" ]
            }
         ],
         "formatted_address" : "South Eastern Avenue, Hominy, OK 74035, USA",
         "geometry" : {
            "bounds" : {
               "northeast" : {
                  "lat" : 36.4154639,
                  "lng" : -96.38884300000001
               },
               "southwest" : {
                  "lat" : 36.4016409,
                  "lng" : -96.38982799999999
               }
            },
            "location" : {
               "lat" : 36.4085901,
               "lng" : -96.3895181
            },
            "location_type" : "GEOMETRIC_CENTER",
            "viewport" : {
               "northeast" : {
                  "lat" : 36.4154639,
                  "lng" : -96.38798651970849
               },
               "southwest" : {
                  "lat" : 36.4016409,
                  "lng" : -96.39068448029151
               }
            }
         },
         "partial_match" : true,
         "types" : [ "route" ]
      },
      {
         "address_components" : [
            {
               "long_name" : "South-Eastern Suburbs",
               "short_name" : "South-Eastern Suburbs",
               "types" : [ "colloquial_area", "political" ]
            },
            {
               "long_name" : "New South Wales",
               "short_name" : "NSW",
               "types" : [ "administrative_area_level_1", "political" ]
            },
            {
               "long_name" : "Australia",
               "short_name" : "AU",
               "types" : [ "country", "political" ]
            }
         ],
         "formatted_address" : "South-Eastern Suburbs, NSW, Australia",
         "geometry" : {
            "bounds" : {
               "northeast" : {
                  "lat" : -33.8915035,
                  "lng" : 151.2236487
               },
               "southwest" : {
                  "lat" : -33.9748206,
                  "lng" : 151.1614646
               }
            },
            "location" : {
               "lat" : -33.9310617,
               "lng" : 151.1927601
            },
            "location_type" : "APPROXIMATE",
            "viewport" : {
               "northeast" : {
                  "lat" : -33.8915035,
                  "lng" : 151.2236487
               },
               "southwest" : {
                  "lat" : -33.9748206,
                  "lng" : 151.1614646
               }
            }
         },
         "partial_match" : true,
         "types" : [ "colloquial_area", "political" ]
      },
      {
         "address_components" : [
            {
               "long_name" : "South Eastern Avenue",
               "short_name" : "S Eastern Ave",
               "types" : [ "route" ]
            },
            {
               "long_name" : "Las Vegas",
               "short_name" : "Las Vegas",
               "types" : [ "locality", "political" ]
            },
            {
               "long_name" : "Clark County",
               "short_name" : "Clark County",
               "types" : [ "administrative_area_level_2", "political" ]
            },
            {
               "long_name" : "Nevada",
               "short_name" : "NV",
               "types" : [ "administrative_area_level_1", "political" ]
            },
            {
               "long_name" : "United States",
               "short_name" : "US",
               "types" : [ "country", "political" ]
            }
         ],
         "formatted_address" : "South Eastern Avenue, Las Vegas, NV, USA",
         "geometry" : {
            "bounds" : {
               "northeast" : {
                  "lat" : 36.1596829,
                  "lng" : -115.099769
               },
               "southwest" : {
                  "lat" : 35.9687018,
                  "lng" : -115.1253303
               }
            },
            "location" : {
               "lat" : 36.06438,
               "lng" : -115.1184854
            },
            "location_type" : "GEOMETRIC_CENTER",
            "viewport" : {
               "northeast" : {
                  "lat" : 36.1596829,
                  "lng" : -115.099769
               },
               "southwest" : {
                  "lat" : 35.9687018,
                  "lng" : -115.1253303
               }
            }
         },
         "partial_match" : true,
         "types" : [ "route" ]
      },
      {
         "address_components" : [
            {
               "long_name" : "Cross River",
               "short_name" : "Cross River",
               "types" : [ "administrative_area_level_1", "political" ]
            },
            {
               "long_name" : "Nigeria",
               "short_name" : "NG",
               "types" : [ "country", "political" ]
            }
         ],
         "formatted_address" : "Cross River, Nigeria",
         "geometry" : {
            "bounds" : {
               "northeast" : {
                  "lat" : 6.899680999999999,
                  "lng" : 9.472486
               },
               "southwest" : {
                  "lat" : 4.690596000000001,
                  "lng" : 7.863165999999999
               }
            },
            "location" : {
               "lat" : 6.167031499999999,
               "lng" : 8.660058599999999
            },
            "location_type" : "APPROXIMATE",
            "viewport" : {
               "northeast" : {
                  "lat" : 6.899680999999999,
                  "lng" : 9.472486
               },
               "southwest" : {
                  "lat" : 4.690596000000001,
                  "lng" : 7.863165999999999
               }
            }
         },
         "partial_match" : true,
         "types" : [ "administrative_area_level_1", "political" ]
      }
   ],
   "status" : "OK"
}
