{
   "results" : [
      {
         "address_components" : [
            {
               "long_name" : "Stand Road",
               "short_name" : "Stand Rd",
               "types" : [ "route" ]
            },
            {
               "long_name" : "Chattahoochee National Forest",
               "short_name" : "Chattahoochee National Forest",
               "types" : [ "establishment" ]
            },
            {
               "long_name" : "Clarkesville",
               "short_name" : "Clarkesville",
               "types" : [ "locality", "political" ]
            },
            {
               "long_name" : "Habersham County",
               "short_name" : "Habersham County",
               "types" : [ "administrative_area_level_2", "political" ]
            },
            {
               "long_name" : "Georgia",
               "short_name" : "GA",
               "types" : [ "administrative_area_level_1", "political" ]
            },
            {
               "long_name" : "United States",
               "short_name" : "US",
               "types" : [ "country", "political" ]
            },
            {
               "long_name" : "30523",
               "short_name" : "30523",
               "types" : [ "postal_code" ]
            }
         ],
         "formatted_address" : "Chattahoochee National Forest, Stand Road, Clarkesville, GA 30523, USA",
         "geometry" : {
            "bounds" : {
               "northeast" : {
                  "lat" : 34.7019772,
                  "lng" : -83.3940264
               },
               "southwest" : {
                  "lat" : 34.6823118,
                  "lng" : -83.39724749999999
               }
            },
            "location" : {
               "lat" : 34.6916648,
               "lng" : -83.39494139999999
            },
            "location_type" : "GEOMETRIC_CENTER",
            "viewport" : {
               "northeast" : {
                  "lat" : 34.7019772,
                  "lng" : -83.3940264
               },
               "southwest" : {
                  "lat" : 34.6823118,
                  "lng" : -83.39724749999999
               }
            }
         },
         "types" : [ "route" ]
      },
      {
         "address_components" : [
            {
               "long_name" : "Stand Road",
               "short_name" : "Stand Rd",
               "types" : [ "route" ]
            },
            {
               "long_name" : "Iva",
               "short_name" : "Iva",
               "types" : [ "locality", "political" ]
            },
            {
               "long_name" : "Anderson County",
               "short_name" : "Anderson County",
               "types" : [ "administrative_area_level_2", "political" ]
            },
            {
               "long_name" : "South Carolina",
               "short_name" : "SC",
               "types" : [ "administrative_area_level_1", "political" ]
            },
            {
               "long_name" : "United States",
               "short_name" : "US",
               "types" : [ "country", "political" ]
            },
            {
               "long_name" : "29655",
               "short_name" : "29655",
               "types" : [ "postal_code" ]
            }
         ],
         "formatted_address" : "Stand Road, Iva, SC 29655, USA",
         "geometry" : {
            "bounds" : {
               "northeast" : {
                  "lat" : 34.3131103,
                  "lng" : -82.6575258
               },
               "southwest" : {
                  "lat" : 34.311257,
                  "lng" : -82.65840489999999
               }
            },
            "location" : {
               "lat" : 34.3119687,
               "lng" : -82.65798699999999
            },
            "location_type" : "GEOMETRIC_CENTER",
            "viewport" : {
               "northeast" : {
                  "lat" : 34.3135326302915,
                  "lng" : -82.65661636970849
               },
               "southwest" : {
                  "lat" : 34.3108346697085,
                  "lng" : -82.65931433029151
               }
            }
         },
         "types" : [ "route" ]
      },
      {
         "address_components" : [
            {
               "long_name" : "Route du Stand",
               "short_name" : "Route du Stand",
               "types" : [ "route" ]
            },
            {
               "long_name" : "Nyon",
               "short_name" : "Nyon",
               "types" : [ "locality", "political" ]
            },
            {
               "long_name" : "Nyon",
               "short_name" : "Nyon",
               "types" : [ "administrative_area_level_2", "political" ]
            },
            {
               "long_name" : "Vaud",
               "short_name" : "VD",
               "types" : [ "administrative_area_level_1", "political" ]
            },
            {
               "long_name" : "Switzerland",
               "short_name" : "CH",
               "types" : [ "country", "political" ]
            },
            {
               "long_name" : "1260",
               "short_name" : "1260",
               "types" : [ "postal_code" ]
            }
         ],
         "formatted_address" : "Route du Stand, 1260 Nyon, Switzerland",
         "geometry" : {
            "bounds" : {
               "northeast" : {
                  "lat" : 46.38302969999999,
                  "lng" : 6.228237099999999
               },
               "southwest" : {
                  "lat" : 46.38068759999999,
                  "lng" : 6.2139486
               }
            },
            "location" : {
               "lat" : 46.3813584,
               "lng" : 6.2211624
            },
            "location_type" : "GEOMETRIC_CENTER",
            "viewport" : {
               "northeast" : {
                  "lat" : 46.38320763029149,
                  "lng" : 6.228237099999999
               },
               "southwest" : {
                  "lat" : 46.38050966970849,
                  "lng" : 6.2139486
               }
            }
         },
         "types" : [ "route" ]
      },
      {
         "address_components" : [
            {
               "long_name" : "Stand Road",
               "short_name" : "Stand Rd",
               "types" : [ "route" ]
            },
            {
               "long_name" : "Chesterfield",
               "short_name" : "Chesterfield",
               "types" : [ "locality", "political" ]
            },
            {
               "long_name" : "Chesterfield",
               "short_name" : "Chesterfield",
               "types" : [ "postal_town" ]
            },
            {
               "long_name" : "Derbyshire",
               "short_name" : "Derbys",
               "types" : [ "administrative_area_level_2", "political" ]
            },
            {
               "long_name" : "United Kingdom",
               "short_name" : "GB",
               "types" : [ "country", "political" ]
            },
            {
               "long_name" : "S41",
               "short_name" : "S41",
               "types" : [ "postal_code_prefix", "postal_code" ]
            }
         ],
         "formatted_address" : "Stand Road, Chesterfield, Chesterfield, Derbyshire S41, UK",
         "geometry" : {
            "bounds" : {
               "northeast" : {
                  "lat" : 53.2576663,
                  "lng" : -1.4275574
               },
               "southwest" : {
                  "lat" : 53.2558909,
                  "lng" : -1.4379422
               }
            },
            "location" : {
               "lat" : 53.256826,
               "lng" : -1.433127
            },
            "location_type" : "GEOMETRIC_CENTER",
            "viewport" : {
               "northeast" : {
                  "lat" : 53.25812758029149,
                  "lng" : -1.4275574
               },
               "southwest" : {
                  "lat" : 53.25542961970849,
                  "lng" : -1.4379422
               }
            }
         },
         "types" : [ "route" ]
      },
      {
         "address_components" : [
            {
               "long_name" : "Route du Stand",
               "short_name" : "Route du Stand",
               "types" : [ "route" ]
            },
            {
               "long_name" : "Sonvilier",
               "short_name" : "Sonvilier",
               "types" : [ "locality", "political" ]
            },
            {
               "long_name" : "Courtelary",
               "short_name" : "Courtelary",
               "types" : [ "administrative_area_level_2", "political" ]
            },
            {
               "long_name" : "Bern",
               "short_name" : "BE",
               "types" : [ "administrative_area_level_1", "political" ]
            },
            {
               "long_name" : "Switzerland",
               "short_name" : "CH",
               "types" : [ "country", "political" ]
            },
            {
               "long_name" : "2615",
               "short_name" : "2615",
               "types" : [ "postal_code" ]
            }
         ],
         "formatted_address" : "Route du Stand, 2615 Sonvilier, Switzerland",
         "geometry" : {
            "bounds" : {
               "northeast" : {
                  "lat" : 47.1385111,
                  "lng" : 6.9784352
               },
               "southwest" : {
                  "lat" : 47.1292182,
                  "lng" : 6.963337999999999
               }
            },
            "location" : {
               "lat" : 47.13373,
               "lng" : 6.97039
            },
            "location_type" : "GEOMETRIC_CENTER",
            "viewport" : {
               "northeast" : {
                  "lat" : 47.1385111,
                  "lng" : 6.9784352
               },
               "southwest" : {
                  "lat" : 47.1292182,
                  "lng" : 6.963337999999999
               }
            }
         },
         "types" : [ "route" ]
      },
      {
         "address_components" : [
            {
               "long_name" : "Route du Stand",
               "short_name" : "Route du Stand",
               "types" : [ "route" ]
            },
            {
               "long_name" : "Villeneuve",
               "short_name" : "Villeneuve",
               "types" : [ "locality", "political" ]
            },
            {
               "long_name" : "Aigle",
               "short_name" : "Aigle",
               "types" : [ "administrative_area_level_2", "political" ]
            },
            {
               "long_name" : "Vaud",
               "short_name" : "VD",
               "types" : [ "administrative_area_level_1", "political" ]
            },
            {
               "long_name" : "Switzerland",
               "short_name" : "CH",
               "types" : [ "country", "political" ]
            },
            {
               "long_name" : "1844",
               "short_name" : "1844",
               "types" : [ "postal_code" ]
            }
         ],
         "formatted_address" : "Route du Stand, 1844 Villeneuve, Switzerland",
         "geometry" : {
            "bounds" : {
               "northeast" : {
                  "lat" : 46.3963474,
                  "lng" : 6.9310113
               },
               "southwest" : {
                  "lat" : 46.3794709,
                  "lng" : 6.927707000000001
               }
            },
            "location" : {
               "lat" : 46.3878622,
               "lng" : 6.9295602
            },
            "location_type" : "GEOMETRIC_CENTER",
            "viewport" : {
               "northeast" : {
                  "lat" : 46.3963474,
                  "lng" : 6.9310113
               },
               "southwest" : {
                  "lat" : 46.3794709,
                  "lng" : 6.927707000000001
               }
            }
         },
         "types" : [ "route" ]
      },
      {
         "address_components" : [
            {
               "long_name" : "Route du Stand",
               "short_name" : "Route du Stand",
               "types" : [ "route" ]
            },
            {
               "long_name" : "Essertines-sur-Rolle",
               "short_name" : "Essertines-sur-Rolle",
               "types" : [ "locality", "political" ]
            },
            {
               "long_name" : "Nyon",
               "short_name" : "Nyon",
               "types" : [ "administrative_area_level_2", "political" ]
            },
            {
               "long_name" : "Vaud",
               "short_name" : "VD",
               "types" : [ "administrative_area_level_1", "political" ]
            },
            {
               "long_name" : "Switzerland",
               "short_name" : "CH",
               "types" : [ "country", "political" ]
            }
         ],
         "formatted_address" : "Route du Stand, Essertines-sur-Rolle, Switzerland",
         "geometry" : {
            "bounds" : {
               "northeast" : {
                  "lat" : 46.4886913,
                  "lng" : 6.304301
               },
               "southwest" : {
                  "lat" : 46.4777956,
                  "lng" : 6.2757977
               }
            },
            "location" : {
               "lat" : 46.4828584,
               "lng" : 6.2896645
            },
            "location_type" : "GEOMETRIC_CENTER",
            "viewport" : {
               "northeast" : {
                  "lat" : 46.4886913,
                  "lng" : 6.304301
               },
               "southwest" : {
                  "lat" : 46.4777956,
                  "lng" : 6.2757977
               }
            }
         },
         "types" : [ "route" ]
      },
      {
         "address_components" : [
            {
               "long_name" : "Route du Stand",
               "short_name" : "Route du Stand",
               "types" : [ "route" ]
            },
            {
               "long_name" : "La Rippe",
               "short_name" : "La Rippe",
               "types" : [ "locality", "political" ]
            },
            {
               "long_name" : "Nyon",
               "short_name" : "Nyon",
               "types" : [ "administrative_area_level_2", "political" ]
            },
            {
               "long_name" : "Vaud",
               "short_name" : "VD",
               "types" : [ "administrative_area_level_1", "political" ]
            },
            {
               "long_name" : "Switzerland",
               "short_name" : "CH",
               "types" : [ "country", "political" ]
            },
            {
               "long_name" : "1278",
               "short_name" : "1278",
               "types" : [ "postal_code" ]
            }
         ],
         "formatted_address" : "Route du Stand, 1278 La Rippe, Switzerland",
         "geometry" : {
            "bounds" : {
               "northeast" : {
                  "lat" : 46.4017524,
                  "lng" : 6.1459623
               },
               "southwest" : {
                  "lat" : 46.3864826,
                  "lng" : 6.142264
               }
            },
            "location" : {
               "lat" : 46.39403859999999,
               "lng" : 6.145550999999999
            },
            "location_type" : "GEOMETRIC_CENTER",
            "viewport" : {
               "northeast" : {
                  "lat" : 46.4017524,
                  "lng" : 6.1459623
               },
               "southwest" : {
                  "lat" : 46.3864826,
                  "lng" : 6.142264
               }
            }
         },
         "types" : [ "route" ]
      },
      {
         "address_components" : [
            {
               "long_name" : "Route du Stand",
               "short_name" : "Route du Stand",
               "types" : [ "route" ]
            },
            {
               "long_name" : "Pampigny",
               "short_name" : "Pampigny",
               "types" : [ "locality", "political" ]
            },
            {
               "long_name" : "Morges",
               "short_name" : "Morges",
               "types" : [ "administrative_area_level_2", "political" ]
            },
            {
               "long_name" : "Vaud",
               "short_name" : "VD",
               "types" : [ "administrative_area_level_1", "political" ]
            },
            {
               "long_name" : "Switzerland",
               "short_name" : "CH",
               "types" : [ "country", "political" ]
            },
            {
               "long_name" : "1142",
               "short_name" : "1142",
               "types" : [ "postal_code" ]
            }
         ],
         "formatted_address" : "Route du Stand, 1142 Pampigny, Switzerland",
         "geometry" : {
            "bounds" : {
               "northeast" : {
                  "lat" : 46.5799464,
                  "lng" : 6.429529899999999
               },
               "southwest" : {
                  "lat" : 46.5742471,
                  "lng" : 6.4132114
               }
            },
            "location" : {
               "lat" : 46.57480760000001,
               "lng" : 6.4214981
            },
            "location_type" : "GEOMETRIC_CENTER",
            "viewport" : {
               "northeast" : {
                  "lat" : 46.5799464,
                  "lng" : 6.429529899999999
               },
               "southwest" : {
                  "lat" : 46.5742471,
                  "lng" : 6.4132114
               }
            }
         },
         "types" : [ "route" ]
      },
      {
         "address_components" : [
            {
               "long_name" : "Route du Stand",
               "short_name" : "Route du Stand",
               "types" : [ "route" ]
            },
            {
               "long_name" : "Lavey-Morcles",
               "short_name" : "Lavey-Morcles",
               "types" : [ "locality", "political" ]
            },
            {
               "long_name" : "Aigle",
               "short_name" : "Aigle",
               "types" : [ "administrative_area_level_2", "political" ]
            },
            {
               "long_name" : "Vaud",
               "short_name" : "VD",
               "types" : [ "administrative_area_level_1", "political" ]
            },
            {
               "long_name" : "Switzerland",
               "short_name" : "CH",
               "types" : [ "country", "political" ]
            },
            {
               "long_name" : "1892",
               "short_name" : "1892",
               "types" : [ "postal_code" ]
            }
         ],
         "formatted_address" : "Route du Stand, 1892 Lavey-Morcles, Switzerland",
         "geometry" : {
            "bounds" : {
               "northeast" : {
                  "lat" : 46.2236996,
                  "lng" : 7.024369699999999
               },
               "southwest" : {
                  "lat" : 46.21931559999999,
                  "lng" : 7.0187698
               }
            },
            "location" : {
               "lat" : 46.2212219,
               "lng" : 7.0218945
            },
            "location_type" : "GEOMETRIC_CENTER",
            "viewport" : {
               "northeast" : {
                  "lat" : 46.2236996,
                  "lng" : 7.024369699999999
               },
               "southwest" : {
                  "lat" : 46.21931559999999,
                  "lng" : 7.0187698
               }
            }
         },
         "types" : [ "route" ]
      },
      {
         "address_components" : [
            {
               "long_name" : "Route du Stand",
               "short_name" : "Route du Stand",
               "types" : [ "route" ]
            },
            {
               "long_name" : "Jura-Nord vaudois",
               "short_name" : "Jura-Nord vaudois",
               "types" : [ "administrative_area_level_2", "political" ]
            },
            {
               "long_name" : "Vaud",
               "short_name" : "VD",
               "types" : [ "administrative_area_level_1", "political" ]
            },
            {
               "long_name" : "Switzerland",
               "short_name" : "CH",
               "types" : [ "country", "political" ]
            },
            {
               "long_name" : "1407",
               "short_name" : "1407",
               "types" : [ "postal_code" ]
            }
         ],
         "formatted_address" : "Route du Stand, 1407, Switzerland",
         "geometry" : {
            "bounds" : {
               "northeast" : {
                  "lat" : 46.7348291,
                  "lng" : 6.711070599999999
               },
               "southwest" : {
                  "lat" : 46.72679249999999,
                  "lng" : 6.6969789
               }
            },
            "location" : {
               "lat" : 46.73267,
               "lng" : 6.70428
            },
            "location_type" : "GEOMETRIC_CENTER",
            "viewport" : {
               "northeast" : {
                  "lat" : 46.7348291,
                  "lng" : 6.711070599999999
               },
               "southwest" : {
                  "lat" : 46.72679249999999,
                  "lng" : 6.6969789
               }
            }
         },
         "types" : [ "route" ]
      },
      {
         "address_components" : [
            {
               "long_name" : "Route du Stand",
               "short_name" : "Route du Stand",
               "types" : [ "route" ]
            },
            {
               "long_name" : "Val-d'Illiez",
               "short_name" : "Val-d'Illiez",
               "types" : [ "locality", "political" ]
            },
            {
               "long_name" : "Monthey",
               "short_name" : "Monthey",
               "types" : [ "administrative_area_level_2", "political" ]
            },
            {
               "long_name" : "Valais",
               "short_name" : "VS",
               "types" : [ "administrative_area_level_1", "political" ]
            },
            {
               "long_name" : "Switzerland",
               "short_name" : "CH",
               "types" : [ "country", "political" ]
            },
            {
               "long_name" : "1873",
               "short_name" : "1873",
               "types" : [ "postal_code" ]
            }
         ],
         "formatted_address" : "Route du Stand, 1873 Val-d'Illiez, Switzerland",
         "geometry" : {
            "bounds" : {
               "northeast" : {
                  "lat" : 46.1980392,
                  "lng" : 6.895
               },
               "southwest" : {
                  "lat" : 46.1955126,
                  "lng" : 6.888541099999999
               }
            },
            "location" : {
               "lat" : 46.1962774,
               "lng" : 6.8921491
            },
            "location_type" : "GEOMETRIC_CENTER",
            "viewport" : {
               "northeast" : {
                  "lat" : 46.1981248802915,
                  "lng" : 6.895
               },
               "southwest" : {
                  "lat" : 46.1954269197085,
                  "lng" : 6.888541099999999
               }
            }
         },
         "types" : [ "route" ]
      },
      {
         "address_components" : [
            {
               "long_name" : "Route du Stand",
               "short_name" : "Route du Stand",
               "types" : [ "route" ]
            },
            {
               "long_name" : "Bex",
               "short_name" : "Bex",
               "types" : [ "locality", "political" ]
            },
            {
               "long_name" : "Aigle",
               "short_name" : "Aigle",
               "types" : [ "administrative_area_level_2", "political" ]
            },
            {
               "long_name" : "Vaud",
               "short_name" : "VD",
               "types" : [ "administrative_area_level_1", "political" ]
            },
            {
               "long_name" : "Switzerland",
               "short_name" : "CH",
               "types" : [ "country", "political" ]
            },
            {
               "long_name" : "1880",
               "short_name" : "1880",
               "types" : [ "postal_code" ]
            }
         ],
         "formatted_address" : "Route du Stand, 1880 Bex, Switzerland",
         "geometry" : {
            "bounds" : {
               "northeast" : {
                  "lat" : 46.24652,
                  "lng" : 7.0163657
               },
               "southwest" : {
                  "lat" : 46.2439792,
                  "lng" : 7.0115319
               }
            },
            "location" : {
               "lat" : 46.2451012,
               "lng" : 7.0138257
            },
            "location_type" : "GEOMETRIC_CENTER",
            "viewport" : {
               "northeast" : {
                  "lat" : 46.2465985802915,
                  "lng" : 7.0163657
               },
               "southwest" : {
                  "lat" : 46.2439006197085,
                  "lng" : 7.0115319
               }
            }
         },
         "types" : [ "route" ]
      },
      {
         "address_components" : [
            {
               "long_name" : "Stand Road",
               "short_name" : "Stand Rd",
               "types" : [ "route" ]
            },
            {
               "long_name" : "Miraj",
               "short_name" : "Miraj",
               "types" : [ "locality", "political" ]
            },
            {
               "long_name" : "Sangli",
               "short_name" : "Sangli",
               "types" : [ "administrative_area_level_2", "political" ]
            },
            {
               "long_name" : "Maharashtra",
               "short_name" : "MH",
               "types" : [ "administrative_area_level_1", "political" ]
            },
            {
               "long_name" : "India",
               "short_name" : "IN",
               "types" : [ "country", "political" ]
            },
            {
               "long_name" : "416410",
               "short_name" : "416410",
               "types" : [ "postal_code" ]
            }
         ],
         "formatted_address" : "Stand Road, Miraj, Maharashtra 416410, India",
         "geometry" : {
            "bounds" : {
               "northeast" : {
                  "lat" : 16.8180858,
                  "lng" : 74.65007869999999
               },
               "southwest" : {
                  "lat" : 16.8171066,
                  "lng" : 74.6432351
               }
            },
            "location" : {
               "lat" : 16.818014,
               "lng" : 74.64654209999999
            },
            "location_type" : "GEOMETRIC_CENTER",
            "viewport" : {
               "northeast" : {
                  "lat" : 16.81894518029151,
                  "lng" : 74.65007869999999
               },
               "southwest" : {
                  "lat" : 16.8162472197085,
                  "lng" : 74.6432351
               }
            }
         },
         "types" : [ "route" ]
      },
      {
         "address_components" : [
            {
               "long_name" : "Route du Stand",
               "short_name" : "Route du Stand",
               "types" : [ "route" ]
            },
            {
               "long_name" : "Villorsonnens",
               "short_name" : "Villorsonnens",
               "types" : [ "locality", "political" ]
            },
            {
               "long_name" : "La Glâne",
               "short_name" : "La Glâne",
               "types" : [ "administrative_area_level_2", "political" ]
            },
            {
               "long_name" : "Fribourg",
               "short_name" : "FR",
               "types" : [ "administrative_area_level_1", "political" ]
            },
            {
               "long_name" : "Switzerland",
               "short_name" : "CH",
               "types" : [ "country", "political" ]
            },
            {
               "long_name" : "1694",
               "short_name" : "1694",
               "types" : [ "postal_code" ]
            }
         ],
         "formatted_address" : "Route du Stand, 1694 Villorsonnens, Switzerland",
         "geometry" : {
            "bounds" : {
               "northeast" : {
                  "lat" : 46.6995355,
                  "lng" : 7.0113078
               },
               "southwest" : {
                  "lat" : 46.69665639999999,
                  "lng" : 7.0066831
               }
            },
            "location" : {
               "lat" : 46.6985106,
               "lng" : 7.008411
            },
            "location_type" : "GEOMETRIC_CENTER",
            "viewport" : {
               "northeast" : {
                  "lat" : 46.6995355,
                  "lng" : 7.0113078
               },
               "southwest" : {
                  "lat" : 46.69665639999999,
                  "lng" : 7.0066831
               }
            }
         },
         "types" : [ "route" ]
      },
      {
         "address_components" : [
            {
               "long_name" : "Route du Stand",
               "short_name" : "Route du Stand",
               "types" : [ "route" ]
            },
            {
               "long_name" : "Port-Valais",
               "short_name" : "Port-Valais",
               "types" : [ "locality", "political" ]
            },
            {
               "long_name" : "Monthey",
               "short_name" : "Monthey",
               "types" : [ "administrative_area_level_2", "political" ]
            },
            {
               "long_name" : "Valais",
               "short_name" : "VS",
               "types" : [ "administrative_area_level_1", "political" ]
            },
            {
               "long_name" : "Switzerland",
               "short_name" : "CH",
               "types" : [ "country", "political" ]
            },
            {
               "long_name" : "1897",
               "short_name" : "1897",
               "types" : [ "postal_code" ]
            }
         ],
         "formatted_address" : "Route du Stand, 1897 Port-Valais, Switzerland",
         "geometry" : {
            "bounds" : {
               "northeast" : {
                  "lat" : 46.3824433,
                  "lng" : 6.8566375
               },
               "southwest" : {
                  "lat" : 46.3790008,
                  "lng" : 6.852544699999999
               }
            },
            "location" : {
               "lat" : 46.38065779999999,
               "lng" : 6.853524900000001
            },
            "location_type" : "GEOMETRIC_CENTER",
            "viewport" : {
               "northeast" : {
                  "lat" : 46.3824433,
                  "lng" : 6.8566375
               },
               "southwest" : {
                  "lat" : 46.3790008,
                  "lng" : 6.852544699999999
               }
            }
         },
         "types" : [ "route" ]
      },
      {
         "address_components" : [
            {
               "long_name" : "Stand Road",
               "short_name" : "Stand Rd",
               "types" : [ "route" ]
            },
            {
               "long_name" : "Ramgarh",
               "short_name" : "Ramgarh",
               "types" : [ "locality", "political" ]
            },
            {
               "long_name" : "Ramgarh",
               "short_name" : "Ramgarh",
               "types" : [ "administrative_area_level_2", "political" ]
            },
            {
               "long_name" : "Jharkhand",
               "short_name" : "JH",
               "types" : [ "administrative_area_level_1", "political" ]
            },
            {
               "long_name" : "India",
               "short_name" : "IN",
               "types" : [ "country", "political" ]
            },
            {
               "long_name" : "829122",
               "short_name" : "829122",
               "types" : [ "postal_code" ]
            }
         ],
         "formatted_address" : "Stand Road, Ramgarh, Jharkhand 829122, India",
         "geometry" : {
            "bounds" : {
               "northeast" : {
                  "lat" : 23.6277995,
                  "lng" : 85.51791369999999
               },
               "southwest" : {
                  "lat" : 23.6252794,
                  "lng" : 85.51563640000001
               }
            },
            "location" : {
               "lat" : 23.6261693,
               "lng" : 85.51725309999999
            },
            "location_type" : "GEOMETRIC_CENTER",
            "viewport" : {
               "northeast" : {
                  "lat" : 23.6278884302915,
                  "lng" : 85.51812403029152
               },
               "southwest" : {
                  "lat" : 23.6251904697085,
                  "lng" : 85.5154260697085
               }
            }
         },
         "types" : [ "route" ]
      },
      {
         "address_components" : [
            {
               "long_name" : "Route du Stand",
               "short_name" : "Route du Stand",
               "types" : [ "route" ]
            },
            {
               "long_name" : "Essertines-sur-Rolle",
               "short_name" : "Essertines-sur-Rolle",
               "types" : [ "locality", "political" ]
            },
            {
               "long_name" : "Nyon",
               "short_name" : "Nyon",
               "types" : [ "administrative_area_level_2", "political" ]
            },
            {
               "long_name" : "Vaud",
               "short_name" : "VD",
               "types" : [ "administrative_area_level_1", "political" ]
            },
            {
               "long_name" : "Switzerland",
               "short_name" : "CH",
               "types" : [ "country", "political" ]
            },
            {
               "long_name" : "1186",
               "short_name" : "1186",
               "types" : [ "postal_code" ]
            }
         ],
         "formatted_address" : "Route du Stand, 1186 Essertines-sur-Rolle, Switzerland",
         "geometry" : {
            "bounds" : {
               "northeast" : {
                  "lat" : 46.4941375,
                  "lng" : 6.315951
               },
               "southwest" : {
                  "lat" : 46.4905781,
                  "lng" : 6.3096587
               }
            },
            "location" : {
               "lat" : 46.4923195,
               "lng" : 6.312828300000001
            },
            "location_type" : "GEOMETRIC_CENTER",
            "viewport" : {
               "northeast" : {
                  "lat" : 46.4941375,
                  "lng" : 6.315951
               },
               "southwest" : {
                  "lat" : 46.4905781,
                  "lng" : 6.3096587
               }
            }
         },
         "types" : [ "route" ]
      },
      {
         "address_components" : [
            {
               "long_name" : "Stand Road",
               "short_name" : "Stand Road",
               "types" : [ "route" ]
            },
            {
               "long_name" : "Uran Islampur",
               "short_name" : "Uran Islampur",
               "types" : [ "locality", "political" ]
            },
            {
               "long_name" : "Sangli",
               "short_name" : "Sangli",
               "types" : [ "administrative_area_level_2", "political" ]
            },
            {
               "long_name" : "Maharashtra",
               "short_name" : "MH",
               "types" : [ "administrative_area_level_1", "political" ]
            },
            {
               "long_name" : "India",
               "short_name" : "IN",
               "types" : [ "country", "political" ]
            },
            {
               "long_name" : "415409",
               "short_name" : "415409",
               "types" : [ "postal_code" ]
            }
         ],
         "formatted_address" : "Stand Road, Uran Islampur, Maharashtra 415409, India",
         "geometry" : {
            "bounds" : {
               "northeast" : {
                  "lat" : 17.0501945,
                  "lng" : 74.26287889999999
               },
               "southwest" : {
                  "lat" : 17.0450132,
                  "lng" : 74.2598507
               }
            },
            "location" : {
               "lat" : 17.0467565,
               "lng" : 74.26231299999999
            },
            "location_type" : "GEOMETRIC_CENTER",
            "viewport" : {
               "northeast" : {
                  "lat" : 17.0501945,
                  "lng" : 74.26287889999999
               },
               "southwest" : {
                  "lat" : 17.0450132,
                  "lng" : 74.2598507
               }
            }
         },
         "types" : [ "route" ]
      },
      {
         "address_components" : [
            {
               "long_name" : "Route du Stand",
               "short_name" : "Route du Stand",
               "types" : [ "route" ]
            },
            {
               "long_name" : "Saubraz",
               "short_name" : "Saubraz",
               "types" : [ "locality", "political" ]
            },
            {
               "long_name" : "Morges",
               "short_name" : "Morges",
               "types" : [ "administrative_area_level_2", "political" ]
            },
            {
               "long_name" : "Vaud",
               "short_name" : "VD",
               "types" : [ "administrative_area_level_1", "political" ]
            },
            {
               "long_name" : "Switzerland",
               "short_name" : "CH",
               "types" : [ "country", "political" ]
            },
            {
               "long_name" : "1189",
               "short_name" : "1189",
               "types" : [ "postal_code" ]
            }
         ],
         "formatted_address" : "Route du Stand, 1189 Saubraz, Switzerland",
         "geometry" : {
            "bounds" : {
               "northeast" : {
                  "lat" : 46.5201523,
                  "lng" : 6.330069399999999
               },
               "southwest" : {
                  "lat" : 46.5166275,
                  "lng" : 6.3251341
               }
            },
            "location" : {
               "lat" : 46.5187379,
               "lng" : 6.3280496
            },
            "location_type" : "GEOMETRIC_CENTER",
            "viewport" : {
               "northeast" : {
                  "lat" : 46.5201523,
                  "lng" : 6.330069399999999
               },
               "southwest" : {
                  "lat" : 46.5166275,
                  "lng" : 6.3251341
               }
            }
         },
         "types" : [ "route" ]
      },
      {
         "address_components" : [
            {
               "long_name" : "Route du Stand",
               "short_name" : "Route du Stand",
               "types" : [ "route" ]
            },
            {
               "long_name" : "Givrins",
               "short_name" : "Givrins",
               "types" : [ "locality", "political" ]
            },
            {
               "long_name" : "Nyon",
               "short_name" : "Nyon",
               "types" : [ "administrative_area_level_2", "political" ]
            },
            {
               "long_name" : "Vaud",
               "short_name" : "VD",
               "types" : [ "administrative_area_level_1", "political" ]
            },
            {
               "long_name" : "Switzerland",
               "short_name" : "CH",
               "types" : [ "country", "political" ]
            },
            {
               "long_name" : "1271",
               "short_name" : "1271",
               "types" : [ "postal_code" ]
            }
         ],
         "formatted_address" : "Route du Stand, 1271 Givrins, Switzerland",
         "geometry" : {
            "bounds" : {
               "northeast" : {
                  "lat" : 46.43267789999999,
                  "lng" : 6.1974915
               },
               "southwest" : {
                  "lat" : 46.4317894,
                  "lng" : 6.1926384
               }
            },
            "location" : {
               "lat" : 46.4321548,
               "lng" : 6.1946677
            },
            "location_type" : "GEOMETRIC_CENTER",
            "viewport" : {
               "northeast" : {
                  "lat" : 46.4335826302915,
                  "lng" : 6.1974915
               },
               "southwest" : {
                  "lat" : 46.4308846697085,
                  "lng" : 6.1926384
               }
            }
         },
         "types" : [ "route" ]
      },
      {
         "address_components" : [
            {
               "long_name" : "Route du Stand",
               "short_name" : "Route du Stand",
               "types" : [ "route" ]
            },
            {
               "long_name" : "Etoy",
               "short_name" : "Etoy",
               "types" : [ "locality", "political" ]
            },
            {
               "long_name" : "Morges",
               "short_name" : "Morges",
               "types" : [ "administrative_area_level_2", "political" ]
            },
            {
               "long_name" : "Vaud",
               "short_name" : "VD",
               "types" : [ "administrative_area_level_1", "political" ]
            },
            {
               "long_name" : "Switzerland",
               "short_name" : "CH",
               "types" : [ "country", "political" ]
            },
            {
               "long_name" : "1163",
               "short_name" : "1163",
               "types" : [ "postal_code" ]
            }
         ],
         "formatted_address" : "Route du Stand, 1163 Etoy, Switzerland",
         "geometry" : {
            "bounds" : {
               "northeast" : {
                  "lat" : 46.4792,
                  "lng" : 6.414079999999999
               },
               "southwest" : {
                  "lat" : 46.4772818,
                  "lng" : 6.4082054
               }
            },
            "location" : {
               "lat" : 46.4777924,
               "lng" : 6.411425899999999
            },
            "location_type" : "GEOMETRIC_CENTER",
            "viewport" : {
               "northeast" : {
                  "lat" : 46.4795898802915,
                  "lng" : 6.414079999999999
               },
               "southwest" : {
                  "lat" : 46.47689191970851,
                  "lng" : 6.4082054
               }
            }
         },
         "types" : [ "route" ]
      },
      {
         "address_components" : [
            {
               "long_name" : "Route du Stand",
               "short_name" : "Route du Stand",
               "types" : [ "route" ]
            },
            {
               "long_name" : "Bullet",
               "short_name" : "Bullet",
               "types" : [ "locality", "political" ]
            },
            {
               "long_name" : "Jura-Nord vaudois",
               "short_name" : "Jura-Nord vaudois",
               "types" : [ "administrative_area_level_2", "political" ]
            },
            {
               "long_name" : "Vaud",
               "short_name" : "VD",
               "types" : [ "administrative_area_level_1", "political" ]
            },
            {
               "long_name" : "Switzerland",
               "short_name" : "CH",
               "types" : [ "country", "political" ]
            },
            {
               "long_name" : "1453",
               "short_name" : "1453",
               "types" : [ "postal_code" ]
            }
         ],
         "formatted_address" : "Route du Stand, 1453 Bullet, Switzerland",
         "geometry" : {
            "bounds" : {
               "northeast" : {
                  "lat" : 46.8379175,
                  "lng" : 6.5584247
               },
               "southwest" : {
                  "lat" : 46.8322295,
                  "lng" : 6.5572102
               }
            },
            "location" : {
               "lat" : 46.8348715,
               "lng" : 6.5573174
            },
            "location_type" : "GEOMETRIC_CENTER",
            "viewport" : {
               "northeast" : {
                  "lat" : 46.8379175,
                  "lng" : 6.559166430291502
               },
               "southwest" : {
                  "lat" : 46.8322295,
                  "lng" : 6.556468469708498
               }
            }
         },
         "types" : [ "route" ]
      },
      {
         "address_components" : [
            {
               "long_name" : "Route du Stand",
               "short_name" : "Route du Stand",
               "types" : [ "route" ]
            },
            {
               "long_name" : "Saint-Aubin",
               "short_name" : "Saint-Aubin",
               "types" : [ "locality", "political" ]
            },
            {
               "long_name" : "La Broye",
               "short_name" : "La Broye",
               "types" : [ "administrative_area_level_2", "political" ]
            },
            {
               "long_name" : "Fribourg",
               "short_name" : "FR",
               "types" : [ "administrative_area_level_1", "political" ]
            },
            {
               "long_name" : "Switzerland",
               "short_name" : "CH",
               "types" : [ "country", "political" ]
            },
            {
               "long_name" : "1566",
               "short_name" : "1566",
               "types" : [ "postal_code" ]
            }
         ],
         "formatted_address" : "Route du Stand, 1566 Saint-Aubin, Switzerland",
         "geometry" : {
            "bounds" : {
               "northeast" : {
                  "lat" : 46.8982917,
                  "lng" : 6.9746899
               },
               "southwest" : {
                  "lat" : 46.8951995,
                  "lng" : 6.969235599999999
               }
            },
            "location" : {
               "lat" : 46.8965804,
               "lng" : 6.9716986
            },
            "location_type" : "GEOMETRIC_CENTER",
            "viewport" : {
               "northeast" : {
                  "lat" : 46.8982917,
                  "lng" : 6.9746899
               },
               "southwest" : {
                  "lat" : 46.8951995,
                  "lng" : 6.969235599999999
               }
            }
         },
         "types" : [ "route" ]
      },
      {
         "address_components" : [
            {
               "long_name" : "Route du Stand",
               "short_name" : "Route du Stand",
               "types" : [ "route" ]
            },
            {
               "long_name" : "Chevroux",
               "short_name" : "Chevroux",
               "types" : [ "locality", "political" ]
            },
            {
               "long_name" : "Broye-Vully",
               "short_name" : "Broye-Vully",
               "types" : [ "administrative_area_level_2", "political" ]
            },
            {
               "long_name" : "Vaud",
               "short_name" : "VD",
               "types" : [ "administrative_area_level_1", "political" ]
            },
            {
               "long_name" : "Switzerland",
               "short_name" : "CH",
               "types" : [ "country", "political" ]
            },
            {
               "long_name" : "1545",
               "short_name" : "1545",
               "types" : [ "postal_code" ]
            }
         ],
         "formatted_address" : "Route du Stand, 1545 Chevroux, Switzerland",
         "geometry" : {
            "bounds" : {
               "northeast" : {
                  "lat" : 46.8913911,
                  "lng" : 6.900710600000001
               },
               "southwest" : {
                  "lat" : 46.89018490000001,
                  "lng" : 6.899166999999999
               }
            },
            "location" : {
               "lat" : 46.8906648,
               "lng" : 6.8999096
            },
            "location_type" : "GEOMETRIC_CENTER",
            "viewport" : {
               "northeast" : {
                  "lat" : 46.8921369802915,
                  "lng" : 6.901287780291502
               },
               "southwest" : {
                  "lat" : 46.88943901970851,
                  "lng" : 6.898589819708498
               }
            }
         },
         "types" : [ "route" ]
      },
      {
         "address_components" : [
            {
               "long_name" : "Stand Road",
               "short_name" : "Stand Rd",
               "types" : [ "route" ]
            },
            {
               "long_name" : "Chinchani Ambak",
               "short_name" : "Chinchani Ambak",
               "types" : [ "locality", "political" ]
            },
            {
               "long_name" : "Sangli",
               "short_name" : "Sangli",
               "types" : [ "administrative_area_level_2", "political" ]
            },
            {
               "long_name" : "Maharashtra",
               "short_name" : "MH",
               "types" : [ "administrative_area_level_1", "political" ]
            },
            {
               "long_name" : "India",
               "short_name" : "IN",
               "types" : [ "country", "political" ]
            },
            {
               "long_name" : "415303",
               "short_name" : "415303",
               "types" : [ "postal_code" ]
            }
         ],
         "formatted_address" : "Stand Road, Chinchani Ambak, Maharashtra 415303, India",
         "geometry" : {
            "bounds" : {
               "northeast" : {
                  "lat" : 17.203502,
                  "lng" : 74.34857690000001
               },
               "southwest" : {
                  "lat" : 17.2014204,
                  "lng" : 74.34757429999999
               }
            },
            "location" : {
               "lat" : 17.2025222,
               "lng" : 74.347909
            },
            "location_type" : "GEOMETRIC_CENTER",
            "viewport" : {
               "northeast" : {
                  "lat" : 17.2038101802915,
                  "lng" : 74.34942458029151
               },
               "southwest" : {
                  "lat" : 17.2011122197085,
                  "lng" : 74.34672661970849
               }
            }
         },
         "types" : [ "route" ]
      },
      {
         "address_components" : [
            {
               "long_name" : "Route de Stand",
               "short_name" : "Route de Stand",
               "types" : [ "route" ]
            },
            {
               "long_name" : "Grône",
               "short_name" : "Grône",
               "types" : [ "locality", "political" ]
            },
            {
               "long_name" : "Sierre",
               "short_name" : "Sierre",
               "types" : [ "administrative_area_level_2", "political" ]
            },
            {
               "long_name" : "Valais",
               "short_name" : "VS",
               "types" : [ "administrative_area_level_1", "political" ]
            },
            {
               "long_name" : "Switzerland",
               "short_name" : "CH",
               "types" : [ "country", "political" ]
            },
            {
               "long_name" : "3979",
               "short_name" : "3979",
               "types" : [ "postal_code" ]
            }
         ],
         "formatted_address" : "Route de Stand, 3979 Grône, Switzerland",
         "geometry" : {
            "bounds" : {
               "northeast" : {
                  "lat" : 46.2501156,
                  "lng" : 7.4554541
               },
               "southwest" : {
                  "lat" : 46.249375,
                  "lng" : 7.451307000000001
               }
            },
            "location" : {
               "lat" : 46.2500679,
               "lng" : 7.453387
            },
            "location_type" : "GEOMETRIC_CENTER",
            "viewport" : {
               "northeast" : {
                  "lat" : 46.2510942802915,
                  "lng" : 7.4554541
               },
               "southwest" : {
                  "lat" : 46.2483963197085,
                  "lng" : 7.451307000000001
               }
            }
         },
         "types" : [ "route" ]
      },
      {
         "address_components" : [
            {
               "long_name" : "Route du Stand",
               "short_name" : "Route du Stand",
               "types" : [ "route" ]
            },
            {
               "long_name" : "Ayer",
               "short_name" : "Ayer",
               "types" : [ "locality", "political" ]
            },
            {
               "long_name" : "Sierre",
               "short_name" : "Sierre",
               "types" : [ "administrative_area_level_2", "political" ]
            },
            {
               "long_name" : "Valais",
               "short_name" : "VS",
               "types" : [ "administrative_area_level_1", "political" ]
            },
            {
               "long_name" : "Switzerland",
               "short_name" : "CH",
               "types" : [ "country", "political" ]
            },
            {
               "long_name" : "3961",
               "short_name" : "3961",
               "types" : [ "postal_code" ]
            }
         ],
         "formatted_address" : "Route du Stand, 3961 Ayer, Switzerland",
         "geometry" : {
            "bounds" : {
               "northeast" : {
                  "lat" : 46.1804445,
                  "lng" : 7.605505
               },
               "southwest" : {
                  "lat" : 46.1785975,
                  "lng" : 7.6031391
               }
            },
            "location" : {
               "lat" : 46.17960480000001,
               "lng" : 7.6043339
            },
            "location_type" : "GEOMETRIC_CENTER",
            "viewport" : {
               "northeast" : {
                  "lat" : 46.1808699802915,
                  "lng" : 7.605671030291503
               },
               "southwest" : {
                  "lat" : 46.1781720197085,
                  "lng" : 7.602973069708498
               }
            }
         },
         "types" : [ "route" ]
      },
      {
         "address_components" : [
            {
               "long_name" : "Stand Road",
               "short_name" : "Stand Rd",
               "types" : [ "route" ]
            },
            {
               "long_name" : "Panthiya",
               "short_name" : "Panthiya",
               "types" : [ "neighborhood", "political" ]
            },
            {
               "long_name" : "Matugama",
               "short_name" : "Matugama",
               "types" : [ "locality", "political" ]
            },
            {
               "long_name" : "Kalutara",
               "short_name" : "Kalutara",
               "types" : [ "administrative_area_level_2", "political" ]
            },
            {
               "long_name" : "Western Province",
               "short_name" : "WP",
               "types" : [ "administrative_area_level_1", "political" ]
            },
            {
               "long_name" : "Sri Lanka",
               "short_name" : "LK",
               "types" : [ "country", "political" ]
            }
         ],
         "formatted_address" : "Stand Road, Matugama, Sri Lanka",
         "geometry" : {
            "bounds" : {
               "northeast" : {
                  "lat" : 6.5229845,
                  "lng" : 80.11606399999999
               },
               "southwest" : {
                  "lat" : 6.5225784,
                  "lng" : 80.11564059999999
               }
            },
            "location" : {
               "lat" : 6.5228088,
               "lng" : 80.11577749999999
            },
            "location_type" : "GEOMETRIC_CENTER",
            "viewport" : {
               "northeast" : {
                  "lat" : 6.524130430291502,
                  "lng" : 80.1172012802915
               },
               "southwest" : {
                  "lat" : 6.521432469708498,
                  "lng" : 80.11450331970849
               }
            }
         },
         "types" : [ "route" ]
      }
   ],
   "status" : "OK"
}
